google_place_id,name,category,primary_type,primary_type_name,activities,lat,lon,address,rating,rating_count,price_level,business_status,website,google_maps_url,all_types,found_via_category,found_via_cell
ChIJ6b4fJx1KBTERJtTZEhSW-T8,Phare Ponleu Selpak,attraction,performing_arts_theater,Performing Arts Theater,,13.1115563,103.18595599999999,"456P+F7X ANCHANH VILLAGE, Phum Anh'Chanh, Cambodia",4.8,566,,OPERATIONAL,http://www.phareps.org/?ref=tour-gmaps,https://maps.google.com/?cid=4609880706550191142&g_mp=Cilnb29nbGUubWFwcy5wbGFjZXMudjEuUGxhY2VzLlNlYXJjaE5lYXJieRACGAQgAA,performing_arts_theater;non_profit_organization;event_venue;sports_school;tourist_attraction;school;educational_institution;association_or_organization;service;point_of_interest;establishment,tourist_attraction,Battambang town
ChIJIfytkY5JBTERof9PJnKo4wA,Romcheik 5 Artspace & Café,cultural,art_museum,Art museum,sightseeing,13.0994025,103.2036183,"Street 201A, Krong Battambang, Cambodia",4.7,500,,OPERATIONAL,https://bio.link/romcheik5artcafe,https://maps.google.com/?cid=64080027935834017&g_mp=Cilnb29nbGUubWFwcy5wbGFjZXMudjEuUGxhY2VzLlNlYXJjaE5lYXJieRACGAQgAA,art_gallery;coffee_shop;cafe;tourist_attraction;food_store;art_museum;museum;store;restaurant;point_of_interest;food;establishment,tourist_attraction,Battambang town
ChIJ1dlhHA9LBTERnZ8jZ8SeA1s,Lazy Mango Homestay // Battambang Tuk Tuk Buddy,attraction,hotel,Hotel,,13.1133888,103.2090765,"387, Group 18 Street 513, Krong Battambang 021105, Cambodia",4.9,192,,OPERATIONAL,https://www.booking.com/Share-8WGLHO,https://maps.google.com/?cid=6558260048762740637&g_mp=Cilnb29nbGUubWFwcy5wbGFjZXMudjEuUGxhY2VzLlNlYXJjaE5lYXJieRACGAQgAA,hotel;guest_house;tour_agency;travel_agency;lodging;tourist_attraction;transportation_service;service;point_of_interest;establishment,tourist_attraction,Battambang town
ChIJa0OyhSk5BTERx9uiNPUbbEQ,Banan Temple,cultural,hindu_temple,Hindu Temple,sightseeing,12.9509276,103.13978189999999,"X42Q+9WF, បាណន់, Cambodia",4.7,156,,OPERATIONAL,,https://maps.google.com/?cid=4930346432027876295&g_mp=Cilnb29nbGUubWFwcy5wbGFjZXMudjEuUGxhY2VzLlNlYXJjaE5lYXJieRACGAQgAA,hindu_temple;place_of_worship;association_or_organization;point_of_interest;establishment,hindu_temple,Battambang town
ChIJWU-9z143BTERP4gwk4sn2-U,Bat Cave Phnom Sampov,attraction,tourist_attraction,Tourist Attraction,,13.0266826,103.0991085,"បាណន់, Cambodia",4.5,1473,,OPERATIONAL,,https://maps.google.com/?cid=16562875535008499775&g_mp=Cilnb29nbGUubWFwcy5wbGFjZXMudjEuUGxhY2VzLlNlYXJjaE5lYXJieRACGAQgAA,tourist_attraction;point_of_interest;establishment,tourist_attraction,Battambang town
ChIJzSEu_plJBTERgI6TV2YJdCg,Lok Ta Dambong Kra Nhoung,attraction,place_of_worship,Place of Worship,,13.0906299,103.20850879999999,"Sangke, Krong Battambang 12000, Cambodia",4.5,1096,,OPERATIONAL,,https://maps.google.com/?cid=2914965193976155776&g_mp=Cilnb29nbGUubWFwcy5wbGFjZXMudjEuUGxhY2VzLlNlYXJjaE5lYXJieRACGAQgAA,place_of_worship;tourist_attraction;association_or_organization;point_of_interest;establishment,tourist_attraction,Battambang town
ChIJ02LZjYhJBTERhWYZRPhINSk,Battambang Catholic Church,cultural,church,Church,sightseeing,13.1043953,103.2078305,"Battambang, 153, Krong Battambang, Cambodia",4.9,53,,OPERATIONAL,http://www.battambangparish.org/,https://maps.google.com/?cid=2969359760452314757&g_mp=Cilnb29nbGUubWFwcy5wbGFjZXMudjEuUGxhY2VzLlNlYXJjaE5lYXJieRACGAQgAA,church;place_of_worship;association_or_organization;point_of_interest;establishment,church,Battambang town
ChIJtRkfajVKBTERTHkkpbmIlqA,Samrong Krong Killing Field,cultural,historical_landmark,Historical Landmark,,13.128743499999999,103.2186591,"46H9+FFV, Krong Battambang, Cambodia",4.6,98,,OPERATIONAL,,https://maps.google.com/?cid=11571586623496026444&g_mp=Cilnb29nbGUubWFwcy5wbGFjZXMudjEuUGxhY2VzLlNlYXJjaE5lYXJieRACGAQgAA,historical_landmark;historical_place;tourist_attraction;point_of_interest;establishment,tourist_attraction,Battambang town
ChIJAxyblQBLBTERRdU34w4PUmQ,Ek Phnom Temple,cultural,hindu_temple,Hindu Temple,sightseeing,13.1627096,103.1873123,"557P+GR, Krong Battambang, Cambodia",4.7,57,,OPERATIONAL,,https://maps.google.com/?cid=7228856908499113285&g_mp=Cilnb29nbGUubWFwcy5wbGFjZXMudjEuUGxhY2VzLlNlYXJjaE5lYXJieRACGAQgAA,hindu_temple;place_of_worship;association_or_organization;point_of_interest;establishment,hindu_temple,Battambang town
ChIJX7U1irJLBTERdBUvkzzf5ek,Wat Samrong Knong,cultural,buddhist_temple,Buddhist Temple,sightseeing,13.1276928,103.2200349,"46HC+32F, 153, Krong Battambang, Cambodia",4.5,281,,OPERATIONAL,,https://maps.google.com/?cid=16854122631764317556&g_mp=Cilnb29nbGUubWFwcy5wbGFjZXMudjEuUGxhY2VzLlNlYXJjaE5lYXJieRACGAQgAA,buddhist_temple;tourist_attraction;place_of_worship;association_or_organization;point_of_interest;establishment,tourist_attraction,Battambang town
ChIJC75PPKhJBTERY1wRecRdXyc,Independence Monument (Battambang),cultural,historical_landmark,Historical Landmark,,13.094033399999999,103.1984961,"35VX+HFV, Rd No 1, Krong Battambang, Cambodia",4.6,54,,OPERATIONAL,,https://maps.google.com/?cid=2837089388692855907&g_mp=Cilnb29nbGUubWFwcy5wbGFjZXMudjEuUGxhY2VzLlNlYXJjaE5lYXJieRACGAQgAA,historical_landmark;historical_place;point_of_interest;establishment,historical_landmark,Battambang town
ChIJubuj8o1JBTERS4Z-OHGrf4c,Wat Kandal,cultural,buddhist_temple,Buddhist Temple,sightseeing,13.0976144,103.20149889999999,"36X2+2HX, Street 207, Krong Battambang, Cambodia",4.5,100,,OPERATIONAL,,https://maps.google.com/?cid=9763711019929994827&g_mp=Cilnb29nbGUubWFwcy5wbGFjZXMudjEuUGxhY2VzLlNlYXJjaE5lYXJieRACGAQgAA,buddhist_temple;tourist_attraction;place_of_worship;association_or_organization;point_of_interest;establishment,tourist_attraction,Battambang town
ChIJDxs1oY5JBTER-IlK8mJDr5s,វត្ត ពោធិ៍វាល,cultural,buddhist_temple,Buddhist Temple,sightseeing,13.1013398,103.20313900000001,"4623+G7J, Krong Battambang, Cambodia",4.5,78,,OPERATIONAL,,https://maps.google.com/?cid=11218259289054022136&g_mp=Cilnb29nbGUubWFwcy5wbGFjZXMudjEuUGxhY2VzLlNlYXJjaE5lYXJieRACGAQgAA,buddhist_temple;place_of_worship;association_or_organization;point_of_interest;establishment,buddhist_temple,Battambang town
ChIJrcPvvQk5BTERGjrBG2O0HNM,ភ្នំបាណន់,attraction,tourist_attraction,Tourist Attraction,,12.954144,103.138932,"X43Q+M99, បាណន់, Cambodia",4.5,67,,OPERATIONAL,,https://maps.google.com/?cid=15212231979111103002&g_mp=Cilnb29nbGUubWFwcy5wbGFjZXMudjEuUGxhY2VzLlNlYXJjaE5lYXJieRACGAQgAA,tourist_attraction;point_of_interest;establishment,tourist_attraction,Battambang town
ChIJU__YaE5LBTERXm4SqXTNxxY,Ek Phnom Kun Khmer Arena,urban,stadium,Stadium,,13.1425954,103.19206349999999,"45VR+2RP, Street 1738, Krong Battambang, Cambodia",4.5,57,,OPERATIONAL,http://www.facebook.com/EkPhnomKunKhmer,https://maps.google.com/?cid=1641506490136292958&g_mp=Cilnb29nbGUubWFwcy5wbGFjZXMudjEuUGxhY2VzLlNlYXJjaE5lYXJieRACGAQgAA,stadium;event_venue;sports_complex;sports_activity_location;point_of_interest;establishment,stadium,Battambang town
ChIJ_UJmH1Y5BTERHNADbF4htHs,Bats view,attraction,tourist_attraction,Tourist Attraction,,13.027335899999999,103.0995937,"23FV+5X, Krong Battambang, Cambodia",4.4,51,,OPERATIONAL,,https://maps.google.com/?cid=8913786251895885852&g_mp=Cilnb29nbGUubWFwcy5wbGFjZXMudjEuUGxhY2VzLlNlYXJjaE5lYXJieRACGAQgAA,tourist_attraction;point_of_interest;establishment,tourist_attraction,Battambang town
ChIJ-d6bLhZIBTERO6DDtWpKEOQ,Cambodia Peace Gallery,cultural,museum,Museum,sightseeing,13.0408955,103.1889593,"154, Khsach Poy, Sangkat, Krong Battambang 021408, Cambodia",4.4,87,,OPERATIONAL,http://cambodiapeacegallery.org/,https://maps.google.com/?cid=16433716862451425339&g_mp=Cilnb29nbGUubWFwcy5wbGFjZXMudjEuUGxhY2VzLlNlYXJjaE5lYXJieRACGAQgAA,museum;point_of_interest;establishment,museum,Battambang town
ChIJPT4oZ183BTERLkmDZmnSZaQ,Phnom Sampow Pagoda,cultural,historical_landmark,Historical Landmark,,13.0232882,103.1004433,"ផ្លូវ សំពៅ-បាណន់, ផ្លូវជាតិលេខ៥៧, Krong Battambang, Cambodia",4.4,961,,OPERATIONAL,,https://maps.google.com/?cid=11846105745001236782&g_mp=Cilnb29nbGUubWFwcy5wbGFjZXMudjEuUGxhY2VzLlNlYXJjaE5lYXJieRACGAQgAA,historical_landmark;historical_place;point_of_interest;establishment,historical_landmark,Battambang town
ChIJTzkGraw3BTERVgphUAXLggM,Global House Battambang,urban,shopping_mall,Shopping Mall,shopping,13.0959294,103.1735113,"1753 Plov Phum Ang, Sangkat Ochar, Krong Battambang, City, Cambodia",4.2,56,,OPERATIONAL,https://www.globalhousecambodia.com/,https://maps.google.com/?cid=252987752769981014&g_mp=Cilnb29nbGUubWFwcy5wbGFjZXMudjEuUGxhY2VzLlNlYXJjaE5lYXJieRACGAQgAA,shopping_mall;point_of_interest;establishment,shopping_mall,Battambang town
ChIJCXE_iZJJBTERhWHZAXr5DtM,The Garden of SamDech Sar Kheng,nature,park,Park,walking,13.0959741,103.19970719999999,"Krong Battambang, Cambodia",4.2,77,,OPERATIONAL,,https://maps.google.com/?cid=15208367294089093509&g_mp=Cilnb29nbGUubWFwcy5wbGFjZXMudjEuUGxhY2VzLlNlYXJjaE5lYXJieRACGAQgAA,park;point_of_interest;establishment,park,Battambang town
ChIJodvdCNw5BTERw6tVdAr7_qY,សួនជើងភ្នំបាណន់ ចំណតឡូរី,nature,park,Park,walking,12.9585951,103.1185393,"X459+CCM, Unnamed Road, បាណន់, Cambodia",4.3,183,,OPERATIONAL,,https://maps.google.com/?cid=12033331276700560323&g_mp=Cilnb29nbGUubWFwcy5wbGFjZXMudjEuUGxhY2VzLlNlYXJjaE5lYXJieRACGAQgAA,park;point_of_interest;establishment,park,Battambang town
ChIJJWvd0Q9JBTER0N4sTgMdrgw,Phsar Leu Market,urban,market,Market,shopping,13.085142399999999,103.1992283,"35PX+3M5, Street 151, Krong Battambang, Cambodia",4.1,63,,OPERATIONAL,,https://maps.google.com/?cid=913699674436460240&g_mp=Cilnb29nbGUubWFwcy5wbGFjZXMudjEuUGxhY2VzLlNlYXJjaE5lYXJieRACGAQgAA,market;shopping_mall;point_of_interest;establishment,shopping_mall,Battambang town
ChIJZfNasI81BTERunTC1i6IWHo,កោះសាងស្នេហ៍,attraction,tourist_attraction,Tourist Attraction,,13.2006679,103.1558428,"Krong Battambang, Cambodia",4.1,70,,OPERATIONAL,,https://maps.google.com/?cid=8815946005330687162&g_mp=Cilnb29nbGUubWFwcy5wbGFjZXMudjEuUGxhY2VzLlNlYXJjaE5lYXJieRACGAQgAA,tourist_attraction;point_of_interest;establishment,tourist_attraction,Battambang town
ChIJGaNXADFMBTERedvUZPlSBsI,Baset Temple,cultural,hindu_temple,Hindu Temple,sightseeing,13.1167367,103.3038727,"Ta Pon, O Krasang, Cambodia",4.3,284,,OPERATIONAL,,https://maps.google.com/?cid=13980953324310289273&g_mp=Cilnb29nbGUubWFwcy5wbGFjZXMudjEuUGxhY2VzLlNlYXJjaE5lYXJieRACGAQgAA,hindu_temple;tourist_attraction;place_of_worship;association_or_organization;point_of_interest;establishment,tourist_attraction,Battambang town
ChIJyR62FSJJBTER8UwmLoRlgN0,Bamboo Train Ou Sra Lao,attraction,tourist_attraction,Tourist Attraction,,13.0185625,103.24331250000002,"Krong Battambang, Cambodia",4.3,303,,OPERATIONAL,,https://maps.google.com/?cid=15960868697785388273&g_mp=Cilnb29nbGUubWFwcy5wbGFjZXMudjEuUGxhY2VzLlNlYXJjaE5lYXJieRACGAQgAA,tourist_attraction;point_of_interest;establishment,tourist_attraction,Battambang town
ChIJCaP5zZJJBTERmNtvOY5pncg,Damrey Sor Pagoda,cultural,buddhist_temple,Buddhist Temple,sightseeing,13.094915799999999,103.19689009999999,"វត្តដំរីស Krong Battambang, Cambodia",4.3,433,,OPERATIONAL,,https://maps.google.com/?cid=14455826438499064728&g_mp=Cilnb29nbGUubWFwcy5wbGFjZXMudjEuUGxhY2VzLlNlYXJjaE5lYXJieRACGAQgAA,buddhist_temple;tourist_attraction;place_of_worship;association_or_organization;point_of_interest;establishment,tourist_attraction,Battambang town
ChIJk6y-kPVJBTER2Hm-RMEQ_AM,Preah Noray Roundabout,cultural,historical_landmark,Historical Landmark,,13.1076094,103.19338379999999,"455V+29R, Street 530, Phum Ochar, Cambodia",4.3,621,,OPERATIONAL,,https://maps.google.com/?cid=287122898512935384&g_mp=Cilnb29nbGUubWFwcy5wbGFjZXMudjEuUGxhY2VzLlNlYXJjaE5lYXJieRACGAQgAA,historical_landmark;historical_place;point_of_interest;establishment,historical_landmark,Battambang town
ChIJ0cqWq49KBTERCFL-baAjvX4,Ek Phnom Pagoda,cultural,buddhist_temple,Buddhist Temple,sightseeing,13.162721699999999,103.1880046,"Peam Ek Village, Cambodia",4.3,761,,OPERATIONAL,,https://maps.google.com/?cid=9132494791324357128&g_mp=Cilnb29nbGUubWFwcy5wbGFjZXMudjEuUGxhY2VzLlNlYXJjaE5lYXJieRACGAQgAA,buddhist_temple;hindu_temple;tourist_attraction;place_of_worship;association_or_organization;point_of_interest;establishment,tourist_attraction,Battambang town
ChIJL5Ctw5JJBTERBXSe3KC21Jo,National Museum,cultural,museum,Museum,sightseeing,13.0948551,103.1981831,"1 57, Krong Battambang, Cambodia",4.2,361,,OPERATIONAL,,https://maps.google.com/?cid=11156742978915955717&g_mp=Cilnb29nbGUubWFwcy5wbGFjZXMudjEuUGxhY2VzLlNlYXJjaE5lYXJieRACGAQgAA,museum;point_of_interest;establishment,museum,Battambang town
ChIJR6TENeI5BTERGc1n3i9if3o,The Killing Cave,cultural,history_museum,History Museum,sightseeing,13.0206781,103.0977362,"Chrey Korng village, Cambodia",4.1,274,,OPERATIONAL,,https://maps.google.com/?cid=8826881752403791129&g_mp=Cilnb29nbGUubWFwcy5wbGFjZXMudjEuUGxhY2VzLlNlYXJjaE5lYXJieRACGAQgAA,history_museum;museum;point_of_interest;establishment,museum,Battambang town
ChIJTxniobVJBTERLKW8koOmBTc,Mrs. Bun Roeung’s Ancient House,cultural,museum,Museum,sightseeing,13.0733108,103.2025838,"Krong Battambang, Cambodia",4.1,343,,OPERATIONAL,,https://maps.google.com/?cid=3964758131002352940&g_mp=Cilnb29nbGUubWFwcy5wbGFjZXMudjEuUGxhY2VzLlNlYXJjaE5lYXJieRACGAQgAA,museum;tourist_attraction;point_of_interest;establishment,tourist_attraction,Battambang town
