google_place_id,name,category,primary_type,primary_type_name,activities,lat,lon,address,rating,rating_count,price_level,business_status,website,google_maps_url,all_types,found_via_category,found_via_cell
ChIJO0c7MWxADDERRRedO4FVPnc,Phnom Srei,cultural,historical_landmark,Historical Landmark,,12.0301181,105.4218176,"2CJC+2PW, Kampong Siem District, Cambodia",4.2,273,,OPERATIONAL,,https://maps.google.com/?cid=8592399152608778053&g_mp=Cilnb29nbGUubWFwcy5wbGFjZXMudjEuUGxhY2VzLlNlYXJjaE5lYXJieRACGAQgAA,historical_landmark;tourist_attraction;historical_place;point_of_interest;establishment,tourist_attraction,Kampong Cham
ChIJ1ZV7Q1NrDDERKIK7FKES3ow,Kizuna Bridge Roundabout,attraction,tourist_attraction,Tourist Attraction,,11.987103099999999,105.4619426,"XFP6+RQM, Krong Kampong Cham, Cambodia",4.2,420,,OPERATIONAL,,https://maps.google.com/?cid=10150571093186544168&g_mp=Cilnb29nbGUubWFwcy5wbGFjZXMudjEuUGxhY2VzLlNlYXJjaE5lYXJieRACGAQgAA,tourist_attraction;point_of_interest;establishment,tourist_attraction,Kampong Cham
ChIJ8cXNP14vDDERzjZevfJPWn0,Kbal Toek Chha Resort,cultural,restaurant,Restaurant,sightseeing;walking,12.199826999999999,105.2094818,"Unnamed Road, ភូមិ ថ្មដា, Cambodia",4,82,,OPERATIONAL,,https://maps.google.com/?cid=9032619906622699214&g_mp=Cilnb29nbGUubWFwcy5wbGFjZXMudjEuUGxhY2VzLlNlYXJjaE5lYXJieRACGAQgAA,restaurant;tourist_attraction;adventure_sports_center;national_park;park;museum;sports_complex;sports_activity_location;food;point_of_interest;establishment,tourist_attraction,Kampong Cham
ChIJk3YpAp1qDDERkg_m07LH8tg,Nokor BaChey temple,cultural,buddhist_temple,Buddhist Temple,sightseeing,11.999970699999999,105.4391395,"Wat Nokor, Bachey, Kampong Siem District, Cambodia",4.4,568,,OPERATIONAL,,https://maps.google.com/?cid=15632776827429588882&g_mp=Cilnb29nbGUubWFwcy5wbGFjZXMudjEuUGxhY2VzLlNlYXJjaE5lYXJieRACGAQgAA,buddhist_temple;tourist_attraction;place_of_worship;association_or_organization;point_of_interest;establishment,tourist_attraction,Kampong Cham
ChIJMXXWWwBtDDERSj7JH_g1FKk,ជីហែរ,attraction,tourist_attraction,Tourist Attraction,,11.8876736,105.4305835,"VCQJ+368, Kaoh Soutin, Cambodia",4.2,28,,OPERATIONAL,,https://maps.google.com/?cid=12183422231745478218&g_mp=Cilnb29nbGUubWFwcy5wbGFjZXMudjEuUGxhY2VzLlNlYXJjaE5lYXJieRACGAQgAA,tourist_attraction;point_of_interest;establishment,tourist_attraction,Kampong Cham
ChIJB8RSwQJrDDERQrOgxwyz6n0,Independence Monument (Kampong Cham),cultural,historical_landmark,Historical Landmark,,11.9991463,105.45156039999999,"Number7old កំពង់ចាម, Krong Kampong Cham 030403, Cambodia",4.4,39,,OPERATIONAL,,https://maps.google.com/?cid=9073261266761462594&g_mp=Cilnb29nbGUubWFwcy5wbGFjZXMudjEuUGxhY2VzLlNlYXJjaE5lYXJieRACGAQgAA,historical_landmark;tourist_attraction;historical_place;point_of_interest;establishment,tourist_attraction,Kampong Cham
ChIJ54CJRVdBDDERMt1ySxhV-0Q,Phnom Baley,attraction,tourist_attraction,Tourist Attraction,,12.035261799999999,105.4242642,"2CPF+4P, Kampong Siem District, Cambodia",4.8,10,,OPERATIONAL,,https://maps.google.com/?cid=4970660176566869298&g_mp=Cilnb29nbGUubWFwcy5wbGFjZXMudjEuUGxhY2VzLlNlYXJjaE5lYXJieRACGAQgAA,tourist_attraction;point_of_interest;establishment,tourist_attraction,Kampong Cham
ChIJK4IJOHJADDERutyr2n5zfBc,Phnom Bros Library,attraction,tourist_attraction,Tourist Attraction,,12.030605,105.4176256,"NR7, Cambodia",4.2,350,,OPERATIONAL,,https://maps.google.com/?cid=1692354548656233658&g_mp=Cilnb29nbGUubWFwcy5wbGFjZXMudjEuUGxhY2VzLlNlYXJjaE5lYXJieRACGAQgAA,tourist_attraction;point_of_interest;establishment,tourist_attraction,Kampong Cham
ChIJpz5y0jo_DDERTyVbaSjaCj4,រមណីយដ្ឋានបឹងធំ,attraction,tourist_attraction,Tourist Attraction,,12.014588999999999,105.354016,"2973+RJ, Traeung, Cambodia",4,23,,OPERATIONAL,,https://maps.google.com/?cid=4470625447219766607&g_mp=Cilnb29nbGUubWFwcy5wbGFjZXMudjEuUGxhY2VzLlNlYXJjaE5lYXJieRACGAQgAA,tourist_attraction;point_of_interest;establishment,tourist_attraction,Kampong Cham
ChIJY5uVVgBhDDERiDcGo88V19M,រង្វង់មូលសាលាខេត្តត្បូងឃ្មុំ,attraction,tourist_attraction,Tourist Attraction,,11.8961885,105.7813572,"VQWJ+FGH, Cambodia",3.5,4,,OPERATIONAL,,https://maps.google.com/?cid=15264693443533092744&g_mp=Cilnb29nbGUubWFwcy5wbGFjZXMudjEuUGxhY2VzLlNlYXJjaE5lYXJieRACGAQgAA,tourist_attraction;point_of_interest;establishment,tourist_attraction,Kampong Cham
ChIJIzM91yWJCzERzQOmvG9mRU0,បឹងកក់,attraction,tourist_attraction,Tourist Attraction,,11.571284,105.54787019999999,"HGCX+G49, Chrey, Cambodia",4.3,18,,OPERATIONAL,,https://maps.google.com/?cid=5567969144405885901&g_mp=Cilnb29nbGUubWFwcy5wbGFjZXMudjEuUGxhY2VzLlNlYXJjaE5lYXJieRACGAQgAA,tourist_attraction;point_of_interest;establishment,tourist_attraction,Kampong Cham
ChIJ5UZHwUJ9DDERQdb7eENmaEM,ទឹកបាក់អាយ,attraction,tourist_attraction,Tourist Attraction,,11.7837078,105.78134399999999,"QQMJ+FG, Kandaol Chrum, Cambodia",4.5,6,,OPERATIONAL,,https://maps.google.com/?cid=4857244638097692225&g_mp=Cilnb29nbGUubWFwcy5wbGFjZXMudjEuUGxhY2VzLlNlYXJjaE5lYXJieRACGAQgAA,tourist_attraction;point_of_interest;establishment,tourist_attraction,Kampong Cham
ChIJC5Hd_IZBDDERGRtj4T1CvSc,Cheung Kok Ecotourism Village,attraction,tourist_attraction,Tourist Attraction,,12.0176155,105.4076351,"Cheung Kok Village, 2C95+23R, Cambodia",4.6,77,,OPERATIONAL,,https://maps.google.com/?cid=2863517771619310361&g_mp=Cilnb29nbGUubWFwcy5wbGFjZXMudjEuUGxhY2VzLlNlYXJjaE5lYXJieRACGAQgAA,tourist_attraction;point_of_interest;establishment,tourist_attraction,Kampong Cham
ChIJnY_U8GAlDDER5DRlb4G9UPQ,Toek Chha Tourism Site,attraction,tourist_attraction,Tourist Attraction,,12.1907105,105.1940489,"55RV+7JM, ភូមិ ថ្មដា, Cambodia",4.2,33,,OPERATIONAL,,https://maps.google.com/?cid=17604779307008603364&g_mp=Cilnb29nbGUubWFwcy5wbGFjZXMudjEuUGxhY2VzLlNlYXJjaE5lYXJieRACGAQgAA,tourist_attraction;point_of_interest;establishment,tourist_attraction,Kampong Cham
ChIJoZ6mor9tDDERfTp9ko-KwBI,Preah Theat Ba Srei Temple,cultural,hindu_temple,Hindu Temple,sightseeing,11.8474798,105.4756218,"RFWG+X6X, Tonle Bet, Cambodia",3.8,9,,OPERATIONAL,,https://maps.google.com/?cid=1351232237453785725&g_mp=Cilnb29nbGUubWFwcy5wbGFjZXMudjEuUGxhY2VzLlNlYXJjaE5lYXJieRACGAQgAA,hindu_temple;tourist_attraction;place_of_worship;association_or_organization;point_of_interest;establishment,tourist_attraction,Kampong Cham
ChIJtbm_yIRpDDERN32BpW8FUMs,កន្លែងល្អសំរាប់ស្ទូចត្រី អង្គុយអាំងសាច់,attraction,tourist_attraction,Tourist Attraction,,11.962910899999999,105.5255273,"XG7F+XH, Tonle Bet, Cambodia",4.4,11,,OPERATIONAL,,https://maps.google.com/?cid=14650215564912459063&g_mp=Cilnb29nbGUubWFwcy5wbGFjZXMudjEuUGxhY2VzLlNlYXJjaE5lYXJieRACGAQgAA,tourist_attraction;point_of_interest;establishment,tourist_attraction,Kampong Cham
ChIJr5P0yr9tDDERYkYbuIxNpuE,Wat Preah theat,attraction,place_of_worship,Place of Worship,,11.846748999999999,105.474329,"RFWF+MPW, Cambodia",4.6,20,,OPERATIONAL,,https://maps.google.com/?cid=16259768771447309922&g_mp=Cilnb29nbGUubWFwcy5wbGFjZXMudjEuUGxhY2VzLlNlYXJjaE5lYXJieRACGAQgAA,tourist_attraction;place_of_worship;association_or_organization;point_of_interest;establishment,tourist_attraction,Kampong Cham
ChIJST51shZnDDERI3xUoV3eJfA,Suong Elephant Statue,attraction,tourist_attraction,Tourist Attraction,,11.911462,105.652006,"WM62+HVW, Suong, Cambodia",3.6,9,,OPERATIONAL,,https://maps.google.com/?cid=17304481636960992291&g_mp=Cilnb29nbGUubWFwcy5wbGFjZXMudjEuUGxhY2VzLlNlYXJjaE5lYXJieRACGAQgAA,tourist_attraction;point_of_interest;establishment,tourist_attraction,Kampong Cham
ChIJVyzgDQA5DDERT2BvaeQ2snw,ទឹកធ្លាក់,attraction,tourist_attraction,Tourist Attraction,,12.104290299999999,105.3736519,"493F+PF6, Cambodia",3,5,,OPERATIONAL,,https://maps.google.com/?cid=8985304561206911055&g_mp=Cilnb29nbGUubWFwcy5wbGFjZXMudjEuUGxhY2VzLlNlYXJjaE5lYXJieRACGAQgAA,tourist_attraction;point_of_interest;establishment,tourist_attraction,Kampong Cham
ChIJGwAEWABjDDERGs_VD0lc2RM,Ramp St. 71C,attraction,tourist_attraction,Tourist Attraction,,11.8650594,105.7328859,"VP8M+25C, Khnar, Cambodia",3.7,6,,OPERATIONAL,,https://maps.google.com/?cid=1430275825534881562&g_mp=Cilnb29nbGUubWFwcy5wbGFjZXMudjEuUGxhY2VzLlNlYXJjaE5lYXJieRACGAQgAA,tourist_attraction;point_of_interest;establishment,tourist_attraction,Kampong Cham
ChIJd5pV50xDDDERt8-5T4dOv-8,កោះ​សំរោង​,cultural,museum,Museum,sightseeing,12.0632386,105.51756259999999,"3G79+72W, Cambodia",1,1,,OPERATIONAL,,https://maps.google.com/?cid=17275613038681640887&g_mp=Cilnb29nbGUubWFwcy5wbGFjZXMudjEuUGxhY2VzLlNlYXJjaE5lYXJieRACGAQgAA,museum;point_of_interest;establishment,museum,Kampong Cham
ChIJH0eUSGcjDDERdmjbAiWHlZM,Sosen Pagoda,cultural,museum,Museum,sightseeing,12.054989299999999,105.1664419,"AH11, Cambodia",3.4,8,,OPERATIONAL,,https://maps.google.com/?cid=10634554688136767606&g_mp=Cilnb29nbGUubWFwcy5wbGFjZXMudjEuUGxhY2VzLlNlYXJjaE5lYXJieRACGAQgAA,museum;point_of_interest;establishment,museum,Kampong Cham
ChIJz2mgGsMZDDERLo9h-jzqUeA,ទួលក្ដីក្នុង,cultural,museum,Museum,sightseeing,11.9291703,105.2016925,"W6H2+MM8, Cambodia",,,,OPERATIONAL,,https://maps.google.com/?cid=16163958085229055790&g_mp=Cilnb29nbGUubWFwcy5wbGFjZXMudjEuUGxhY2VzLlNlYXJjaE5lYXJieRACGAQgAA,museum;point_of_interest;establishment,museum,Kampong Cham
ChIJIVj2ZXhlDDERPSfKBcTZBOc,វតវិជយរង្សី,cultural,museum,Museum,sightseeing,11.835260300000002,105.6838238,"RMPM+4G4, Cambodia",,,,OPERATIONAL,,https://maps.google.com/?cid=16646669558602147645&g_mp=Cilnb29nbGUubWFwcy5wbGFjZXMudjEuUGxhY2VzLlNlYXJjaE5lYXJieRACGAQgAA,museum;point_of_interest;establishment,museum,Kampong Cham
ChIJN83SId5rDDERrBOKLDnk9JM,អាគារសារមន្ទីរខ្មែរក្រហម,cultural,museum,Museum,sightseeing,11.9962702,105.45070539999999,"XFW2+8CQ, ផ្លូវ​ជាតិលេខ​៧​ចាស់, Krong Kampong Cham, Cambodia",2,1,,OPERATIONAL,,https://maps.google.com/?cid=10661397152104321964&g_mp=Cilnb29nbGUubWFwcy5wbGFjZXMudjEuUGxhY2VzLlNlYXJjaE5lYXJieRACGAQgAA,museum;point_of_interest;establishment,museum,Kampong Cham
ChIJVRIRBe1jDDER5HDVkgxV9yk,មន្ទីរវប្បធម៌និងវិចិត្រសិល្បៈខេត្តត្បូងឃ្មុំ,cultural,museum,Museum,sightseeing,11.897052200000001,105.7858294,"ទីរួមខេត្តត្បូងឃ្មុំ, 250612, Cambodia",1,1,,OPERATIONAL,https://sokkheang_2d.artstation.com/,https://maps.google.com/?cid=3023979187294007524&g_mp=Cilnb29nbGUubWFwcy5wbGFjZXMudjEuUGxhY2VzLlNlYXJjaE5lYXJieRACGAQgAA,museum;point_of_interest;establishment,museum,Kampong Cham
ChIJY9Z3reBxDDERmKVOo56Yu84,ទីលានបាល់ទាត់ហ្វូតសាលព្រៃព្រះធាតុ,cultural,museum,Museum,sightseeing,11.764507499999999,105.5850653,"QH7P+R2, Phum Cha, Cambodia",,,,CLOSED_TEMPORARILY,,https://maps.google.com/?cid=14896667999570142616&g_mp=Cilnb29nbGUubWFwcy5wbGFjZXMudjEuUGxhY2VzLlNlYXJjaE5lYXJieRACGAQgAA,museum;point_of_interest;establishment,museum,Kampong Cham
ChIJjfMJgUM7DDER8HQd9VNEZLM,Ah ma,cultural,museum,Museum,sightseeing,12.098291800000002,105.3131185,"38X7+869, Cambodia",,,,OPERATIONAL,,https://maps.google.com/?cid=12926531957845488880&g_mp=Cilnb29nbGUubWFwcy5wbGFjZXMudjEuUGxhY2VzLlNlYXJjaE5lYXJieRACGAQgAA,museum;point_of_interest;establishment,museum,Kampong Cham
ChIJAWZiaQBxDDERbBUKPwTnTg4,អណ្ដូងទឹកបុរាណពពីរ អ្នកប្រើភូមិលេខ២និងភូមិថ្មី,cultural,museum,Museum,sightseeing,11.788930899999999,105.50255419999999,"QGQ3+H2F, Ou Reang Ov District, Cambodia",,,,OPERATIONAL,,https://maps.google.com/?cid=1031015370137933164&g_mp=Cilnb29nbGUubWFwcy5wbGFjZXMudjEuUGxhY2VzLlNlYXJjaE5lYXJieRACGAQgAA,museum;point_of_interest;establishment,museum,Kampong Cham
ChIJFfunOwAZDDERxnAUZ5kcytM,ជាង ង៉ោក យុនស៊ុន សិល្បះគំនូរបុរាណ Khmer Art Painting,cultural,museum,Museum,sightseeing,11.9405565,105.16843949999999,"W5R9+69G, 223, Kang Meas, Cambodia",5,2,,OPERATIONAL,,https://maps.google.com/?cid=15261041732483313862&g_mp=Cilnb29nbGUubWFwcy5wbGFjZXMudjEuUGxhY2VzLlNlYXJjaE5lYXJieRACGAQgAA,museum;point_of_interest;establishment,museum,Kampong Cham
ChIJUyeRcAB3DDERlzItZNwC2zY,ដីកសិកម្ម,cultural,museum,Museum,sightseeing,11.6986498,105.51311510000001,"MGX7+F6, Kanhchriech District, Cambodia",,,,OPERATIONAL,,https://maps.google.com/?cid=3952756243544486551&g_mp=Cilnb29nbGUubWFwcy5wbGFjZXMudjEuUGxhY2VzLlNlYXJjaE5lYXJieRACGAQgAA,museum;point_of_interest;establishment,museum,Kampong Cham
ChIJY13cscsjDDERL_5l2wLMp-4,មុងកុង តុ,cultural,museum,Museum,sightseeing,12.058727000000001,105.15472,"3553+FV, Phum Beng Nay, Cambodia",,,,OPERATIONAL,,https://maps.google.com/?cid=17196938014780423727&g_mp=Cilnb29nbGUubWFwcy5wbGFjZXMudjEuUGxhY2VzLlNlYXJjaE5lYXJieRACGAQgAA,museum;point_of_interest;establishment,museum,Kampong Cham
ChIJGVZOYACLDDERky0c_nk6Esk,គោលកណ្តាល,cultural,museum,Museum,sightseeing,11.9524756,105.8285197,"XR2H+XC, Dambae District, Cambodia",,,,OPERATIONAL,,https://maps.google.com/?cid=14488707246833020307&g_mp=Cilnb29nbGUubWFwcy5wbGFjZXMudjEuUGxhY2VzLlNlYXJjaE5lYXJieRACGAQgAA,museum;point_of_interest;establishment,museum,Kampong Cham
ChIJqcZTRh19DDERgE5FtElRaV0,soklay,cultural,museum,Museum,sightseeing,11.7266691,105.7797025,"PQGH+MV, Kandaol Chrum, Cambodia",,,,OPERATIONAL,,https://maps.google.com/?cid=6731000495080820352&g_mp=Cilnb29nbGUubWFwcy5wbGFjZXMudjEuUGxhY2VzLlNlYXJjaE5lYXJieRACGAQgAA,museum;point_of_interest;establishment,museum,Kampong Cham
ChIJSRA18lWJDDERr5gDPB5zHqo,NAT,cultural,museum,Museum,sightseeing,11.8891023,105.876004,"VVQG+JCR, Dambae District, Cambodia",,,,OPERATIONAL,,https://maps.google.com/?cid=12258361809442150575&g_mp=Cilnb29nbGUubWFwcy5wbGFjZXMudjEuUGxhY2VzLlNlYXJjaE5lYXJieRACGAQgAA,museum;point_of_interest;establishment,museum,Kampong Cham
ChIJAfWPxweHDDER3iE3UJl-Wss,Sinang Salon,cultural,museum,Museum,sightseeing,11.7992496,105.8756446,"QVXG+M7R, NR7, Ponhea Kraek District, Cambodia",3.8,4,,OPERATIONAL,http://www.facebook.com/sokvanndet,https://maps.google.com/?cid=14653163534544216542&g_mp=Cilnb29nbGUubWFwcy5wbGFjZXMudjEuUGxhY2VzLlNlYXJjaE5lYXJieRACGAQgAA,museum;point_of_interest;establishment,museum,Kampong Cham
ChIJ-0nsF5lnDDERmaZ2eKj65vE,ក្រុងសួង,cultural,historical_landmark,Historical Landmark,,11.9114752,105.65195659999999,"WM62+HQW, Suong, Cambodia",4.3,76,,OPERATIONAL,,https://maps.google.com/?cid=17430895009266575001&g_mp=Cilnb29nbGUubWFwcy5wbGFjZXMudjEuUGxhY2VzLlNlYXJjaE5lYXJieRACGAQgAA,historical_landmark;historical_place;point_of_interest;establishment,historical_landmark,Kampong Cham
ChIJSdov_E0DDDER7W7q5nsYbjs,Srey Santhor District,cultural,historical_landmark,Historical Landmark,,11.837740700000001,105.1137918,"R4Q7+3GV, Srey Santhor, Cambodia",4.3,291,,OPERATIONAL,,https://maps.google.com/?cid=4282387216110087917&g_mp=Cilnb29nbGUubWFwcy5wbGFjZXMudjEuUGxhY2VzLlNlYXJjaE5lYXJieRACGAQgAA,historical_landmark;historical_place;point_of_interest;establishment,historical_landmark,Kampong Cham
ChIJLxkZzaNiDDERrxgFuJp_S98,Luong Preah Sdach Kan,cultural,historical_landmark,Historical Landmark,,11.7975067,105.74765149999999,"QPXX+232, Kandaol Chrum, Cambodia",4.4,20,,OPERATIONAL,,https://maps.google.com/?cid=16090094396200261807&g_mp=Cilnb29nbGUubWFwcy5wbGFjZXMudjEuUGxhY2VzLlNlYXJjaE5lYXJieRACGAQgAA,historical_landmark;historical_place;point_of_interest;establishment,historical_landmark,Kampong Cham
ChIJ3WyPWAtrDDERZXEyQxeWsxw,Statues of Kampong Cham,cultural,historical_landmark,Historical Landmark,,11.9906683,105.4674173,"XFR8+7X7, Krong Kampong Cham, Cambodia",4,12,,OPERATIONAL,,https://maps.google.com/?cid=2068161680548983141&g_mp=Cilnb29nbGUubWFwcy5wbGFjZXMudjEuUGxhY2VzLlNlYXJjaE5lYXJieRACGAQgAA,historical_landmark;historical_place;point_of_interest;establishment,historical_landmark,Kampong Cham
ChIJj5qc62xqDDERD2KO5pNKDE0,Tour des Français,cultural,historical_landmark,Historical Landmark,,11.9855787,105.4754234,"XFPG+65M, Tonle Bet, Cambodia",4.1,114,,OPERATIONAL,,https://maps.google.com/?cid=5551894439729717775&g_mp=Cilnb29nbGUubWFwcy5wbGFjZXMudjEuUGxhY2VzLlNlYXJjaE5lYXJieRACGAQgAA,historical_landmark;historical_place;point_of_interest;establishment,historical_landmark,Kampong Cham
ChIJWXC6-kRTDDERX2jF8RPRA_Q,ភ្នំព្រែកសង្កែ ឃុំពាមកោះស្នា ស្រុកស្ទឹងត្រង់,cultural,historical_landmark,Historical Landmark,,12.318081,105.6070008,"8J94+6R, Phum Koh Kandal, Cambodia",4,11,,OPERATIONAL,,https://maps.google.com/?cid=17583127253775378527&g_mp=Cilnb29nbGUubWFwcy5wbGFjZXMudjEuUGxhY2VzLlNlYXJjaE5lYXJieRACGAQgAA,historical_landmark;historical_place;point_of_interest;establishment,historical_landmark,Kampong Cham
ChIJI1eABjVpDDERjiZ7kneX9yo,ភូមិស្រែសៀម,cultural,historical_landmark,Historical Landmark,,11.9424361,105.54597179999999,"Srae Seam, Cambodia",4.6,5,,OPERATIONAL,,https://maps.google.com/?cid=3096109808654952078&g_mp=Cilnb29nbGUubWFwcy5wbGFjZXMudjEuUGxhY2VzLlNlYXJjaE5lYXJieRACGAQgAA,historical_landmark;historical_place;point_of_interest;establishment,historical_landmark,Kampong Cham
ChIJBcctegBFDDEREAjUGp1JpvE,វត្តភ្នំជ័យគិរី​ ភ្នំហានជ័យ​ ខេត្តកំពង់ចាម,cultural,historical_landmark,Historical Landmark,,12.164518,105.52751800000001,"5G7H+R2, Stueng Trang District, Cambodia",4.5,4,,OPERATIONAL,,https://maps.google.com/?cid=17412685948383397904&g_mp=Cilnb29nbGUubWFwcy5wbGFjZXMudjEuUGxhY2VzLlNlYXJjaE5lYXJieRACGAQgAA,historical_landmark;historical_place;point_of_interest;establishment,historical_landmark,Kampong Cham
ChIJiybOyaBFDDERV1-LD8Ague0,Statue of Naga,cultural,historical_landmark,Historical Landmark,,12.142266500000002,105.5481233,"4GRX+V7, Peam Chileang, Cambodia",5,9,,OPERATIONAL,,https://maps.google.com/?cid=17129758666946994007&g_mp=Cilnb29nbGUubWFwcy5wbGFjZXMudjEuUGxhY2VzLlNlYXJjaE5lYXJieRACGAQgAA,historical_landmark;historical_place;point_of_interest;establishment,historical_landmark,Kampong Cham
ChIJz7Rs2919DDER9WE5gZPVXrI,ភូមិរើលលើ,cultural,historical_landmark,Historical Landmark,,11.7470913,105.72840409999999,"Rerller, PPWH+R9J, Cambodia",4.4,7,,OPERATIONAL,,https://maps.google.com/?cid=12852945216066904565&g_mp=Cilnb29nbGUubWFwcy5wbGFjZXMudjEuUGxhY2VzLlNlYXJjaE5lYXJieRACGAQgAA,historical_landmark;historical_place;point_of_interest;establishment,historical_landmark,Kampong Cham
ChIJIzzmpIt1DDERer4OXSbvkKk,ភូមិចារជ្រុំ,cultural,historical_landmark,Historical Landmark,,11.6866644,105.4830965,"MFPM+M69, Cambodia",4.3,3,,OPERATIONAL,,https://maps.google.com/?cid=12218528737105198714&g_mp=Cilnb29nbGUubWFwcy5wbGFjZXMudjEuUGxhY2VzLlNlYXJjaE5lYXJieRACGAQgAA,historical_landmark;historical_place;point_of_interest;establishment,historical_landmark,Kampong Cham
ChIJ9-G_nehnDDERB6UUBAUd_Ag,ភូមិ ជីកែ,cultural,historical_landmark,Historical Landmark,,11.912262499999999,105.66908790000001,"WM69+WJ4 ភូមិជីកែ សង្កាត់វិហ៊ាលួង, ក្រុងសួង, Cambodia",4,8,,OPERATIONAL,,https://maps.google.com/?cid=647424353815012615&g_mp=Cilnb29nbGUubWFwcy5wbGFjZXMudjEuUGxhY2VzLlNlYXJjaE5lYXJieRACGAQgAA,historical_landmark;historical_place;point_of_interest;establishment,historical_landmark,Kampong Cham
ChIJY9ptGQBBDDERnGnZakyXCHc,សានី (ព្រលានយន្តហោះកំពង់ចាម),cultural,historical_landmark,Historical Landmark,,12.027283700000002,105.43605819999999,"2CPW+HF, Krong Kampong Cham, Cambodia",1,1,,OPERATIONAL,,https://maps.google.com/?cid=8577271844793051548&g_mp=Cilnb29nbGUubWFwcy5wbGFjZXMudjEuUGxhY2VzLlNlYXJjaE5lYXJieRACGAQgAA,historical_landmark;historical_place;point_of_interest;establishment,historical_landmark,Kampong Cham
ChIJZ5qS59ZrDDER7TGkw4R7OYw,កំពង់ដើមពោធិ៍ មុខវត្តដីដុះ,cultural,historical_landmark,Historical Landmark,,11.9774883,105.46013579999999,"12 Preah Sihanouk, Kampong Cham, Cambodia",4.4,42,,OPERATIONAL,,https://maps.google.com/?cid=10104243049130635757&g_mp=Cilnb29nbGUubWFwcy5wbGFjZXMudjEuUGxhY2VzLlNlYXJjaE5lYXJieRACGAQgAA,historical_landmark;historical_place;point_of_interest;establishment,historical_landmark,Kampong Cham
ChIJ3cr-94h9DDERLH_Se1_kTTs,ភូមិព្រៃទំនប់ផ្ទះតាយាត,cultural,historical_landmark,Historical Landmark,,11.741436499999999,105.75872299999999,"PQR5+HFH, Cambodia",4,3,,OPERATIONAL,,https://maps.google.com/?cid=4273322720194887468&g_mp=Cilnb29nbGUubWFwcy5wbGFjZXMudjEuUGxhY2VzLlNlYXJjaE5lYXJieRACGAQgAA,historical_landmark;historical_place;point_of_interest;establishment,historical_landmark,Kampong Cham
ChIJofBy7mpjDDER7EFh3TG_So8,ភូមិ ចុងអង្គ្រង,cultural,historical_landmark,Historical Landmark,,11.8662347,105.6945511,"VM8V+FR, Suong, Cambodia",4,4,,OPERATIONAL,,https://maps.google.com/?cid=10325275316588724716&g_mp=Cilnb29nbGUubWFwcy5wbGFjZXMudjEuUGxhY2VzLlNlYXJjaE5lYXJieRACGAQgAA,historical_landmark;historical_place;point_of_interest;establishment,historical_landmark,Kampong Cham
ChIJZfdG0EJhDDERXu116YtEUog,ភូមិត្រពាំងបី ឃុំគរ ស្រុកត្បូងឃ្មុំ ខេត្តត្បូងឃ្មុំ,cultural,historical_landmark,Historical Landmark,,11.973191199999999,105.7429148,"XPFV+75F, Unnamed Road, Kor, Cambodia",5,4,,OPERATIONAL,,https://maps.google.com/?cid=9822989104956435806&g_mp=Cilnb29nbGUubWFwcy5wbGFjZXMudjEuUGxhY2VzLlNlYXJjaE5lYXJieRACGAQgAA,historical_landmark;historical_place;point_of_interest;establishment,historical_landmark,Kampong Cham
ChIJhwf8IOZjDDERcpC9Cdrm1qQ,ភូមិពោធិ៍រោង,cultural,historical_landmark,Historical Landmark,,11.809317799999999,105.7276574,"RP5H+P3, Kandaol Chrum, Cambodia",4,4,,OPERATIONAL,,https://maps.google.com/?cid=11877934891376939122&g_mp=Cilnb29nbGUubWFwcy5wbGFjZXMudjEuUGxhY2VzLlNlYXJjaE5lYXJieRACGAQgAA,historical_landmark;historical_place;point_of_interest;establishment,historical_landmark,Kampong Cham
ChIJdxkzgPwvDDERaA16u2UadIw,Kbal Hong Toekcha Resort,nature,park,Park,walking,12.2015713,105.2135907,"6627+JCG, Phumi Ândong Chham Chha, Cambodia",4.3,234,,OPERATIONAL,,https://maps.google.com/?cid=10120743286847704424&g_mp=Cilnb29nbGUubWFwcy5wbGFjZXMudjEuUGxhY2VzLlNlYXJjaE5lYXJieRACGAQgAA,park;point_of_interest;establishment,park,Kampong Cham
ChIJT_WrDgCtDTERSfWjGTwhylY,ចម្ការទុរេនស្រីមុំបែកអន្លូង Sreymom Bek Anloung Durian Farm,nature,park,Park,walking,12.3764753,105.5963105,"ភូមិបែកអន្លូង​ឃុំអារក្សត្នោត, Cambodia",5,5,,OPERATIONAL,,https://maps.google.com/?cid=6253847574569284937&g_mp=Cilnb29nbGUubWFwcy5wbGFjZXMudjEuUGxhY2VzLlNlYXJjaE5lYXJieRACGAQgAA,park;point_of_interest;establishment,park,Kampong Cham
ChIJc7YtRwCFDDERtuX19Kb6YQs,ពញាក្រែក,nature,park,Park,walking,11.7973571,105.8750919,"QVWG+W2W, Ponhea Kraek District, Cambodia",4.3,11,,OPERATIONAL,,https://maps.google.com/?cid=820212202139411894&g_mp=Cilnb29nbGUubWFwcy5wbGFjZXMudjEuUGxhY2VzLlNlYXJjaE5lYXJieRACGAQgAA,park;point_of_interest;establishment,park,Kampong Cham
ChIJixiRdSJrDDERWpO3G_9b2Dw,ចម្ការគរ ឆ្នេរទន្លេ,nature,park,Park,walking,11.9536508,105.4308571,"XC3J+F8, Krong Kampong Cham, Cambodia",4.5,6,,OPERATIONAL,,https://maps.google.com/?cid=4384355388484981594&g_mp=Cilnb29nbGUubWFwcy5wbGFjZXMudjEuUGxhY2VzLlNlYXJjaE5lYXJieRACGAQgAA,park;point_of_interest;establishment,park,Kampong Cham
ChIJ1Q-UyAFhDDERtqHGlh7442c,ទឹកជ្រោះហោង (Horng),nature,park,Park,walking,11.969156,105.696843,"XM9W+MP, Suong, Cambodia",3.6,11,,OPERATIONAL,,https://maps.google.com/?cid=7486099815882203574&g_mp=Cilnb29nbGUubWFwcy5wbGFjZXMudjEuUGxhY2VzLlNlYXJjaE5lYXJieRACGAQgAA,park;point_of_interest;establishment,park,Kampong Cham
ChIJbSLyNwBXDDERYOQ__F7jFpE,ស្ពានអណ្ដោត ឃុំឈូក,nature,park,Park,walking,12.1851177,105.73462599999999,"5PPM+2VR ភូមិឈូក, Cambodia",4.9,9,,OPERATIONAL,,https://maps.google.com/?cid=10454793582085661792&g_mp=Cilnb29nbGUubWFwcy5wbGFjZXMudjEuUGxhY2VzLlNlYXJjaE5lYXJieRACGAQgAA,park;point_of_interest;establishment,park,Kampong Cham
ChIJBRKcN_ptDDERPsx-RfrbRHU,Tonle Sngout Park,nature,park,Park,walking,11.850717399999999,105.4832845,"ភូមិថ្នល់កែង, Ou Reang Ov District 250406, Cambodia",5,3,,OPERATIONAL,,https://maps.google.com/?cid=8450120668808137790&g_mp=Cilnb29nbGUubWFwcy5wbGFjZXMudjEuUGxhY2VzLlNlYXJjaE5lYXJieRACGAQgAA,park;point_of_interest;establishment,park,Kampong Cham
ChIJw4Ik7FqLCzEReJJo1J3GKEc,Svay Antor Park,nature,park,Park,walking,11.570203300000001,105.42031630000001,"HCCC+34P, Svay Antor, Cambodia",4.1,53,,OPERATIONAL,,https://maps.google.com/?cid=5127566556937097848&g_mp=Cilnb29nbGUubWFwcy5wbGFjZXMudjEuUGxhY2VzLlNlYXJjaE5lYXJieRACGAQgAA,park;point_of_interest;establishment,park,Kampong Cham
ChIJ67ULSpn1CzERBSSB-pNr_ww,រូបសំណាក់ ហ្លួងព្រះស្ដេចកន,nature,park,Park,walking,11.635020599999999,105.35381,"Commune, J9P3+2G3, Prey Pnov, Cambodia",4,50,,OPERATIONAL,,https://maps.google.com/?cid=936585530823484421&g_mp=Cilnb29nbGUubWFwcy5wbGFjZXMudjEuUGxhY2VzLlNlYXJjaE5lYXJieRACGAQgAA,park;point_of_interest;establishment,park,Kampong Cham
ChIJMewzSQBBDDERywveLgd3Jro,ស្រុក​កំពុងសៀម,nature,park,Park,walking,12.0111145,105.4331673,"2C6M+C7V, Kampong Siem District, Cambodia",4,2,,OPERATIONAL,,https://maps.google.com/?cid=13413539412904381387&g_mp=Cilnb29nbGUubWFwcy5wbGFjZXMudjEuUGxhY2VzLlNlYXJjaE5lYXJieRACGAQgAA,park;point_of_interest;establishment,park,Kampong Cham
ChIJ2yJjP9uzDTER53zNZ-6RweQ,ចម្ការធុរេនសុខខាក់ ប៉ោសាមបែកអន្លូង,nature,park,Park,walking,12.351320699999999,105.5936786,"9H2V+GFF, Stueng Trang District, Cambodia",4.8,8,,OPERATIONAL,,https://maps.google.com/?cid=16483616564282490087&g_mp=Cilnb29nbGUubWFwcy5wbGFjZXMudjEuUGxhY2VzLlNlYXJjaE5lYXJieRACGAQgAA,park;point_of_interest;establishment,park,Kampong Cham
ChIJV9brEZJzDDERuKpm4axqd9A,ព្រៃចាស់,nature,national_park,National Park,walking,11.823799399999999,105.41048669999999,"RCF6+G5, Sithor Kandal District, Cambodia",4.4,5,,OPERATIONAL,,https://maps.google.com/?cid=15021592372866099896&g_mp=Cilnb29nbGUubWFwcy5wbGFjZXMudjEuUGxhY2VzLlNlYXJjaE5lYXJieRACGAQgAA,national_park;park;point_of_interest;establishment,park,Kampong Cham
ChIJ0xAsQQA7DDER6Qv1uSkCy9w,ពាមកោះស្នា,nature,park,Park,walking,12.098291800000002,105.3131185,"38X7+869, Kampong Siem District, Cambodia",1,1,,OPERATIONAL,,https://maps.google.com/?cid=15909812486853168105&g_mp=Cilnb29nbGUubWFwcy5wbGFjZXMudjEuUGxhY2VzLlNlYXJjaE5lYXJieRACGAQgAA,park;point_of_interest;establishment,park,Kampong Cham
ChIJHxvXnqyLCzER3QdHPDHLgFE,ស្វាយអន្ទរ,nature,park,Park,walking,11.598450300000001,105.4194698,"HCX9+9QQ, Cambodia",4.7,9,,OPERATIONAL,,https://maps.google.com/?cid=5872917326416250845&g_mp=Cilnb29nbGUubWFwcy5wbGFjZXMudjEuUGxhY2VzLlNlYXJjaE5lYXJieRACGAQgAA,park;point_of_interest;establishment,park,Kampong Cham
ChIJ9-X1FMKLCzERx0uqzH_RZx8,មង្គលវីឡា-ព្រៃវែងបុរី,nature,park,Park,walking,11.599261,105.417299,"Svay Antor, Cambodia",4.5,6,,OPERATIONAL,,https://maps.google.com/?cid=2263007684601727943&g_mp=Cilnb29nbGUubWFwcy5wbGFjZXMudjEuUGxhY2VzLlNlYXJjaE5lYXJieRACGAQgAA,park;point_of_interest;establishment,park,Kampong Cham
ChIJ9TwqAgBTDDERPz-K9rOXGJY,ចម្ការទុរេនគ្រូសានបែកអន្លូង,nature,park,Park,walking,12.34572,105.604213,"8JW3+7M, Phum Koh Kandal, Cambodia",5,5,,OPERATIONAL,https://web.facebook.com/profile.php?id=61554328282877,https://maps.google.com/?cid=10815561304321441599&g_mp=Cilnb29nbGUubWFwcy5wbGFjZXMudjEuUGxhY2VzLlNlYXJjaE5lYXJieRACGAQgAA,park;point_of_interest;establishment,park,Kampong Cham
ChIJWTB_L8ZrDDERjrsQrWIf0AI,Kampong Cham Peace Park,nature,park,Park,walking,11.9862402,105.465763,"ភូមិថ្មី, ក្រុងកំពង់ចាម, Cambodia",4.4,35,,OPERATIONAL,,https://maps.google.com/?cid=202696491902483342&g_mp=Cilnb29nbGUubWFwcy5wbGFjZXMudjEuUGxhY2VzLlNlYXJjaE5lYXJieRACGAQgAA,park;point_of_interest;establishment,park,Kampong Cham
ChIJHYA1ZJFjDDER196-Paoz9vM,សួនច្បារមាត់ទន្លេ,nature,park,Park,walking,11.8938471,105.7702709,"VQVC+G4, Kandaol Chrum, Cambodia",5,4,,OPERATIONAL,,https://maps.google.com/?cid=17579295001760685783&g_mp=Cilnb29nbGUubWFwcy5wbGFjZXMudjEuUGxhY2VzLlNlYXJjaE5lYXJieRACGAQgAA,park;point_of_interest;establishment,park,Kampong Cham
ChIJ13NfPgBjDDERkYpNcZG0WJI,Luang Preah Sdech Kan Roundabout,nature,park,Park,walking,11.8552237,105.75112060000001,"NR7, Cambodia",5,4,,OPERATIONAL,,https://maps.google.com/?cid=10545377064252181137&g_mp=Cilnb29nbGUubWFwcy5wbGFjZXMudjEuUGxhY2VzLlNlYXJjaE5lYXJieRACGAQgAA,park;point_of_interest;establishment,park,Kampong Cham
ChIJl-Tit3ZFDDERQTZIM1B7lYM,ជាងគំនូរនិងចម្លាក់ អាម៉ាហ្ស៊ូន(Amazon painter sculptor),cultural,art_gallery,Art Gallery,,12.150117499999999,105.55211369999999,"5H22+2RX, Peam Chileang, Cambodia",5,3,,OPERATIONAL,https://www.facebook.com/sim.kimhang,https://maps.google.com/?cid=9481620174886417985&g_mp=Cilnb29nbGUubWFwcy5wbGFjZXMudjEuUGxhY2VzLlNlYXJjaE5lYXJieRACGAQgAA,art_gallery;point_of_interest;establishment,art_gallery,Kampong Cham
ChIJK2dpNuQpDDERlbNU6i6GHbQ,KuhNoKor Temple,cultural,hindu_temple,Hindu Temple,sightseeing,12.241922299999999,105.10025669999999,"64R2+Q46, ឃុំ ពង្រ, Cambodia",4.9,28,,OPERATIONAL,,https://maps.google.com/?cid=12978677237209674645&g_mp=Cilnb29nbGUubWFwcy5wbGFjZXMudjEuUGxhY2VzLlNlYXJjaE5lYXJieRACGAQgAA,hindu_temple;place_of_worship;association_or_organization;point_of_interest;establishment,hindu_temple,Kampong Cham
ChIJX5IEtKZrDDERtNAOo8oFZ9A,Prasath Wat Koh Rokar,cultural,hindu_temple,Hindu Temple,sightseeing,11.9466351,105.40768849999999,"WCW5+M34, Krong Kampong Cham, Cambodia",3.9,8,,OPERATIONAL,,https://maps.google.com/?cid=15016977850367398068&g_mp=Cilnb29nbGUubWFwcy5wbGFjZXMudjEuUGxhY2VzLlNlYXJjaE5lYXJieRACGAQgAA,hindu_temple;place_of_worship;association_or_organization;point_of_interest;establishment,hindu_temple,Kampong Cham
ChIJ3Q3gAQYNDDER6apcP00Qs4U,Prasat Prey Daeum Srok,cultural,hindu_temple,Hindu Temple,sightseeing,11.7511733,105.35876449999999,"Q925+FG6, Unnamed Road, Sithor Kandal District, Cambodia",4.7,16,,OPERATIONAL,,https://maps.google.com/?cid=9634061951837186793&g_mp=Cilnb29nbGUubWFwcy5wbGFjZXMudjEuUGxhY2VzLlNlYXJjaE5lYXJieRACGAQgAA,hindu_temple;place_of_worship;association_or_organization;point_of_interest;establishment,hindu_temple,Kampong Cham
ChIJOZksorUaDDERk64qxE5VjX8,Preah Theat Baray Temple,cultural,hindu_temple,Hindu Temple,sightseeing,11.841646899999999,105.19771809999999,"R5RX+M34, Baray Prah Theat, Cambodia",4.4,20,,OPERATIONAL,,https://maps.google.com/?cid=9191096211319991955&g_mp=Cilnb29nbGUubWFwcy5wbGFjZXMudjEuUGxhY2VzLlNlYXJjaE5lYXJieRACGAQgAA,hindu_temple;place_of_worship;association_or_organization;point_of_interest;establishment,hindu_temple,Kampong Cham
ChIJ6VVv3I1FDDER6VYAZWZ1JM8,Prasat Kok Preah Theat,cultural,hindu_temple,Hindu Temple,sightseeing,12.165412300000002,105.52934909999999,"5G8H+5P9, Stueng Trang District, Cambodia",4.6,15,,OPERATIONAL,,https://maps.google.com/?cid=14926184147654301417&g_mp=Cilnb29nbGUubWFwcy5wbGFjZXMudjEuUGxhY2VzLlNlYXJjaE5lYXJieRACGAQgAA,hindu_temple;place_of_worship;association_or_organization;point_of_interest;establishment,hindu_temple,Kampong Cham
ChIJo360d0MjDDER266Oqgyc6tA,Kuk Yeay Ham Temple,cultural,hindu_temple,Hindu Temple,sightseeing,12.090746399999999,105.20092609999999,"36R2+79V, Prey Chhor, Cambodia",4.4,27,,OPERATIONAL,,https://maps.google.com/?cid=15054016282654322395&g_mp=Cilnb29nbGUubWFwcy5wbGFjZXMudjEuUGxhY2VzLlNlYXJjaE5lYXJieRACGAQgAA,hindu_temple;place_of_worship;association_or_organization;point_of_interest;establishment,hindu_temple,Kampong Cham
ChIJwUYNQJJFDDERwdqMcK9OPjw,Prasat Hanchey,cultural,hindu_temple,Hindu Temple,sightseeing,12.1623743,105.5283424,"5G6H+W8W, Stueng Trang District, Cambodia",4.5,11,,OPERATIONAL,,https://maps.google.com/?cid=4340993606246259393&g_mp=Cilnb29nbGUubWFwcy5wbGFjZXMudjEuUGxhY2VzLlNlYXJjaE5lYXJieRACGAQgAA,hindu_temple;place_of_worship;association_or_organization;point_of_interest;establishment,hindu_temple,Kampong Cham
ChIJr_9_G86JDDERf1ZEoYk_fQI,Prasat Preiki Pagoda,cultural,hindu_temple,Hindu Temple,sightseeing,11.8559532,105.79414369999999,"VQ4V+9MJ, Kandaol Chrum, Cambodia",3.9,17,,OPERATIONAL,,https://maps.google.com/?cid=179369420513367679&g_mp=Cilnb29nbGUubWFwcy5wbGFjZXMudjEuUGxhY2VzLlNlYXJjaE5lYXJieRACGAQgAA,hindu_temple;place_of_worship;association_or_organization;point_of_interest;establishment,hindu_temple,Kampong Cham
ChIJuRTLwJKJDDERKlsS6TIhbGI,Prasat Cheung Ang,cultural,hindu_temple,Hindu Temple,sightseeing,11.8805275,105.8066547,"VRJ4+6M6, Kandaol Chrum, Cambodia",4.5,24,,OPERATIONAL,,https://maps.google.com/?cid=7092080015744064298&g_mp=Cilnb29nbGUubWFwcy5wbGFjZXMudjEuUGxhY2VzLlNlYXJjaE5lYXJieRACGAQgAA,hindu_temple;place_of_worship;association_or_organization;point_of_interest;establishment,hindu_temple,Kampong Cham
ChIJoVBB5V1lDDERMLW-i6T4ipg,Preah Theat Temple,cultural,hindu_temple,Hindu Temple,sightseeing,11.8375936,105.60086489999999,"RJQ2+28Q, Suong, Cambodia",4.6,9,,OPERATIONAL,,https://maps.google.com/?cid=10991871226153973040&g_mp=Cilnb29nbGUubWFwcy5wbGFjZXMudjEuUGxhY2VzLlNlYXJjaE5lYXJieRACGAQgAA,hindu_temple;place_of_worship;association_or_organization;point_of_interest;establishment,hindu_temple,Kampong Cham
ChIJJe5NnuOJDDERL2ZM8bGtxi4,Preah Theat Samdei Temple,cultural,hindu_temple,Hindu Temple,sightseeing,11.8787345,105.7853935,"VQHP+F5R, Kandaol Chrum, Cambodia",4.5,11,,OPERATIONAL,,https://maps.google.com/?cid=3370572350902527535&g_mp=Cilnb29nbGUubWFwcy5wbGFjZXMudjEuUGxhY2VzLlNlYXJjaE5lYXJieRACGAQgAA,hindu_temple;place_of_worship;association_or_organization;point_of_interest;establishment,hindu_temple,Kampong Cham
ChIJ7TeBBLQNDDER2DFobkPY6Zs,ប្រាសាទចុងស្រុក Prasat Chong Srok,cultural,hindu_temple,Hindu Temple,sightseeing,11.751327,105.358655,"Unnamed Road, Sithor Kandal District, Cambodia",5,5,,OPERATIONAL,,https://maps.google.com/?cid=11234748529579143640&g_mp=Cilnb29nbGUubWFwcy5wbGFjZXMudjEuUGxhY2VzLlNlYXJjaE5lYXJieRACGAQgAA,hindu_temple;place_of_worship;association_or_organization;point_of_interest;establishment,hindu_temple,Kampong Cham
ChIJBdvCQ7QlDDERSCU8vqOMOlg,Kouk Ampil Tvear Temple,cultural,hindu_temple,Hindu Temple,sightseeing,12.155429,105.1534081,"5543+59F, ភូមិ ថ្មដា, Cambodia",4.6,7,,OPERATIONAL,,https://maps.google.com/?cid=6357548458886047048&g_mp=Cilnb29nbGUubWFwcy5wbGFjZXMudjEuUGxhY2VzLlNlYXJjaE5lYXJieRACGAQgAA,hindu_temple;place_of_worship;historical_place;association_or_organization;point_of_interest;establishment,hindu_temple,Kampong Cham
ChIJKw7s9kYbDDERyekH4Z0Xc7E,ទួលរការ,cultural,hindu_temple,Hindu Temple,sightseeing,11.8550717,105.2167946,"V6CC+27W Syaboeng Veng, Baray Prah Theat, Cambodia",5,3,,OPERATIONAL,,https://maps.google.com/?cid=12786589733887666633&g_mp=Cilnb29nbGUubWFwcy5wbGFjZXMudjEuUGxhY2VzLlNlYXJjaE5lYXJieRACGAQgAA,hindu_temple;place_of_worship;association_or_organization;point_of_interest;establishment,hindu_temple,Kampong Cham
ChIJDZ_yijp9DDERDAjotEtf7fw,Preah Theat Tauch Temple,cultural,hindu_temple,Hindu Temple,sightseeing,11.7955615,105.74968989999999,"QPWX+6VG, Kandaol Chrum, Cambodia",4.2,13,,OPERATIONAL,,https://maps.google.com/?cid=18225328045800556556&g_mp=Cilnb29nbGUubWFwcy5wbGFjZXMudjEuUGxhY2VzLlNlYXJjaE5lYXJieRACGAQgAA,hindu_temple;place_of_worship;association_or_organization;point_of_interest;establishment,hindu_temple,Kampong Cham
ChIJixPGdJJFDDERFBP0wpM0kjY,Prasat Andaung Preng,cultural,hindu_temple,Hindu Temple,sightseeing,12.163557299999999,105.52833659999999,"5G7H+C8G, Stueng Trang District, Cambodia",4,14,,OPERATIONAL,,https://maps.google.com/?cid=3932263233883476756&g_mp=Cilnb29nbGUubWFwcy5wbGFjZXMudjEuUGxhY2VzLlNlYXJjaE5lYXJieRACGAQgAA,hindu_temple;place_of_worship;association_or_organization;point_of_interest;establishment,hindu_temple,Kampong Cham
ChIJh2aBJsUlDDER8BmKZrh6gqg,Preah Theat Toch,cultural,hindu_temple,Hindu Temple,sightseeing,12.184493999999999,105.19371199999999,"55MV+QFW, Unnamed Road, ភូមិ ថ្មដា, Cambodia",5,4,,OPERATIONAL,,https://maps.google.com/?cid=12142402477757176304&g_mp=Cilnb29nbGUubWFwcy5wbGFjZXMudjEuUGxhY2VzLlNlYXJjaE5lYXJieRACGAQgAA,hindu_temple;place_of_worship;association_or_organization;point_of_interest;establishment,hindu_temple,Kampong Cham
ChIJX1RPaN9jDDERsQYc48WgfTQ,ប្រាសាទជេីងអង​ Joeung Ong Temple,cultural,hindu_temple,Hindu Temple,sightseeing,11.8771369,105.7805752,"VQGJ+V64, Unnamed Road, Kandaol Chrum, Cambodia",5,1,,OPERATIONAL,,https://maps.google.com/?cid=3782356033840350897&g_mp=Cilnb29nbGUubWFwcy5wbGFjZXMudjEuUGxhY2VzLlNlYXJjaE5lYXJieRACGAQgAA,hindu_temple;place_of_worship;association_or_organization;point_of_interest;establishment,hindu_temple,Kampong Cham
ChIJHb1q19BfDDERNjRMlYCPpB0,ទួលក្ដី (ទីទួលប្រាសាទបុរាណខ្មែរ),cultural,hindu_temple,Hindu Temple,sightseeing,12.0003309,105.7132863,"2P27+48, Suong, Cambodia",4,5,,OPERATIONAL,,https://maps.google.com/?cid=2135989905703842870&g_mp=Cilnb29nbGUubWFwcy5wbGFjZXMudjEuUGxhY2VzLlNlYXJjaE5lYXJieRACGAQgAA,hindu_temple;place_of_worship;association_or_organization;point_of_interest;establishment,hindu_temple,Kampong Cham
ChIJNWGK1xp3DDERwbgQ5cYXWP4,Chhouk Pagoda,cultural,buddhist_temple,Buddhist Temple,sightseeing,11.6653117,105.509827,"MG85+4WG, Cambodia",4.7,14,,OPERATIONAL,,https://maps.google.com/?cid=18327424826598275265&g_mp=Cilnb29nbGUubWFwcy5wbGFjZXMudjEuUGxhY2VzLlNlYXJjaE5lYXJieRACGAQgAA,buddhist_temple;place_of_worship;association_or_organization;point_of_interest;establishment,buddhist_temple,Kampong Cham
ChIJ__8PVidtDDERdpF8WODmusA,Moha Leap Pagoda,cultural,buddhist_temple,Buddhist Temple,sightseeing,11.8703144,105.4239685,"VCCF+4HG, Kaoh Soutin, Cambodia",4.8,26,,OPERATIONAL,,https://maps.google.com/?cid=13887666252181967222&g_mp=Cilnb29nbGUubWFwcy5wbGFjZXMudjEuUGxhY2VzLlNlYXJjaE5lYXJieRACGAQgAA,buddhist_temple;place_of_worship;association_or_organization;point_of_interest;establishment,buddhist_temple,Kampong Cham
ChIJPwuKH5RFDDERC6CFKuFuSK8,Hanchey Pagoda,cultural,buddhist_temple,Buddhist Temple,sightseeing,12.1627938,105.527806,"5G7H+447, Stueng Trang District, Cambodia",4.6,27,,OPERATIONAL,,https://maps.google.com/?cid=12630467068320653323&g_mp=Cilnb29nbGUubWFwcy5wbGFjZXMudjEuUGxhY2VzLlNlYXJjaE5lYXJieRACGAQgAA,buddhist_temple;place_of_worship;association_or_organization;point_of_interest;establishment,buddhist_temple,Kampong Cham
ChIJayBi4hphDDER8CuHisB9z1c,Wat Kbal Boeng Ses,cultural,buddhist_temple,Buddhist Temple,sightseeing,11.974220599999999,105.74595800000002,"XPFW+M9P, Unnamed Road, Kor, Cambodia",4.9,7,,OPERATIONAL,,https://maps.google.com/?cid=6327414267390143472&g_mp=Cilnb29nbGUubWFwcy5wbGFjZXMudjEuUGxhY2VzLlNlYXJjaE5lYXJieRACGAQgAA,buddhist_temple;place_of_worship;association_or_organization;point_of_interest;establishment,buddhist_temple,Kampong Cham
ChIJR1BKXwoLDDER47w1I6Zg5B8,Chong Sak Pagoda,cultural,buddhist_temple,Buddhist Temple,sightseeing,11.7160215,105.3617728,"314, Cambodia",4.1,18,,OPERATIONAL,,https://maps.google.com/?cid=2298067976537357539&g_mp=Cilnb29nbGUubWFwcy5wbGFjZXMudjEuUGxhY2VzLlNlYXJjaE5lYXJieRACGAQgAA,buddhist_temple;place_of_worship;association_or_organization;point_of_interest;establishment,buddhist_temple,Kampong Cham
ChIJJ1WaFNAdDDERJ7Hhxplhduo,វត្តកងត្រង់ណឹង ឃុំកងតាណឹង,cultural,buddhist_temple,Buddhist Temple,sightseeing,11.855929999999999,105.05921769999999,"ឃុំកងតាណឹង, Cambodia",4.7,12,,OPERATIONAL,https://www.facebook.com/profile.php?id=100021298451523,https://maps.google.com/?cid=16894798365221564711&g_mp=Cilnb29nbGUubWFwcy5wbGFjZXMudjEuUGxhY2VzLlNlYXJjaE5lYXJieRACGAQgAA,buddhist_temple;place_of_worship;association_or_organization;point_of_interest;establishment,buddhist_temple,Kampong Cham
ChIJBbE4FkQdDDERs7HMKcj5nec,Senmonoroum Pagoda (Wat Chas),cultural,buddhist_temple,Buddhist Temple,sightseeing,11.8615817,105.04917839999999,"V26X+JMM, Unnamed Road, មានជ័យ, Cambodia",4.9,17,,OPERATIONAL,,https://maps.google.com/?cid=16689770432194982323&g_mp=Cilnb29nbGUubWFwcy5wbGFjZXMudjEuUGxhY2VzLlNlYXJjaE5lYXJieRACGAQgAA,buddhist_temple;place_of_worship;association_or_organization;point_of_interest;establishment,buddhist_temple,Kampong Cham
ChIJM7xbw3d1DDEREi9C-tEZkYo,Pea Nea Pagoda,cultural,buddhist_temple,Buddhist Temple,sightseeing,11.711513499999999,105.4617353,"Street 11, Cambodia",3.9,26,,OPERATIONAL,,https://maps.google.com/?cid=9984790238494600978&g_mp=Cilnb29nbGUubWFwcy5wbGFjZXMudjEuUGxhY2VzLlNlYXJjaE5lYXJieRACGAQgAA,buddhist_temple;place_of_worship;association_or_organization;point_of_interest;establishment,buddhist_temple,Kampong Cham
ChIJoR-G2DN9DDER7qpr7bl7j9g,Wat Angkor Khnong,cultural,buddhist_temple,Buddhist Temple,sightseeing,11.7972228,105.7476263,"QPWX+V3, Kandaol Chrum, Cambodia",4.4,14,,OPERATIONAL,,https://maps.google.com/?cid=15604827272344480494&g_mp=Cilnb29nbGUubWFwcy5wbGFjZXMudjEuUGxhY2VzLlNlYXJjaE5lYXJieRACGAQgAA,buddhist_temple;place_of_worship;association_or_organization;point_of_interest;establishment,buddhist_temple,Kampong Cham
ChIJP_TuxwdWDDER9HWeCNdLenE,Wat Luang Roka Knor,cultural,buddhist_temple,Buddhist Temple,sightseeing,12.2495339,105.7757848,"308, Cambodia",4.2,19,,OPERATIONAL,,https://maps.google.com/?cid=8176931460379211252&g_mp=Cilnb29nbGUubWFwcy5wbGFjZXMudjEuUGxhY2VzLlNlYXJjaE5lYXJieRACGAQgAA,buddhist_temple;place_of_worship;association_or_organization;point_of_interest;establishment,buddhist_temple,Kampong Cham
ChIJfQhdvP0-DDERzJSIQaqRRVk,Wat Khael Chey,cultural,buddhist_temple,Buddhist Temple,sightseeing,12.058809,105.35823010000001,"3955+G7H, 71, Traeung 16357, Cambodia",3.8,19,,OPERATIONAL,,https://maps.google.com/?cid=6432707803198559436&g_mp=Cilnb29nbGUubWFwcy5wbGFjZXMudjEuUGxhY2VzLlNlYXJjaE5lYXJieRACGAQgAA,buddhist_temple;place_of_worship;association_or_organization;point_of_interest;establishment,buddhist_temple,Kampong Cham
ChIJ95ta6VtZDDERK51B70xOSho,វត្តតាបាវពងទឹក Pagoda,cultural,buddhist_temple,Buddhist Temple,sightseeing,12.0921364,105.695107,"3MRW+V25, Phumi Krângaôk, Cambodia",3.6,25,,OPERATIONAL,,https://maps.google.com/?cid=1894412685601250603&g_mp=Cilnb29nbGUubWFwcy5wbGFjZXMudjEuUGxhY2VzLlNlYXJjaE5lYXJieRACGAQgAA,buddhist_temple;place_of_worship;association_or_organization;point_of_interest;establishment,buddhist_temple,Kampong Cham
ChIJf4Uc1SUxDDERNTWrvYclBVk,Ta Ong Pagoda,cultural,buddhist_temple,Buddhist Temple,sightseeing,12.238194,105.30084219999999,"71, Cambodia",4,33,,OPERATIONAL,,https://maps.google.com/?cid=6414574509192066357&g_mp=Cilnb29nbGUubWFwcy5wbGFjZXMudjEuUGxhY2VzLlNlYXJjaE5lYXJieRACGAQgAA,buddhist_temple;place_of_worship;association_or_organization;point_of_interest;establishment,buddhist_temple,Kampong Cham
ChIJVW3RWU9tDDER3n4RN0rtU4Q,Damnak Pring Pagoda,cultural,buddhist_temple,Buddhist Temple,sightseeing,11.8424484,105.41849599999999,"ផ្ទះតាផេន យាយងន់, Kaoh Soutin, Cambodia",3.8,38,,OPERATIONAL,,https://maps.google.com/?cid=9535225739080728286&g_mp=Cilnb29nbGUubWFwcy5wbGFjZXMudjEuUGxhY2VzLlNlYXJjaE5lYXJieRACGAQgAA,buddhist_temple;place_of_worship;association_or_organization;point_of_interest;establishment,buddhist_temple,Kampong Cham
ChIJ76NYVzBvDDERII1aeohr7jg,Tuol Trea Tbong Pagoda,cultural,buddhist_temple,Buddhist Temple,sightseeing,11.897950000000002,105.5617905,"NR11, Cambodia",3.6,27,,OPERATIONAL,,https://maps.google.com/?cid=4102334544493579552&g_mp=Cilnb29nbGUubWFwcy5wbGFjZXMudjEuUGxhY2VzLlNlYXJjaE5lYXJieRACGAQgAA,buddhist_temple;place_of_worship;association_or_organization;point_of_interest;establishment,buddhist_temple,Kampong Cham
ChIJ5wT6IaIjDDERdzmQqc9M7rM,So Sen Pagoda,cultural,buddhist_temple,Buddhist Temple,sightseeing,12.082884799999999,105.1664946,"35M8+5H5, Phum Beng Nay, Cambodia",3.7,9,,OPERATIONAL,,https://maps.google.com/?cid=12965384832032979319&g_mp=Cilnb29nbGUubWFwcy5wbGFjZXMudjEuUGxhY2VzLlNlYXJjaE5lYXJieRACGAQgAA,buddhist_temple;place_of_worship;association_or_organization;point_of_interest;establishment,buddhist_temple,Kampong Cham
ChIJTeWE88xBDDERK1D16Y5w9m0,Chotanaram (Boeng Kok) Pagoda,cultural,buddhist_temple,Buddhist Temple,sightseeing,12.003358400000002,105.4610081,"ភូមិបឹងកុក, Krong Kampong Cham, Cambodia",4.3,16,,OPERATIONAL,,https://maps.google.com/?cid=7923644353517801515&g_mp=Cilnb29nbGUubWFwcy5wbGFjZXMudjEuUGxhY2VzLlNlYXJjaE5lYXJieRACGAQgAA,buddhist_temple;place_of_worship;association_or_organization;point_of_interest;establishment,buddhist_temple,Kampong Cham
ChIJ5dcNan41DDER7jYkCxShNgM,Wat Speu,cultural,buddhist_temple,Buddhist Temple,sightseeing,12.330551499999999,105.32677989999999,"PR222, Cambodia",4.3,28,,OPERATIONAL,,https://maps.google.com/?cid=231549538314499822&g_mp=Cilnb29nbGUubWFwcy5wbGFjZXMudjEuUGxhY2VzLlNlYXJjaE5lYXJieRACGAQgAA,buddhist_temple;place_of_worship;association_or_organization;point_of_interest;establishment,buddhist_temple,Kampong Cham
ChIJmUGKI7gCDDERNRMmVQM3Tg8,Wat Lvea Te,cultural,buddhist_temple,Buddhist Temple,sightseeing,11.8346314,105.05395779999999,"R3M3+VH4, មានជ័យ, Cambodia",3.7,14,,OPERATIONAL,,https://maps.google.com/?cid=1102879446205338421&g_mp=Cilnb29nbGUubWFwcy5wbGFjZXMudjEuUGxhY2VzLlNlYXJjaE5lYXJieRACGAQgAA,buddhist_temple;place_of_worship;association_or_organization;point_of_interest;establishment,buddhist_temple,Kampong Cham
ChIJU5JbQBRnDDERLHPSqSlhICk,Shalom Life Chapel,cultural,church,Church,sightseeing,11.912536099999999,105.6564159,"WM74+2H7, Suong, Cambodia",4,6,,OPERATIONAL,,https://maps.google.com/?cid=2963475386380481324&g_mp=Cilnb29nbGUubWFwcy5wbGFjZXMudjEuUGxhY2VzLlNlYXJjaE5lYXJieRACGAQgAA,church;place_of_worship;association_or_organization;point_of_interest;establishment,church,Kampong Cham
ChIJddDVBGFqDDERTnK4hr7ISJ8,Catholic Church Kampong Cham,cultural,church,Church,sightseeing,11.982234799999999,105.45708549999999,"Krong Kampong Cham, Cambodia",4.4,14,,OPERATIONAL,,https://maps.google.com/?cid=11477644370983285326&g_mp=Cilnb29nbGUubWFwcy5wbGFjZXMudjEuUGxhY2VzLlNlYXJjaE5lYXJieRACGAQgAA,church;place_of_worship;association_or_organization;point_of_interest;establishment,church,Kampong Cham
ChIJ74ISP3pqDDERq1sPfElCXZ8,សាសនាចក្រ​នៃ​ព្រះយេស៊ូវ​គ្រីស្ទ​នៃ​ពួកបរិសុទ្ធ​ថ្ងៃ​ចុងក្រោយ,cultural,church,Church,sightseeing,11.994726400000001,105.4616511,"21 Khemarak Phoumin Village 14, Commune, 0106, Krong Kampong Cham 30402, Cambodia",5,11,,OPERATIONAL,https://local.churchofjesuschrist.org/en/kh/kampong-cham/21-khemarak-phoumin?utm_source=gmb&utm_medium=yext&y_source=1_NjcwODA5NjYtNzE1LWxvY2F0aW9uLndlYnNpdGU%3D,https://maps.google.com/?cid=11483407508246059947&g_mp=Cilnb29nbGUubWFwcy5wbGFjZXMudjEuUGxhY2VzLlNlYXJjaE5lYXJieRACGAQgAA,church;place_of_worship;association_or_organization;point_of_interest;establishment,church,Kampong Cham
ChIJ7wXf00opDDERAhtSh3Wzoa4,Tangkok Catholic Church and Shrine of Martyrs,cultural,church,Church,sightseeing,12.2545576,105.12226559999999,"743C+RWC, ឃុំ សូយោង, Cambodia",4.8,15,,OPERATIONAL,,https://maps.google.com/?cid=12583536151212727042&g_mp=Cilnb29nbGUubWFwcy5wbGFjZXMudjEuUGxhY2VzLlNlYXJjaE5lYXJieRACGAQgAA,church;place_of_worship;association_or_organization;point_of_interest;establishment,church,Kampong Cham
ChIJX2Z49Ip5DDER-ruOgzapeMU,Wat Daun Doak Lech,cultural,church,Church,sightseeing,11.6967457,105.6561153,"MMW4+MCX, Cambodia",5,6,,OPERATIONAL,,https://maps.google.com/?cid=14229309074277579770&g_mp=Cilnb29nbGUubWFwcy5wbGFjZXMudjEuUGxhY2VzLlNlYXJjaE5lYXJieRACGAQgAA,church;place_of_worship;association_or_organization;point_of_interest;establishment,church,Kampong Cham
ChIJG11qGsRNDDERvj_AuxrthJE,ក្ដុលលើ Catholic church Kdol Leu,cultural,church,Church,sightseeing,12.276890999999999,105.5649206,"308, Cambodia",4.2,15,,OPERATIONAL,,https://maps.google.com/?cid=10485766531500228542&g_mp=Cilnb29nbGUubWFwcy5wbGFjZXMudjEuUGxhY2VzLlNlYXJjaE5lYXJieRACGAQgAA,church;place_of_worship;association_or_organization;point_of_interest;establishment,church,Kampong Cham
ChIJzdMAQM0JDDER-RFG3qmmHzA,성광새빛교회,cultural,church,Church,sightseeing,11.663861599999999,105.22928929999999,"M67H+WF9, Pea Reang, Cambodia",,,,OPERATIONAL,,https://maps.google.com/?cid=3467673486607389177&g_mp=Cilnb29nbGUubWFwcy5wbGFjZXMudjEuUGxhY2VzLlNlYXJjaE5lYXJieRACGAQgAA,church;place_of_worship;association_or_organization;point_of_interest;establishment,church,Kampong Cham
ChIJXyOiC9ttDDERwhORedMrtiI,ភូមិពង្រ,cultural,church,Church,sightseeing,11.892253199999999,105.440024,"VCRR+W22 ភូមិពង្រ ឃុំពាមប្រធ្នោះ, Cambodia",,,,OPERATIONAL,,https://maps.google.com/?cid=2501234830328533954&g_mp=Cilnb29nbGUubWFwcy5wbGFjZXMudjEuUGxhY2VzLlNlYXJjaE5lYXJieRACGAQgAA,church;place_of_worship;association_or_organization;point_of_interest;establishment,church,Kampong Cham
ChIJU8Atsy9rDDERW9TwPle9-k8,Krong Kampong Cham Seventh-day Adventist Church,cultural,church,Church,sightseeing,11.9956658,105.4477287,"XCWX+739, Krong Kampong Cham, Cambodia",3.8,4,,OPERATIONAL,,https://maps.google.com/?cid=5763126855589745755&g_mp=Cilnb29nbGUubWFwcy5wbGFjZXMudjEuUGxhY2VzLlNlYXJjaE5lYXJieRACGAQgAA,church;place_of_worship;association_or_organization;point_of_interest;establishment,church,Kampong Cham
ChIJI7fgkRF7DDERd_sSrANv4Ys,Catholic Church ChomLak,cultural,church,Church,sightseeing,11.7859518,105.6031031,"73, Cambodia",4.9,9,,OPERATIONAL,,https://maps.google.com/?cid=10079459502594390903&g_mp=Cilnb29nbGUubWFwcy5wbGFjZXMudjEuUGxhY2VzLlNlYXJjaE5lYXJieRACGAQgAA,church;place_of_worship;association_or_organization;point_of_interest;establishment,church,Kampong Cham
ChIJafxpG8wUDDERQW1jMwsZL18,Catholic Church KohRoka,cultural,church,Church,sightseeing,11.944840099999999,105.4009572,"WCV2+W9P, Kampong Siem District, Cambodia",4.5,13,,OPERATIONAL,,https://maps.google.com/?cid=6858728293406043457&g_mp=Cilnb29nbGUubWFwcy5wbGFjZXMudjEuUGxhY2VzLlNlYXJjaE5lYXJieRACGAQgAA,church;place_of_worship;association_or_organization;point_of_interest;establishment,church,Kampong Cham
ChIJ98okHoNODDERRbH3cGbnoEA,Stung Trong Church,cultural,church,Church,sightseeing,12.2604373,105.53743209999999,"7G6P+5XF, Unnamed Road, Stueng Trang District, Cambodia",3,5,,OPERATIONAL,,https://maps.google.com/?cid=4656976441869054277&g_mp=Cilnb29nbGUubWFwcy5wbGFjZXMudjEuUGxhY2VzLlNlYXJjaE5lYXJieRACGAQgAA,church;place_of_worship;association_or_organization;point_of_interest;establishment,church,Kampong Cham
ChIJJ3n4LCFvDDER4PhA2i5yHwE,ក្រុមជំនុំបេសកកម្មដំណឹងល្អ ភូមិភ្នំ,cultural,church,Church,sightseeing,11.9038758,105.5186301,"WG39+HF2, Phnom village, Tonle Bet, Cambodia",5,1,,OPERATIONAL,,https://maps.google.com/?cid=80908863871711456&g_mp=Cilnb29nbGUubWFwcy5wbGFjZXMudjEuUGxhY2VzLlNlYXJjaE5lYXJieRACGAQgAA,church;place_of_worship;association_or_organization;point_of_interest;establishment,church,Kampong Cham
ChIJ189RZ5gzDDER_n-eP3eXUxs,Video,cultural,church,Church,sightseeing,12.314386299999999,105.2750719,"877G+Q24, Chamkar Leu District, Cambodia",4.5,2,,OPERATIONAL,,https://maps.google.com/?cid=1969084000515293182&g_mp=Cilnb29nbGUubWFwcy5wbGFjZXMudjEuUGxhY2VzLlNlYXJjaE5lYXJieRACGAQgAA,church;place_of_worship;association_or_organization;point_of_interest;establishment,church,Kampong Cham
ChIJTdujFXpqDDEREBzu8-VkETs,Bright Knowledge Church,cultural,church,Church,sightseeing,11.9901875,105.4710625,"City, ស្រុកកោញសូទិន, Cambodia",3.9,9,,OPERATIONAL,,https://maps.google.com/?cid=4256294061644586000&g_mp=Cilnb29nbGUubWFwcy5wbGFjZXMudjEuUGxhY2VzLlNlYXJjaE5lYXJieRACGAQgAA,church;place_of_worship;association_or_organization;point_of_interest;establishment,church,Kampong Cham
ChIJRTT8SnYjDDERPcAWjA-pAdI,​​​Antioch of Love Church​​​ ព្រះវិហារអាន់ទីយ៉ូកនៃសេចក្ដីស្រឡាញ់,cultural,church,Church,sightseeing,12.035500599999999,105.168337,"25P9+684, ៧, 030807, Cambodia",5,1,,OPERATIONAL,,https://maps.google.com/?cid=15132562107181482045&g_mp=Cilnb29nbGUubWFwcy5wbGFjZXMudjEuUGxhY2VzLlNlYXJjaE5lYXJieRACGAQgAA,church;place_of_worship;association_or_organization;point_of_interest;establishment,church,Kampong Cham
ChIJCXnhOtVrDDERkpzObPA4V4U,ផ្ទះរបស់អ្នកបម្រើព្រះយេស៊ូវគ្រីស្ទServant of Jesus Christ,cultural,church,Church,sightseeing,12.001824,105.431495,"2C3J+2Q, Kampong Siem District, Cambodia",,,,CLOSED_TEMPORARILY,https://www.facebook.com/TrySokHengServantofJESUS?mibextid=LQQJ4d,https://maps.google.com/?cid=9608210935287028882&g_mp=Cilnb29nbGUubWFwcy5wbGFjZXMudjEuUGxhY2VzLlNlYXJjaE5lYXJieRACGAQgAA,church;place_of_worship;association_or_organization;point_of_interest;establishment,church,Kampong Cham
ChIJ5QPKYoNrDDERkekqy4XSd3o,ព្រះវិហារដំណឹងល្អ កំពង់ចាម,cultural,church,Church,sightseeing,11.989428199999999,105.4399985,"XCQR+F7Q, Krong Kampong Cham, Cambodia",1,1,,OPERATIONAL,,https://maps.google.com/?cid=8824753466936846737&g_mp=Cilnb29nbGUubWFwcy5wbGFjZXMudjEuUGxhY2VzLlNlYXJjaE5lYXJieRACGAQgAA,church;place_of_worship;association_or_organization;point_of_interest;establishment,church,Kampong Cham
ChIJyaQXke8RDDERCAPzk-_eUBQ,កុងស៊ី អ្នកតាចិន,cultural,church,Church,sightseeing,11.9100368,105.2428463,"W66V+249, Cambodia",4.8,6,,OPERATIONAL,,https://maps.google.com/?cid=1463914999456137992&g_mp=Cilnb29nbGUubWFwcy5wbGFjZXMudjEuUGxhY2VzLlNlYXJjaE5lYXJieRACGAQgAA,church;place_of_worship;association_or_organization;point_of_interest;establishment,church,Kampong Cham
ChIJIWzlyZlBDDER135opKPzdqE,New Life Fellowship Kampong Cham,cultural,church,Church,sightseeing,12.0134066,105.4499496,"2F72+92, Krong Kampong Cham, Cambodia",5,1,,OPERATIONAL,,https://maps.google.com/?cid=11634754571521785559&g_mp=Cilnb29nbGUubWFwcy5wbGFjZXMudjEuUGxhY2VzLlNlYXJjaE5lYXJieRACGAQgAA,church;place_of_worship;association_or_organization;point_of_interest;establishment,church,Kampong Cham
ChIJ6aaN8WxjDDERd8XXElQEYDs,ដងកាំបិត,cultural,mosque,Mosque,sightseeing,11.8856526,105.7129484,"VPM7+Q5, Suong, Cambodia",2.3,4,,OPERATIONAL,,https://maps.google.com/?cid=4278424405141865847&g_mp=Cilnb29nbGUubWFwcy5wbGFjZXMudjEuUGxhY2VzLlNlYXJjaE5lYXJieRACGAQgAA,mosque;place_of_worship;association_or_organization;point_of_interest;establishment,mosque,Kampong Cham
ChIJE5dwBWoXDDERQnmGHe6S6p0,Masjid alnuwar Bahin Tongsa,cultural,mosque,Mosque,sightseeing,11.947699799999999,105.23771629999999,"W6XQ+33G, Angkor Ban, Cambodia",4.5,11,,OPERATIONAL,,https://maps.google.com/?cid=11379068959900203330&g_mp=Cilnb29nbGUubWFwcy5wbGFjZXMudjEuUGxhY2VzLlNlYXJjaE5lYXJieRACGAQgAA,mosque;place_of_worship;association_or_organization;point_of_interest;establishment,mosque,Kampong Cham
ChIJE8u2HwBfDDERE3a1zSmngUQ,រការប្រាំ,cultural,mosque,Mosque,sightseeing,12.031462,105.7262112,"2PJG+HF, ក្រុងសួង, Cambodia",5,6,,OPERATIONAL,,https://maps.google.com/?cid=4936410464561493523&g_mp=Cilnb29nbGUubWFwcy5wbGFjZXMudjEuUGxhY2VzLlNlYXJjaE5lYXJieRACGAQgAA,mosque;place_of_worship;association_or_organization;point_of_interest;establishment,mosque,Kampong Cham
ChIJ3RwqohdNDDERx8M1o4Qx1zI,ភូមិទ្រា,cultural,mosque,Mosque,sightseeing,12.2809986,105.5181302,"7GJ9+97R, Phum Meakh, Cambodia",5,1,,OPERATIONAL,,https://maps.google.com/?cid=3663451267632841671&g_mp=Cilnb29nbGUubWFwcy5wbGFjZXMudjEuUGxhY2VzLlNlYXJjaE5lYXJieRACGAQgAA,mosque;place_of_worship;association_or_organization;point_of_interest;establishment,mosque,Kampong Cham
ChIJoULx2SIHDDERq31kJlO3i0Q,វិហារឥស្លាម,cultural,mosque,Mosque,sightseeing,11.6980857,105.1466998,"M4XW+6MP, Kor Kor, Cambodia",4.3,11,,OPERATIONAL,,https://maps.google.com/?cid=4939242984096169387&g_mp=Cilnb29nbGUubWFwcy5wbGFjZXMudjEuUGxhY2VzLlNlYXJjaE5lYXJieRACGAQgAA,mosque;place_of_worship;association_or_organization;point_of_interest;establishment,mosque,Kampong Cham
ChIJRR3u8RdfDDER_fc0penTTpk,ម៉ាស្ជិទនូរ៉ុទ្ទីន ភូមិរកាពប្រាំ1 ឃុំ​រកាពប្រាំ ស្រុកត្បូងឃ្មុំ ខេត្ត​ត្បូងឃ្មុំ​​,cultural,mosque,Mosque,sightseeing,12.0370285,105.72252220000001,"2PPF+R26, Suong, Cambodia",4.4,17,,OPERATIONAL,,https://maps.google.com/?cid=11046999936438958077&g_mp=Cilnb29nbGUubWFwcy5wbGFjZXMudjEuUGxhY2VzLlNlYXJjaE5lYXJieRACGAQgAA,mosque;place_of_worship;association_or_organization;point_of_interest;establishment,mosque,Kampong Cham
ChIJTxPILxppDDERuvEBAftoeMg,Masjid Tuol Ponley,cultural,mosque,Mosque,sightseeing,11.9852914,105.5682655,"XHP9+486, Unnamed Road, Tonle Bet, Cambodia",4.2,6,,OPERATIONAL,,https://maps.google.com/?cid=14445411232053850554&g_mp=Cilnb29nbGUubWFwcy5wbGFjZXMudjEuUGxhY2VzLlNlYXJjaE5lYXJieRACGAQgAA,mosque;place_of_worship;association_or_organization;point_of_interest;establishment,mosque,Kampong Cham
ChIJNbcVGwBTDDERUO5soDloKCQ,ភូមិទី 5,cultural,mosque,Mosque,sightseeing,12.2710919,105.6521538,"7MC2+CVJ, Krouch Chhmar, Cambodia",4,4,,OPERATIONAL,,https://maps.google.com/?cid=2605446981147749968&g_mp=Cilnb29nbGUubWFwcy5wbGFjZXMudjEuUGxhY2VzLlNlYXJjaE5lYXJieRACGAQgAA,mosque;place_of_worship;association_or_organization;point_of_interest;establishment,mosque,Kampong Cham
ChIJ0Xi0Hok0DDERi2Z5ofI1ctU,Speu Mosque,cultural,mosque,Mosque,sightseeing,12.323596,105.328107,"88FH+C6Q, Phumi Spoe Tbong, Cambodia",3.6,14,,OPERATIONAL,,https://maps.google.com/?cid=15380414993631110795&g_mp=Cilnb29nbGUubWFwcy5wbGFjZXMudjEuUGxhY2VzLlNlYXJjaE5lYXJieRACGAQgAA,mosque;place_of_worship;association_or_organization;point_of_interest;establishment,mosque,Kampong Cham
ChIJAQAAzzP_DDERUJHSpECffEc,Masjid Jame' Chumnik,cultural,mosque,Mosque,sightseeing,12.251811799999999,105.81380240000001,"308, Cambodia",,,,OPERATIONAL,,https://maps.google.com/?cid=5151167173796991312&g_mp=Cilnb29nbGUubWFwcy5wbGFjZXMudjEuUGxhY2VzLlNlYXJjaE5lYXJieRACGAQgAA,mosque;place_of_worship;association_or_organization;point_of_interest;establishment,mosque,Kampong Cham
ChIJzxOFCQBrDDERJXxrT5pHneM,Masjid Jamek Negeri Kampong Cham,cultural,mosque,Mosque,sightseeing,11.974867999999999,105.4550486,"XFF4+W2V, Krong Kampong Cham, Cambodia",4.7,7,,OPERATIONAL,,https://maps.google.com/?cid=16401344146036194341&g_mp=Cilnb29nbGUubWFwcy5wbGFjZXMudjEuUGxhY2VzLlNlYXJjaE5lYXJieRACGAQgAA,mosque;place_of_worship;association_or_organization;point_of_interest;establishment,mosque,Kampong Cham
ChIJZ3qkddo9DDERZWpLOX8pbOQ,វិហារឥស្លាម ភូមិព្រៃខ្ជាយ,cultural,mosque,Mosque,sightseeing,12.0736779,105.2483958,"NR60, Cambodia",5,6,,OPERATIONAL,,https://maps.google.com/?cid=16459576364531149413&g_mp=Cilnb29nbGUubWFwcy5wbGFjZXMudjEuUGxhY2VzLlNlYXJjaE5lYXJieRACGAQgAA,mosque;place_of_worship;association_or_organization;point_of_interest;establishment,mosque,Kampong Cham
ChIJt34sGbxNDDERdZdplCNwiIg,វិហារឥស្លាម គីឡូ៣.Masjid Kilo3,cultural,mosque,Mosque,sightseeing,12.2975931,105.5436198,"7GXV+2CQ, Unnamed Road, Phum Meakh, Cambodia",4,5,,OPERATIONAL,,https://maps.google.com/?cid=9838236684106962805&g_mp=Cilnb29nbGUubWFwcy5wbGFjZXMudjEuUGxhY2VzLlNlYXJjaE5lYXJieRACGAQgAA,mosque;place_of_worship;association_or_organization;point_of_interest;establishment,mosque,Kampong Cham
ChIJC8UV2I5FDDERCzz3e42Ca8w,Masjid Kampong Treas,cultural,mosque,Mosque,sightseeing,12.123680700000001,105.5467336,"308, Cambodia",4,5,,OPERATIONAL,,https://maps.google.com/?cid=14730010550427139083&g_mp=Cilnb29nbGUubWFwcy5wbGFjZXMudjEuUGxhY2VzLlNlYXJjaE5lYXJieRACGAQgAA,mosque;place_of_worship;association_or_organization;point_of_interest;establishment,mosque,Kampong Cham
ChIJFXgeI9T-DDERAJ9vePZOfYs,Masjid Al-Amaniah,cultural,mosque,Mosque,sightseeing,12.2509509,105.83324069999999,"308, Cambodia",3.3,16,,OPERATIONAL,,https://maps.google.com/?cid=10051276763850317568&g_mp=Cilnb29nbGUubWFwcy5wbGFjZXMudjEuUGxhY2VzLlNlYXJjaE5lYXJieRACGAQgAA,mosque;place_of_worship;association_or_organization;point_of_interest;establishment,mosque,Kampong Cham
ChIJK_OADQNfDDERO_uWkZcSdZ4,វិហារឥស្លាម អាល់មូបារ៉ឹក្ខ វាលឃ្មុំ,cultural,mosque,Mosque,sightseeing,11.9913286,105.7074001,"XPR4+GXJ, Cambodia",4.8,4,,OPERATIONAL,,https://maps.google.com/?cid=11418052872459713339&g_mp=Cilnb29nbGUubWFwcy5wbGFjZXMudjEuUGxhY2VzLlNlYXJjaE5lYXJieRACGAQgAA,mosque;place_of_worship;association_or_organization;point_of_interest;establishment,mosque,Kampong Cham
ChIJq6rqG_VLDDERejqAjm3bQPg,Masjid Tuol Po,cultural,mosque,Mosque,sightseeing,12.2858886,105.49807589999999,"7FPX+964, Phum Tuol Pou, Cambodia",4.3,4,,OPERATIONAL,,https://maps.google.com/?cid=17888538983504296570&g_mp=Cilnb29nbGUubWFwcy5wbGFjZXMudjEuUGxhY2VzLlNlYXJjaE5lYXJieRACGAQgAA,mosque;place_of_worship;association_or_organization;point_of_interest;establishment,mosque,Kampong Cham
ChIJ4bK4dooXDDERdfLRV1A6OHg,Masjid almannanمسجد المنان,cultural,mosque,Mosque,sightseeing,11.950501,105.2224997,"X62C+6X5, Angkor Ban, Cambodia",3.7,3,,OPERATIONAL,,https://maps.google.com/?cid=8662737999992320629&g_mp=Cilnb29nbGUubWFwcy5wbGFjZXMudjEuUGxhY2VzLlNlYXJjaE5lYXJieRACGAQgAA,mosque;place_of_worship;association_or_organization;point_of_interest;establishment,mosque,Kampong Cham
ChIJ4XEuAqltDDEREmzczEbgIc8,Masjid Phum Dabbei Loeu វិហារឥស្លាម ភូមិ១៣លើ,cultural,mosque,Mosque,sightseeing,11.9012646,105.42080449999999,"WC2C+G83, Kaoh Soutin, Cambodia",4.9,7,,OPERATIONAL,,https://maps.google.com/?cid=14925457234771864594&g_mp=Cilnb29nbGUubWFwcy5wbGFjZXMudjEuUGxhY2VzLlNlYXJjaE5lYXJieRACGAQgAA,mosque;place_of_worship;association_or_organization;point_of_interest;establishment,mosque,Kampong Cham
ChIJlTZEw9sHDDERsdxjVoHv5vE,ភូមិក្រហមករ,cultural,mosque,Mosque,sightseeing,11.6989591,105.1418655,"M4XR+HPQ, Khsach Kandal, Cambodia",5,3,,OPERATIONAL,,https://maps.google.com/?cid=17430882746563288241&g_mp=Cilnb29nbGUubWFwcy5wbGFjZXMudjEuUGxhY2VzLlNlYXJjaE5lYXJieRACGAQgAA,mosque;place_of_worship;association_or_organization;point_of_interest;establishment,mosque,Kampong Cham
ChIJnwznvL51DDERq7iKI9OwegY,សួនសត្វ ឯកឧត្តមញឹម វណ្ណដា,nature,zoo,Zoo,wildlife,11.6512487,105.4824199,"JFXM+75W, Cambodia",5,4,,OPERATIONAL,,https://maps.google.com/?cid=466879932267149483&g_mp=Cilnb29nbGUubWFwcy5wbGFjZXMudjEuUGxhY2VzLlNlYXJjaE5lYXJieRACGAQgAA,zoo;point_of_interest;establishment,zoo,Kampong Cham
ChIJtY1VMjs5DDER9hq-qZKFbuU,ផ្ទះពូធី អ៉ីគា,nature,aquarium,Aquarium,wildlife,12.1680625,105.32618749999999,"589G+6F6, Bos Khnor 12000, Cambodia",,,,OPERATIONAL,,https://maps.google.com/?cid=16532298147083197174&g_mp=Cilnb29nbGUubWFwcy5wbGFjZXMudjEuUGxhY2VzLlNlYXJjaE5lYXJieRACGAQgAA,aquarium;point_of_interest;establishment,aquarium,Kampong Cham
ChIJ8fa3VgALDDERCSXxswD7QK4,សួនទឹកហុងឈឿន K M N,urban,amusement_park,Amusement Park,rides,11.71673,105.36270789999999,"P987+M3W, Cambodia",4,1,,OPERATIONAL,,https://maps.google.com/?cid=12556311741546439945&g_mp=Cilnb29nbGUubWFwcy5wbGFjZXMudjEuUGxhY2VzLlNlYXJjaE5lYXJieRACGAQgAA,amusement_park;point_of_interest;establishment,amusement_park,Kampong Cham
ChIJQaz0dNxdDDERlcsSm_83meM,សួនទឹកភូមិបៃតង,urban,water_park,Water Park,rides,12.0669881,105.68693449999999,"ផ្លូវលំ, ភូមិតាប៉ាវបំពេញទេស, Cambodia",2.3,3,,OPERATIONAL,,https://maps.google.com/?cid=16400201089004260245&g_mp=Cilnb29nbGUubWFwcy5wbGFjZXMudjEuUGxhY2VzLlNlYXJjaE5lYXJieRACGAQgAA,water_park;amusement_park;point_of_interest;establishment,amusement_park,Kampong Cham
ChIJ-8wNp2uHDDERXBoX1GXGK84,សួនទឹកសិរីមង្គល 168 Water park Serey Mongkul 168,urban,water_park,Water Park,rides,11.791416000000002,105.863939,"QVR7+HH, Ponhea Kraek District, Cambodia",,,,OPERATIONAL,,https://maps.google.com/?cid=14856185936463993436&g_mp=Cilnb29nbGUubWFwcy5wbGFjZXMudjEuUGxhY2VzLlNlYXJjaE5lYXJieRACGAQgAA,water_park;amusement_park;point_of_interest;establishment,amusement_park,Kampong Cham
ChIJO_8_NRhxDDEREuJyANtlmIA,តារាងបាល់ទាត់វិទ្យាល័យហ៊ុន​សែនអូរាំងឪ,urban,stadium,Stadium,,11.789566599999999,105.5018116,"QGQ2+RPF, Ou Reang Ov District, Cambodia",5,2,,OPERATIONAL,https://www.facebook.com/share/14EWtR5SV2D/?mibextid=wwXIfr,https://maps.google.com/?cid=9266268224594567698&g_mp=Cilnb29nbGUubWFwcy5wbGFjZXMudjEuUGxhY2VzLlNlYXJjaE5lYXJieRACGAQgAA,stadium;event_venue;sports_complex;sports_activity_location;point_of_interest;establishment,stadium,Kampong Cham
ChIJqVoj77tTDDERyqn_WYRo1c8,កីឡដ្ឋាន ភូមិខ្ពប២​,urban,stadium,Stadium,,12.258825,105.6690437,"7M59+GJM, Cambodia",5,3,,OPERATIONAL,,https://maps.google.com/?cid=14975991053545351626&g_mp=Cilnb29nbGUubWFwcy5wbGFjZXMudjEuUGxhY2VzLlNlYXJjaE5lYXJieRACGAQgAA,stadium;event_venue;sports_complex;sports_activity_location;point_of_interest;establishment,stadium,Kampong Cham
ChIJR87QnA8RDDERt14BU8URTWI,តារាងតានង់ភូមិទី១១,urban,stadium,Stadium,,11.9000559,105.2686197,"W729+2CH, Krong Kampong Cham, Cambodia",4.7,7,,OPERATIONAL,,https://maps.google.com/?cid=7083337328122486455&g_mp=Cilnb29nbGUubWFwcy5wbGFjZXMudjEuUGxhY2VzLlNlYXJjaE5lYXJieRACGAQgAA,stadium;event_venue;sports_complex;sports_activity_location;point_of_interest;establishment,stadium,Kampong Cham
ChIJVVVVwX1qDDERrnraFNLyLjQ,Kampong Cham Stadium,urban,stadium,Stadium,,11.9949623,105.45550259999999,"XFV4+X6J, Krong Kampong Cham, Cambodia",3,1,,OPERATIONAL,,https://maps.google.com/?cid=3760209723007859374&g_mp=Cilnb29nbGUubWFwcy5wbGFjZXMudjEuUGxhY2VzLlNlYXJjaE5lYXJieRACGAQgAA,stadium;event_venue;sports_complex;sports_activity_location;point_of_interest;establishment,stadium,Kampong Cham
ChIJQYo13UDzDDEREt4rgCqIPt8,តារាងបាល់ទាត់បន្ទាយទាហាន ២១៣ តំបែរ.ខេត្ដត្បូងឃ្មុំ,urban,stadium,Stadium,,12.019474899999999,105.88971099999999,"2V9Q+QV, Phumi Trâpeang Rumduol Roessei, Cambodia",,,,OPERATIONAL,,https://maps.google.com/?cid=16086444635134352914&g_mp=Cilnb29nbGUubWFwcy5wbGFjZXMudjEuUGxhY2VzLlNlYXJjaE5lYXJieRACGAQgAA,stadium;event_venue;sports_complex;sports_activity_location;point_of_interest;establishment,stadium,Kampong Cham
ChIJNfG5LwBpDDERw4O56ateFSQ,ទីលានបាល់ទាត់ ភូមិទួលពន្លៃ,urban,stadium,Stadium,,11.9867105,105.5728854,"XHP9+FH, Tonle Bet, Cambodia",5,1,,OPERATIONAL,,https://maps.google.com/?cid=2600088452329997251&g_mp=Cilnb29nbGUubWFwcy5wbGFjZXMudjEuUGxhY2VzLlNlYXJjaE5lYXJieRACGAQgAA,stadium;event_venue;sports_complex;sports_activity_location;point_of_interest;establishment,stadium,Kampong Cham
ChIJz8F653MNDDER0q06GTVk1L4,តារាងបាល់ទាត់ឃុំព្រៃទឹង,urban,stadium,Stadium,,11.746946099999999,105.3632839,"P9W7+Q8F, Unnamed Road, Sithor Kandal District, Cambodia",5,2,,OPERATIONAL,,https://maps.google.com/?cid=13750725741488287186&g_mp=Cilnb29nbGUubWFwcy5wbGFjZXMudjEuUGxhY2VzLlNlYXJjaE5lYXJieRACGAQgAA,stadium;event_venue;sports_complex;sports_activity_location;point_of_interest;establishment,stadium,Kampong Cham
ChIJawx8PABTDDERm5Ct96oq_gY,ទីលានបាល់ទាត់ស្វាយឃ្លាំង(ភូមិទី៥)​ ស្រុកក្រូចឆ្មារ​ ខេត្តត្បូងឃ្មុំ,urban,stadium,Stadium,,12.2708221,105.6501306,"7MC2+83C, 308, Krouch Chhmar, Cambodia",,,,OPERATIONAL,,https://maps.google.com/?cid=503887122100228251&g_mp=Cilnb29nbGUubWFwcy5wbGFjZXMudjEuUGxhY2VzLlNlYXJjaE5lYXJieRACGAQgAA,stadium;event_venue;sports_complex;sports_activity_location;point_of_interest;establishment,stadium,Kampong Cham
ChIJyYdBcQBhDDERPG1Ge9BvaFM,ភូមិសំបួរ ឃុំគរ ស្រុកត្បូងឃ្មុំ ខេត្តត្បូងឃ្មុំ,urban,stadium,Stadium,,11.9723081,105.7306996,"XPCJ+W7G, Kor, Cambodia",5,1,,OPERATIONAL,,https://maps.google.com/?cid=6010176643938020668&g_mp=Cilnb29nbGUubWFwcy5wbGFjZXMudjEuUGxhY2VzLlNlYXJjaE5lYXJieRACGAQgAA,stadium;event_venue;sports_complex;sports_activity_location;point_of_interest;establishment,stadium,Kampong Cham
ChIJV2O7vHdrDDER3vw3x6ppz94,កោះប៉ែន ន្លែងញុំអី,urban,night_club,Night Club,nightlife,11.967986999999999,105.460139,"XF96+53, Krong Kampong Cham, Cambodia",4.7,6,,OPERATIONAL,,https://maps.google.com/?cid=16055167378806799582&g_mp=Cilnb29nbGUubWFwcy5wbGFjZXMudjEuUGxhY2VzLlNlYXJjaE5lYXJieRACGAQgAA,night_club;point_of_interest;establishment,night_club,Kampong Cham
ChIJ4zP0HqVrDDERaOnOa0pauH0,57 Club KPC,urban,night_club,Night Club,nightlife,11.9941008,105.46622669999999,"XFV8+MG9, Krong Kampong Cham, Cambodia",4,4,,OPERATIONAL,,https://maps.google.com/?cid=9059089926138554728&g_mp=Cilnb29nbGUubWFwcy5wbGFjZXMudjEuUGxhY2VzLlNlYXJjaE5lYXJieRACGAQgAA,night_club;point_of_interest;establishment,night_club,Kampong Cham
ChIJuy-IbQmLCzERrhPqezuorus,អាហារដ្ឋាន កុលាបស KTV,urban,bar,Bar,nightlife,11.592744,105.43314799999999,"Svay Antor, Cambodia",3.9,15,,OPERATIONAL,,https://maps.google.com/?cid=16982696218296193966&g_mp=Cilnb29nbGUubWFwcy5wbGFjZXMudjEuUGxhY2VzLlNlYXJjaE5lYXJieRACGAQgAA,karaoke;night_club;bar;point_of_interest;establishment,night_club,Kampong Cham
ChIJ20ExNwCLCzERUj8UhfuheZ0,វិមានសួគ៌VMS-(KTV),urban,bar,Bar,nightlife,11.603609899999999,105.42326279999999,"JC3F+C86, Svay Antor, Cambodia",,,,OPERATIONAL,,https://maps.google.com/?cid=11347278837778235218&g_mp=Cilnb29nbGUubWFwcy5wbGFjZXMudjEuUGxhY2VzLlNlYXJjaE5lYXJieRACGAQgAA,karaoke;night_club;bar;point_of_interest;establishment,night_club,Kampong Cham
ChIJvfNS79llDDERJcbrcscGWzs,រកាឃ្នួច,urban,night_club,Night Club,nightlife,11.869846299999999,105.6347552,"VJ9M+WW, Suong, Cambodia",5,3,,OPERATIONAL,,https://maps.google.com/?cid=4277019724814730789&g_mp=Cilnb29nbGUubWFwcy5wbGFjZXMudjEuUGxhY2VzLlNlYXJjaE5lYXJieRACGAQgAA,night_club;point_of_interest;establishment,night_club,Kampong Cham
ChIJP7IBJoFnDDERX5BJBakPMdw,KTV 67 TBK,urban,bar,Bar,nightlife,11.9081149,105.65929679999999,"WM55+48Q, Suong, Cambodia",3.6,11,,OPERATIONAL,,https://maps.google.com/?cid=15866480180815564895&g_mp=Cilnb29nbGUubWFwcy5wbGFjZXMudjEuUGxhY2VzLlNlYXJjaE5lYXJieRACGAQgAA,karaoke;night_club;bar;point_of_interest;establishment,night_club,Kampong Cham
ChIJ42EB4nBrDDERqM6P8XNBt9I,KTV,urban,night_club,Night Club,nightlife,11.9635113,105.4475839,"XC7X+C24, Cambodia",3.8,6,,OPERATIONAL,,https://maps.google.com/?cid=15183676634932694696&g_mp=Cilnb29nbGUubWFwcy5wbGFjZXMudjEuUGxhY2VzLlNlYXJjaE5lYXJieRACGAQgAA,night_club;point_of_interest;establishment,night_club,Kampong Cham
ChIJK3-B2U4zDDEROcr18EAs4a0,សម្រស់KTVប្រម៉ាត់ដី,urban,bar,Bar,nightlife,12.3232147,105.2662208,"ភូមិប្រម៉ាត់ដី, 87F8+7FQ, Chamkar Leu District, Cambodia",4.8,4,,OPERATIONAL,,https://maps.google.com/?cid=12529344295753599545&g_mp=Cilnb29nbGUubWFwcy5wbGFjZXMudjEuUGxhY2VzLlNlYXJjaE5lYXJieRACGAQgAA,karaoke;night_club;bar;point_of_interest;establishment,night_club,Kampong Cham
ChIJAxNttylnDDER8c0TEA7v5S4,វត្ត ល្ងៀង,urban,night_club,Night Club,nightlife,11.911204,105.6520404,"Suong, Cambodia",5,1,,OPERATIONAL,,https://maps.google.com/?cid=3379369939089739249&g_mp=Cilnb29nbGUubWFwcy5wbGFjZXMudjEuUGxhY2VzLlNlYXJjaE5lYXJieRACGAQgAA,night_club;point_of_interest;establishment,night_club,Kampong Cham
ChIJHzmMOYQhDDERcUByH3AxQDQ,Prime Power III,urban,bar,Bar,nightlife,12.057546,105.06883099999999,"ភូមិតាសែន ឃុំសូទឹប, ស្រុកជេីងព្រៃ, Cambodia",5,2,,OPERATIONAL,https://www.youtube.com/@heartbreakerslinhbkofficia7666,https://maps.google.com/?cid=3765063646115414129&g_mp=Cilnb29nbGUubWFwcy5wbGFjZXMudjEuUGxhY2VzLlNlYXJjaE5lYXJieRACGAQgAA,karaoke;night_club;bar;point_of_interest;establishment,night_club,Kampong Cham
ChIJFUE1AQJrDDER_iSZro9TyEM,The Boss KC,urban,lounge_bar,Lounge bar,nightlife,11.9933918,105.4665452,"PR222, Krong Kampong Cham, Cambodia",3.5,4,,OPERATIONAL,,https://maps.google.com/?cid=4884245672458003710&g_mp=Cilnb29nbGUubWFwcy5wbGFjZXMudjEuUGxhY2VzLlNlYXJjaE5lYXJieRACGAQgAA,lounge_bar;night_club;bar;point_of_interest;establishment,night_club,Kampong Cham
ChIJk5yviTiLCzERmP4bchM8SKs,អាហារដ្ឋាន សំពៅមាស ហេង ហេង,urban,bar,Bar,nightlife,11.58391,105.4215991,"HCMC+HJ9, Svay Antor, Cambodia",3.9,16,,OPERATIONAL,,https://maps.google.com/?cid=12342180833025326744&g_mp=Cilnb29nbGUubWFwcy5wbGFjZXMudjEuUGxhY2VzLlNlYXJjaE5lYXJieRACGAQgAA,karaoke;night_club;bar;point_of_interest;establishment,night_club,Kampong Cham
ChIJK7RuaABjDDERMudgR0lc7H8,ជំនោរ63KTV,urban,bar,Bar,nightlife,11.8784976,105.7363791,"VPHP+9HR ត្រពាំងធំ, Cambodia",4.1,9,,OPERATIONAL,,https://maps.google.com/?cid=9217844007120463666&g_mp=Cilnb29nbGUubWFwcy5wbGFjZXMudjEuUGxhY2VzLlNlYXJjaE5lYXJieRACGAQgAA,karaoke;night_club;bar;point_of_interest;establishment,night_club,Kampong Cham
ChIJmynhXNlrDDERTS_zImuxzus,Gold Sound Ktv,urban,bar,Bar,nightlife,11.9969205,105.46691969999999,"XFW8+QQ7, Krong Kampong Cham, Cambodia",4.7,3,,OPERATIONAL,,https://maps.google.com/?cid=16991713517821439821&g_mp=Cilnb29nbGUubWFwcy5wbGFjZXMudjEuUGxhY2VzLlNlYXJjaE5lYXJieRACGAQgAA,karaoke;night_club;bar;point_of_interest;establishment,night_club,Kampong Cham
ChIJdTr_ewAjDDERuey8bHZkAI0,ផ្ទះការ(រត្តនា ឈែ),urban,night_club,Night Club,nightlife,12.020488199999999,105.1407921,"ភូមិបន្ទាយថ្មី, 24CR+58V ផ្លូវជាតិលេខ7, Cambodia",5,1,,OPERATIONAL,,https://maps.google.com/?cid=10160231219141078201&g_mp=Cilnb29nbGUubWFwcy5wbGFjZXMudjEuUGxhY2VzLlNlYXJjaE5lYXJieRACGAQgAA,night_club;point_of_interest;establishment,night_club,Kampong Cham
ChIJvyFDQQBLDDERwR-utxN3290,ទឹកថ្មដា,urban,night_club,Night Club,nightlife,12.336456300000002,105.4885011,"8FPQ+HCJ ភូមិអូប្រាំ, Stueng Trang District, Cambodia",5,4,,OPERATIONAL,,https://maps.google.com/?cid=15986502228851433409&g_mp=Cilnb29nbGUubWFwcy5wbGFjZXMudjEuUGxhY2VzLlNlYXJjaE5lYXJieRACGAQgAA,night_club;point_of_interest;establishment,night_club,Kampong Cham
ChIJty34x4NqDDERbMuTNzcS0Y8,Gold Club,urban,night_club,Night Club,nightlife,11.998543399999999,105.44648579999999,"XCXW+CH9, NR7, Krong Kampong Cham, Cambodia",4,7,,OPERATIONAL,,https://maps.google.com/?cid=10363084245921155948&g_mp=Cilnb29nbGUubWFwcy5wbGFjZXMudjEuUGxhY2VzLlNlYXJjaE5lYXJieRACGAQgAA,night_club;point_of_interest;establishment,night_club,Kampong Cham
ChIJOW-slHI7DDERQ1Af2eILBmQ,សណ្ដែក,urban,night_club,Night Club,nightlife,12.098291800000002,105.3131185,"38X7+869, Cambodia",,,,OPERATIONAL,,https://maps.google.com/?cid=7207461322586280003&g_mp=Cilnb29nbGUubWFwcy5wbGFjZXMudjEuUGxhY2VzLlNlYXJjaE5lYXJieRACGAQgAA,night_club;point_of_interest;establishment,night_club,Kampong Cham
ChIJBZ4EcgBBDDERyOe8Wv3cJKk,9NINE&KTV,urban,night_club,Night Club,nightlife,12.005015400000001,105.4526763,"2F33+R3X, Krong Kampong Cham, Cambodia",4.8,4,,OPERATIONAL,,https://maps.google.com/?cid=12188109472278570952&g_mp=Cilnb29nbGUubWFwcy5wbGFjZXMudjEuUGxhY2VzLlNlYXJjaE5lYXJieRACGAQgAA,night_club;point_of_interest;establishment,night_club,Kampong Cham
ChIJv8XvBMhrDDER8wy53yjTq_I,Ms Ktv,urban,bar,Bar,nightlife,12.000831699999999,105.4655767,"2F28+86P, Unnamed Road, Krong Kampong Cham, Cambodia",4.8,4,,CLOSED_TEMPORARILY,,https://maps.google.com/?cid=17486302150701681907&g_mp=Cilnb29nbGUubWFwcy5wbGFjZXMudjEuUGxhY2VzLlNlYXJjaE5lYXJieRACGAQgAA,karaoke;night_club;bar;point_of_interest;establishment,night_club,Kampong Cham
ChIJC0svC35rDDERr8tVv5exYu4,LODA Kampong Cham,urban,shopping_mall,Shopping Mall,shopping,11.995498,105.4531913,"ផ្លូវ​ជាតិលេខ​៧​ចាស់ Kampong Cham, Cambodia 03204, Cambodia",4.5,6,,OPERATIONAL,https://web.facebook.com/LODA-Kampong-Cham-111958023898206,https://maps.google.com/?cid=17177487194052742063&g_mp=Cilnb29nbGUubWFwcy5wbGFjZXMudjEuUGxhY2VzLlNlYXJjaE5lYXJieRACGAQgAA,shopping_mall;point_of_interest;establishment,shopping_mall,Kampong Cham
ChIJh3ZGQpD1CzERPnD7bjJz_LQ,ហាងទូរស័ព្ទ,urban,shopping_mall,Shopping Mall,shopping,11.6485497,105.34069609999999,"J8XR+C6V, NR8, Prey Pnov, Cambodia",,,,OPERATIONAL,,https://maps.google.com/?cid=13041425281405644862&g_mp=Cilnb29nbGUubWFwcy5wbGFjZXMudjEuUGxhY2VzLlNlYXJjaE5lYXJieRACGAQgAA,shopping_mall;point_of_interest;establishment,shopping_mall,Kampong Cham
ChIJgcCyv0mLCzERgXH5BDO2awE,ចែ ចាន់ថេត ភូមិចុងបឹង,urban,shopping_mall,Shopping Mall,shopping,11.6461031,105.4610065,"JFW6+CCR, Unnamed Road, ព្រៃស្វាយ, Cambodia",2.8,5,,OPERATIONAL,,https://maps.google.com/?cid=102375746789011841&g_mp=Cilnb29nbGUubWFwcy5wbGFjZXMudjEuUGxhY2VzLlNlYXJjaE5lYXJieRACGAQgAA,shopping_mall;point_of_interest;establishment,shopping_mall,Kampong Cham
ChIJ7TSg2udvDDERG9jbU31BI48,Pza Mall,urban,shopping_mall,Shopping Mall,shopping,11.8922739,105.5532666,"RN11 Tboung Khmum, 03304, Cambodia",5,5,,OPERATIONAL,,https://maps.google.com/?cid=10314159578142201883&g_mp=Cilnb29nbGUubWFwcy5wbGFjZXMudjEuUGxhY2VzLlNlYXJjaE5lYXJieRACGAQgAA,shopping_mall;store;point_of_interest;service;establishment,shopping_mall,Kampong Cham
ChIJ4U4jk31qDDERHvvU8R4VnYg,Sokruos Computer សុខ រស់ កុំព្យូទ័រ,urban,shopping_mall,Shopping Mall,shopping,11.994549099999999,105.4546765,"ផ្លូវ​ជាតិលេខ​៧​ចាស់, Krong Kampong Cham, Cambodia",3.9,14,,OPERATIONAL,,https://maps.google.com/?cid=9844047583152241438&g_mp=Cilnb29nbGUubWFwcy5wbGFjZXMudjEuUGxhY2VzLlNlYXJjaE5lYXJieRACGAQgAA,shopping_mall;electronics_store;store;point_of_interest;establishment,shopping_mall,Kampong Cham
ChIJJUejsZ5rDDERoRaPgR0vP0k,បណ្ណាគារអីុសុខា(Y Sokhabookshop),urban,shopping_mall,Shopping Mall,shopping,11.9895696,105.4649601,"XFQ7+RXG, Unnamed Road, ក្រុងកំពង់ចាម, Cambodia",2.5,2,,OPERATIONAL,,https://maps.google.com/?cid=5277989092075706017&g_mp=Cilnb29nbGUubWFwcy5wbGFjZXMudjEuUGxhY2VzLlNlYXJjaE5lYXJieRACGAQgAA,shopping_mall;point_of_interest;establishment,shopping_mall,Kampong Cham
ChIJV3YejiwpDDERcwOyB7U2t1k,Che La,urban,shopping_mall,Shopping Mall,shopping,12.248812000000001,105.12369500000001,"64XF+GFG, NR6, ឃុំ សូយោង, Cambodia",4.5,21,,OPERATIONAL,,https://maps.google.com/?cid=6464695941259723635&g_mp=Cilnb29nbGUubWFwcy5wbGFjZXMudjEuUGxhY2VzLlNlYXJjaE5lYXJieRACGAQgAA,shopping_mall;point_of_interest;establishment,shopping_mall,Kampong Cham
ChIJh3MQamVqDDER20-crDpMSvo,Mony Medical Laboratory,urban,shopping_mall,Shopping Mall,shopping,11.9910707,105.46116730000001,"XFR6+CFF, Preah Sorya Varman 2, Kampong Cham, Cambodia",4.2,6,,OPERATIONAL,,https://maps.google.com/?cid=18035311472646311899&g_mp=Cilnb29nbGUubWFwcy5wbGFjZXMudjEuUGxhY2VzLlNlYXJjaE5lYXJieRACGAQgAA,shopping_mall;point_of_interest;establishment,shopping_mall,Kampong Cham
ChIJc92M5IVVDDERTAT-I9ugrTc,សុផល ផារី លក់ទូរស័ព្ទដៃ និងគ្រឿងអេឡិចត្រូនិច,urban,shopping_mall,Shopping Mall,shopping,12.283633400000001,105.77570159999999,"7QMG+F74, Preaek Prasab District, Cambodia",4.3,12,,OPERATIONAL,,https://maps.google.com/?cid=4012039706119111756&g_mp=Cilnb29nbGUubWFwcy5wbGFjZXMudjEuUGxhY2VzLlNlYXJjaE5lYXJieRACGAQgAA,shopping_mall;point_of_interest;establishment,shopping_mall,Kampong Cham
ChIJIU-6nxIpDDERlV_3zv8UEJ4,Top Sale,urban,shopping_mall,Shopping Mall,shopping,12.253157999999999,105.12379849999999,"6A, Tangkok 060114, Cambodia",5,4,,OPERATIONAL,,https://maps.google.com/?cid=11389626546541518741&g_mp=Cilnb29nbGUubWFwcy5wbGFjZXMudjEuUGxhY2VzLlNlYXJjaE5lYXJieRACGAQgAA,shopping_mall;point_of_interest;establishment,shopping_mall,Kampong Cham
ChIJCTwh1BR3DDER9UKvAkdX2s8,ស៊ាងហួ​ លក់គ្រឿងក្រអូប​ ផ្សារកញ្ជ្រៀច,urban,shopping_mall,Shopping Mall,shopping,11.690624999999999,105.5624697,"District, Kanhchriech District, កម្ពុជា, ក, Cambodia",4.3,6,,OPERATIONAL,,https://maps.google.com/?cid=14977379473273340661&g_mp=Cilnb29nbGUubWFwcy5wbGFjZXMudjEuUGxhY2VzLlNlYXJjaE5lYXJieRACGAQgAA,shopping_mall;point_of_interest;establishment,shopping_mall,Kampong Cham
ChIJIfdSNn0LDDER9Em2WkxaCsE,ជំនោរតនា Online Shop,urban,shopping_mall,Shopping Mall,shopping,11.7080127,105.3586232,"314, Cambodia",3.6,5,,OPERATIONAL,,https://maps.google.com/?cid=13910029683073108468&g_mp=Cilnb29nbGUubWFwcy5wbGFjZXMudjEuUGxhY2VzLlNlYXJjaE5lYXJieRACGAQgAA,shopping_mall;point_of_interest;establishment,shopping_mall,Kampong Cham
ChIJZflU9pHzDDER-8R65zFmCs0,ស្វាយពពាស,urban,shopping_mall,Shopping Mall,shopping,12.037558599999999,105.8886772,"2VQQ+2FF, Khum Trapeang Pring, Cambodia",2.8,12,,OPERATIONAL,,https://maps.google.com/?cid=14774733892065346811&g_mp=Cilnb29nbGUubWFwcy5wbGFjZXMudjEuUGxhY2VzLlNlYXJjaE5lYXJieRACGAQgAA,shopping_mall;point_of_interest;establishment,shopping_mall,Kampong Cham
ChIJLaPrIup9DDERwqc4icJqusM,ធឿន ណាគ្រី លក់ទំនិញគ្រប់មុខ,urban,shopping_mall,Shopping Mall,shopping,11.7447739,105.70266219999999,"PPV3+W33, Cambodia",5,3,,OPERATIONAL,,https://maps.google.com/?cid=14103702566822520770&g_mp=Cilnb29nbGUubWFwcy5wbGFjZXMudjEuUGxhY2VzLlNlYXJjaE5lYXJieRACGAQgAA,shopping_mall;point_of_interest;establishment,shopping_mall,Kampong Cham
ChIJgyrWy2FrDDERFUp7nqtV2n8,LBN Mart,urban,shopping_mall,Shopping Mall,shopping,11.9897352,105.46662339999999,"XFQ8+VJX, Unnamed Road, Krong Kampong Cham, Cambodia",,,,OPERATIONAL,,https://maps.google.com/?cid=9212770183326419477&g_mp=Cilnb29nbGUubWFwcy5wbGFjZXMudjEuUGxhY2VzLlNlYXJjaE5lYXJieRACGAQgAA,shopping_mall;point_of_interest;establishment,shopping_mall,Kampong Cham
ChIJ2Vv3vmizDTER7wKqD7F3UPU,ស្រីកែវ Mart,urban,shopping_mall,Shopping Mall,shopping,12.3619641,105.58835979999999,"បែកអន្លូង, ផ្សាបែកអន្លូង, Cambodia",5,8,,OPERATIONAL,,https://maps.google.com/?cid=17676760139784913647&g_mp=Cilnb29nbGUubWFwcy5wbGFjZXMudjEuUGxhY2VzLlNlYXJjaE5lYXJieRACGAQgAA,shopping_mall;clothing_store;store;point_of_interest;establishment,shopping_mall,Kampong Cham
ChIJd3w56p1rDDERtpS73RlBXL8,ម៉េង រតន:,urban,shopping_mall,Shopping Mall,shopping,11.970419699999999,105.47732239999999,"ផ្សាទន្លេបិទ, Tonle Bet, Cambodia",4.6,7,,OPERATIONAL,,https://maps.google.com/?cid=13788967738451662006&g_mp=Cilnb29nbGUubWFwcy5wbGFjZXMudjEuUGxhY2VzLlNlYXJjaE5lYXJieRACGAQgAA,shopping_mall;pharmacy;health;store;point_of_interest;establishment,shopping_mall,Kampong Cham
ChIJscNvMiuzDTERSKtfDqU8kEI,សប្បាយទិញ5000៛​ សាខាបែក​អន្លូង,urban,shopping_mall,Shopping Mall,shopping,12.361877100000001,105.5874489,"No street, 03157, Cambodia",,,,OPERATIONAL,https://www.facebook.com/share/16MmJSo3yG/?mibextid=wwXIfr,https://maps.google.com/?cid=4796400282757999432&g_mp=Cilnb29nbGUubWFwcy5wbGFjZXMudjEuUGxhY2VzLlNlYXJjaE5lYXJieRACGAQgAA,shopping_mall;point_of_interest;establishment,shopping_mall,Kampong Cham
ChIJdYG2Jrp1DDERU1bodl24Tdk,ហាងចាប់ហួយ លីម​ ឆុនអំពិលក្រៅ,urban,shopping_mall,Shopping Mall,shopping,11.7325427,105.4649776,"PFM7+2X9, Lngeun, Cambodia",5,1,,OPERATIONAL,,https://maps.google.com/?cid=15658374191003489875&g_mp=Cilnb29nbGUubWFwcy5wbGFjZXMudjEuUGxhY2VzLlNlYXJjaE5lYXJieRACGAQgAA,shopping_mall;point_of_interest;establishment,shopping_mall,Kampong Cham
ChIJNSCutlkpDDERQ2rIKfOiusU,ZTO Express តាំង​គោក​,urban,shopping_mall,Shopping Mall,shopping,12.245487,105.1235842,"64WF+5CW, NR6, ឃុំ សូយោង, Cambodia",4.3,6,,OPERATIONAL,,https://maps.google.com/?cid=14247879536401738307&g_mp=Cilnb29nbGUubWFwcy5wbGFjZXMudjEuUGxhY2VzLlNlYXJjaE5lYXJieRACGAQgAA,shopping_mall;point_of_interest;establishment,shopping_mall,Kampong Cham
ChIJ73tyQwBHDDERKPCka7z6Bsw,ទំនប់កែប្រែ,attraction,tourist_attraction,Tourist Attraction,,12.1426746,105.4307039,"4CVJ+37, Phumi Kriel Thmei, Cambodia",3.7,3,,OPERATIONAL,,https://maps.google.com/?cid=14701713720764330024&g_mp=Cilnb29nbGUubWFwcy5wbGFjZXMudjEuUGxhY2VzLlNlYXJjaE5lYXJieRACGAQgAA,tourist_attraction;point_of_interest;establishment,tourist_attraction,Phnom Pros / Phnom Srei
ChIJSS2FSQA5DDER4J0c0j_HySk,ទឹកធ្លាក់,attraction,tourist_attraction,Tourist Attraction,,12.1073056,105.3773155,"494G+WWG, Cambodia",3.3,3,,OPERATIONAL,,https://maps.google.com/?cid=3011156902795845088&g_mp=Cilnb29nbGUubWFwcy5wbGFjZXMudjEuUGxhY2VzLlNlYXJjaE5lYXJieRACGAQgAA,tourist_attraction;point_of_interest;establishment,tourist_attraction,Phnom Pros / Phnom Srei
ChIJ2SI2SdxrDDERZL2mxayss68,កោះគល់,attraction,tourist_attraction,Tourist Attraction,,11.9380683,105.41029999999999,"WCQ6+64, Krong Kampong Cham, Cambodia",5,2,,OPERATIONAL,,https://maps.google.com/?cid=12660652835518987620&g_mp=Cilnb29nbGUubWFwcy5wbGFjZXMudjEuUGxhY2VzLlNlYXJjaE5lYXJieRACGAQgAA,tourist_attraction;point_of_interest;establishment,tourist_attraction,Phnom Pros / Phnom Srei
ChIJC8TrMwBrDDERKF6_M9nHgqo,1.79 Monument,attraction,tourist_attraction,Tourist Attraction,,11.999198,105.45399309999999,"XFX3+MHH, Krong Kampong Cham, Cambodia",5,4,,OPERATIONAL,,https://maps.google.com/?cid=12286602469110144552&g_mp=Cilnb29nbGUubWFwcy5wbGFjZXMudjEuUGxhY2VzLlNlYXJjaE5lYXJieRACGAQgAA,tourist_attraction;point_of_interest;establishment,tourist_attraction,Phnom Pros / Phnom Srei
ChIJ51kPAgBrDDERWnBZHG5zegU,Ticket office,attraction,tourist_attraction,Tourist Attraction,,11.9787907,105.46135679999999,"240 Preah Sihanouk, Kampong Cham, Cambodia",5,2,,OPERATIONAL,,https://maps.google.com/?cid=394754834107560026&g_mp=Cilnb29nbGUubWFwcy5wbGFjZXMudjEuUGxhY2VzLlNlYXJjaE5lYXJieRACGAQgAA,tourist_attraction;point_of_interest;establishment,tourist_attraction,Phnom Pros / Phnom Srei
ChIJqQpcG_RBDDERQETdS8zPcvQ,ចំការឈូករត្ន័ជីរោទ៍2,attraction,tourist_attraction,Tourist Attraction,,12.014481799999999,105.4917007,"2F7R+QMW, Cambodia",3.4,7,,OPERATIONAL,,https://maps.google.com/?cid=17614369568952501312&g_mp=Cilnb29nbGUubWFwcy5wbGFjZXMudjEuUGxhY2VzLlNlYXJjaE5lYXJieRACGAQgAA,tourist_attraction;point_of_interest;establishment,tourist_attraction,Phnom Pros / Phnom Srei
ChIJJ9HuAQBBDDERehh9JTuJM38,សួនផ្កាយាយអូន,attraction,tourist_attraction,Tourist Attraction,,12.007451999999999,105.464574,"កញ្ចះស្នេហ៍មាត់បឹង, road, 222 N 116, Krong Kampong Cham, Cambodia",5,3,,OPERATIONAL,,https://maps.google.com/?cid=9165820553754122362&g_mp=Cilnb29nbGUubWFwcy5wbGFjZXMudjEuUGxhY2VzLlNlYXJjaE5lYXJieRACGAQgAA,tourist_attraction;point_of_interest;establishment,tourist_attraction,Phnom Pros / Phnom Srei
ChIJLUjhSAA7DDERaDF-Z5KD998,អណ្តូងអាង,attraction,tourist_attraction,Tourist Attraction,,12.098291800000002,105.3131185,"38X7+869, Prey Chhor, Cambodia",,,,OPERATIONAL,,https://maps.google.com/?cid=16138512454530249064&g_mp=Cilnb29nbGUubWFwcy5wbGFjZXMudjEuUGxhY2VzLlNlYXJjaE5lYXJieRACGAQgAA,tourist_attraction;point_of_interest;establishment,tourist_attraction,Phnom Pros / Phnom Srei
ChIJbQvtU8RrDDERFCSsMwQyaXI,Kampong Cham Stone Plate,attraction,tourist_attraction,Tourist Attraction,,11.9869988,105.46622169999999,"105 Preah Sihanouk, Kampong Cham, Cambodia",4.3,6,,OPERATIONAL,,https://maps.google.com/?cid=8244175586506581012&g_mp=Cilnb29nbGUubWFwcy5wbGFjZXMudjEuUGxhY2VzLlNlYXJjaE5lYXJieRACGAQgAA,tourist_attraction;point_of_interest;establishment,tourist_attraction,Phnom Pros / Phnom Srei
ChIJo8-03oVrDDERgrggG6bzj6M,ចំណតទូកទេសចរណ៍,attraction,tourist_attraction,Tourist Attraction,,11.986426699999999,105.46648169999999,"XFP8+GH9, Krong Kampong Cham, Cambodia",5,3,,OPERATIONAL,,https://maps.google.com/?cid=11785906644597127298&g_mp=Cilnb29nbGUubWFwcy5wbGFjZXMudjEuUGxhY2VzLlNlYXJjaE5lYXJieRACGAQgAA,tourist_attraction;point_of_interest;establishment,tourist_attraction,Phnom Pros / Phnom Srei
ChIJizwx8htrDDERRgbEmJ1S4wA,ចំការឈូករត្ន័ជីរោទ៍3,attraction,tourist_attraction,Tourist Attraction,,11.9962699,105.49050609999999,"XFWR+G62, Cambodia",5,3,,OPERATIONAL,,https://maps.google.com/?cid=63985656539645510&g_mp=Cilnb29nbGUubWFwcy5wbGFjZXMudjEuUGxhY2VzLlNlYXJjaE5lYXJieRACGAQgAA,tourist_attraction;point_of_interest;establishment,tourist_attraction,Phnom Pros / Phnom Srei
ChIJPYcXsftBDDER9RbbxsLD2-U,វត្តដណ្តូងស្ងួត,cultural,historical_landmark,Historical Landmark,,12.0395004,105.4227231,"2CQF+R35, Kampong Siem District, Cambodia",1.5,2,,OPERATIONAL,,https://maps.google.com/?cid=16563047295912449781&g_mp=Cilnb29nbGUubWFwcy5wbGFjZXMudjEuUGxhY2VzLlNlYXJjaE5lYXJieRACGAQgAA,historical_landmark;historical_place;point_of_interest;establishment,historical_landmark,Phnom Pros / Phnom Srei
ChIJDRBvXgA7DDERoIW4HDrCMds,ខេត្តកំពង់ចាម,cultural,historical_landmark,Historical Landmark,,12.098291800000002,105.3131185,"38X7+869, Prey Chhor, Cambodia",5,1,,OPERATIONAL,,https://maps.google.com/?cid=15794618923010786720&g_mp=Cilnb29nbGUubWFwcy5wbGFjZXMudjEuUGxhY2VzLlNlYXJjaE5lYXJieRACGAQgAA,historical_landmark;historical_place;point_of_interest;establishment,historical_landmark,Phnom Pros / Phnom Srei
ChIJ8XLoOi9rDDERZGjiiv58wVQ,Youhol Fishing For Catfish (Bait Room),cultural,historical_landmark,Historical Landmark,,11.995626399999999,105.4530728,"XFW3+764, ផ្លូវ​ជាតិលេខ​៧​ចាស់, Krong Kampong Cham, Cambodia",5,1,,OPERATIONAL,,https://maps.google.com/?cid=6107300002384734308&g_mp=Cilnb29nbGUubWFwcy5wbGFjZXMudjEuUGxhY2VzLlNlYXJjaE5lYXJieRACGAQgAA,historical_landmark;historical_place;point_of_interest;establishment,historical_landmark,Phnom Pros / Phnom Srei
ChIJe1-4kX87DDERxGpVVTUWNkg,ផ្ទះ កុងស្រ៊ុន,cultural,historical_landmark,Historical Landmark,,12.098291800000002,105.3131185,"38X7+869, Prey Chhor, Cambodia",,,,OPERATIONAL,,https://maps.google.com/?cid=5203370837793925828&g_mp=Cilnb29nbGUubWFwcy5wbGFjZXMudjEuUGxhY2VzLlNlYXJjaE5lYXJieRACGAQgAA,historical_landmark;historical_place;point_of_interest;establishment,historical_landmark,Phnom Pros / Phnom Srei
ChIJ6yCxRQBrDDERKUbFqtKkup4,រង្វង់មូលនាងគង្ហីងក្រុងកំពង់ចាម,nature,park,Park,walking,11.9798664,105.45495439999999,"XFH3+QXX, Krong Kampong Cham, Cambodia",,,,OPERATIONAL,,https://maps.google.com/?cid=11437635428375938601&g_mp=Cilnb29nbGUubWFwcy5wbGFjZXMudjEuUGxhY2VzLlNlYXJjaE5lYXJieRACGAQgAA,park;point_of_interest;establishment,park,Phnom Pros / Phnom Srei
ChIJOcqnaWI_DDERbbflaOxTNEc,Chhenglay,nature,park,Park,walking,12.055271200000002,105.3563108,"3944+4G3, រង្វង់មូលត្រើង, Cambodia",5,1,,OPERATIONAL,,https://maps.google.com/?cid=5130818150319109997&g_mp=Cilnb29nbGUubWFwcy5wbGFjZXMudjEuUGxhY2VzLlNlYXJjaE5lYXJieRACGAQgAA,park;point_of_interest;establishment,park,Phnom Pros / Phnom Srei
ChIJVVofo_JBDDERElk4jwUJPVc,រមណីដ្ឋាន សាងស្នេហ៍,nature,park,Park,walking,12.021294200000002,105.4430608,"2CCV+G6, Kampong Siem District, Cambodia",5,3,,OPERATIONAL,,https://maps.google.com/?cid=6286190574361401618&g_mp=Cilnb29nbGUubWFwcy5wbGFjZXMudjEuUGxhY2VzLlNlYXJjaE5lYXJieRACGAQgAA,park;point_of_interest;establishment,park,Phnom Pros / Phnom Srei
ChIJU2w7eqxBDDERARTTK1vgkgY,កញ្ចះស្នេហ៍មាត់បឹង,nature,park,Park,walking,12.007686399999999,105.46512799999999,"road 222 N116, Krong Kampong Cham, Cambodia",4.7,3,,OPERATIONAL,,https://maps.google.com/?cid=473687593009222657&g_mp=Cilnb29nbGUubWFwcy5wbGFjZXMudjEuUGxhY2VzLlNlYXJjaE5lYXJieRACGAQgAA,park;point_of_interest;establishment,park,Phnom Pros / Phnom Srei
ChIJg1NH2Uc_DDERKXIQDaKf5lo,ផ្ទះលោកគ្រូសែ,nature,park,Park,walking,12.0542118,105.3431123,"383V+M6Q, Cambodia",5,2,,OPERATIONAL,,https://maps.google.com/?cid=6550098226409665065&g_mp=Cilnb29nbGUubWFwcy5wbGFjZXMudjEuUGxhY2VzLlNlYXJjaE5lYXJieRACGAQgAA,park;point_of_interest;establishment,park,Phnom Pros / Phnom Srei
ChIJ4-h8LzxHDDERPKZ0LajSrMk,អាងស្តុកទឹក,nature,park,Park,walking,12.110075,105.4366064,"4C6P+2JH, Phumi Kriel Thmei, Cambodia",,,,OPERATIONAL,,https://maps.google.com/?cid=14532221717376706108&g_mp=Cilnb29nbGUubWFwcy5wbGFjZXMudjEuUGxhY2VzLlNlYXJjaE5lYXJieRACGAQgAA,park;point_of_interest;establishment,park,Phnom Pros / Phnom Srei
ChIJ1_IOhPA_DDERmWp0-M_98P8,ដី​ចំការតាអឿនយាយអូន​,nature,park,Park,walking,12.0287688,105.4034674,"ភូមិត្រកួនឃុំក្រឡាស្រុកកំពង់សៀមខេត្តកំពង់ចាម, 2CH2+FWW, Kampong Siem District, Cambodia",5,1,,OPERATIONAL,,https://maps.google.com/?cid=18442519543750617753&g_mp=Cilnb29nbGUubWFwcy5wbGFjZXMudjEuUGxhY2VzLlNlYXJjaE5lYXJieRACGAQgAA,park;point_of_interest;establishment,park,Phnom Pros / Phnom Srei
ChIJtUmaTgBBDDERBeSQxP7ozcA,ស្រះតាតោ,nature,park,Park,walking,12.0082311,105.4243718,"2C5F+7P, Kampong Siem District, Cambodia",5,2,,OPERATIONAL,,https://maps.google.com/?cid=13893016606425015301&g_mp=Cilnb29nbGUubWFwcy5wbGFjZXMudjEuUGxhY2VzLlNlYXJjaE5lYXJieRACGAQgAA,park;point_of_interest;establishment,park,Phnom Pros / Phnom Srei
ChIJReO2oJxrDDERPQRM5V5kxJY,حديقة تذكارية,nature,park,Park,walking,11.995671999999999,105.45948059999999,XFW5+7Q9، XFW5+8M3،، كامبونغ تشام،، Cambodia,,,,OPERATIONAL,,https://maps.google.com/?cid=10863918559861146685&g_mp=Cilnb29nbGUubWFwcy5wbGFjZXMudjEuUGxhY2VzLlNlYXJjaE5lYXJieRACGAQgAA,park;point_of_interest;establishment,park,Phnom Pros / Phnom Srei
ChIJ9xJYIABrDDERH-feb4wMMTw,Thy vy,nature,park,Park,walking,11.9933809,105.44934190000001,"XCVX+9P4, Krong Kampong Cham, Cambodia",,,,OPERATIONAL,,https://maps.google.com/?cid=4337261713446332191&g_mp=Cilnb29nbGUubWFwcy5wbGFjZXMudjEuUGxhY2VzLlNlYXJjaE5lYXJieRACGAQgAA,park;point_of_interest;establishment,park,Phnom Pros / Phnom Srei
ChIJZXUJUgA7DDERjFd2mbTjYSQ,ពេទ្យ,nature,park,Park,walking,12.098291800000002,105.3131185,"38X7+869, Prey Chhor, Cambodia",,,,OPERATIONAL,,https://maps.google.com/?cid=2621626822914627468&g_mp=Cilnb29nbGUubWFwcy5wbGFjZXMudjEuUGxhY2VzLlNlYXJjaE5lYXJieRACGAQgAA,park;point_of_interest;establishment,park,Phnom Pros / Phnom Srei
ChIJw4X6DABBDDERuoc-EA8B8N0,ដីលំហែ គេហ៍ ពង្ស,nature,park,Park,walking,12.0165557,105.44208449999999,"2C8R+JRG, Kampong Siem District, Cambodia",5,2,,OPERATIONAL,,https://maps.google.com/?cid=15992283441001301946&g_mp=Cilnb29nbGUubWFwcy5wbGFjZXMudjEuUGxhY2VzLlNlYXJjaE5lYXJieRACGAQgAA,park;point_of_interest;establishment,park,Phnom Pros / Phnom Srei
ChIJAQAA53tqDDERoemRzqT7az8,Children Park,nature,park,Park,walking,11.9951834,105.4608123,"XFW6+38F, Preah Kosamak Nearyroth, Krong Kampong Cham, Cambodia",,,,OPERATIONAL,,https://maps.google.com/?cid=4570022932156377505&g_mp=Cilnb29nbGUubWFwcy5wbGFjZXMudjEuUGxhY2VzLlNlYXJjaE5lYXJieRACGAQgAA,park;point_of_interest;establishment,park,Phnom Pros / Phnom Srei
ChIJLSYDEwBBDDERvMnGMSJpNb8,ភូមិកំចែងមារ,nature,park,Park,walking,12.0811389,105.4843611,"3FJM+FP, Phumi Kriel Thmei, Cambodia",,,,OPERATIONAL,,https://maps.google.com/?cid=13778034230594816444&g_mp=Cilnb29nbGUubWFwcy5wbGFjZXMudjEuUGxhY2VzLlNlYXJjaE5lYXJieRACGAQgAA,park;point_of_interest;establishment,park,Phnom Pros / Phnom Srei
ChIJPWpUGwBBDDERMA4lhOUrxlo,ផ្ទះចំការ លំហែ,nature,park,Park,walking,12.008904300000001,105.4530504,"2F53+Q6C, Krong Kampong Cham, Cambodia",,,,OPERATIONAL,,https://maps.google.com/?cid=6540963773566750256&g_mp=Cilnb29nbGUubWFwcy5wbGFjZXMudjEuUGxhY2VzLlNlYXJjaE5lYXJieRACGAQgAA,park;point_of_interest;establishment,park,Phnom Pros / Phnom Srei
ChIJM0QkQgBBDDERsXm9jx3vISc,ចុងថ្នល់ទី2,nature,park,Park,walking,12.0107625,105.46795309999999,"2F69+854 ភូមិចុងថ្នល់ទី2, Krong Kampong Cham, Cambodia",,,,OPERATIONAL,,https://maps.google.com/?cid=2819797751955290545&g_mp=Cilnb29nbGUubWFwcy5wbGFjZXMudjEuUGxhY2VzLlNlYXJjaE5lYXJieRACGAQgAA,park;point_of_interest;establishment,park,Phnom Pros / Phnom Srei
ChIJOSKHVAA5DDER8lGBHMVkj3Y,Tuol Preah Nokor,cultural,hindu_temple,Hindu Temple,sightseeing,12.098025199999999,105.4046061,"3CX3+6R9, Cambodia",,,,OPERATIONAL,,https://maps.google.com/?cid=8543157815894692338&g_mp=Cilnb29nbGUubWFwcy5wbGFjZXMudjEuUGxhY2VzLlNlYXJjaE5lYXJieRACGAQgAA,hindu_temple;place_of_worship;association_or_organization;point_of_interest;establishment,hindu_temple,Phnom Pros / Phnom Srei
ChIJn5POHgAVDDER5ZlnRbyJw7o,Tuol Preah Theat,cultural,hindu_temple,Hindu Temple,sightseeing,11.994494,105.3687777,"X9V9+QGR, Cambodia",,,,OPERATIONAL,,https://maps.google.com/?cid=13457751553224448485&g_mp=Cilnb29nbGUubWFwcy5wbGFjZXMudjEuUGxhY2VzLlNlYXJjaE5lYXJieRACGAQgAA,hindu_temple;place_of_worship;association_or_organization;point_of_interest;establishment,hindu_temple,Phnom Pros / Phnom Srei
ChIJF0I9TKFFDDERM7sWW9jCWYQ,Kok Lvea Temple,cultural,hindu_temple,Hindu Temple,sightseeing,12.1400717,105.5265008,"4GRG+2JC, Krong Kampong Cham, Cambodia",4.5,2,,OPERATIONAL,,https://maps.google.com/?cid=9536867920430676787&g_mp=Cilnb29nbGUubWFwcy5wbGFjZXMudjEuUGxhY2VzLlNlYXJjaE5lYXJieRACGAQgAA,hindu_temple;place_of_worship;association_or_organization;point_of_interest;establishment,hindu_temple,Phnom Pros / Phnom Srei
ChIJXYD0SFlBDDERxJy-ork0qCo,Kien Chrey Krao Pagoda,cultural,buddhist_temple,Buddhist Temple,sightseeing,12.0719304,105.4959476,"PR222, Cambodia",4.2,13,,OPERATIONAL,,https://maps.google.com/?cid=3073764717584358596&g_mp=Cilnb29nbGUubWFwcy5wbGFjZXMudjEuUGxhY2VzLlNlYXJjaE5lYXJieRACGAQgAA,buddhist_temple;place_of_worship;point_of_interest;association_or_organization;establishment,buddhist_temple,Phnom Pros / Phnom Srei
ChIJnfEB1dI9DDER0t9kzwnrEuU,Wat Mien,cultural,buddhist_temple,Buddhist Temple,sightseeing,12.055708599999999,105.30517619999999,"NR7, Cambodia",4.5,19,,OPERATIONAL,,https://maps.google.com/?cid=16506514011633016786&g_mp=Cilnb29nbGUubWFwcy5wbGFjZXMudjEuUGxhY2VzLlNlYXJjaE5lYXJieRACGAQgAA,buddhist_temple;place_of_worship;point_of_interest;association_or_organization;establishment,buddhist_temple,Phnom Pros / Phnom Srei
ChIJiwCgac9BDDERHmIKoMVUFSI,Thmor Korl Monastery,cultural,buddhist_temple,Buddhist Temple,sightseeing,12.0161146,105.46438339999999,"2F87+CQR, Krong Kampong Cham, Cambodia",4.2,13,,OPERATIONAL,,https://maps.google.com/?cid=2455962379570799134&g_mp=Cilnb29nbGUubWFwcy5wbGFjZXMudjEuUGxhY2VzLlNlYXJjaE5lYXJieRACGAQgAA,buddhist_temple;place_of_worship;point_of_interest;association_or_organization;establishment,buddhist_temple,Phnom Pros / Phnom Srei
ChIJyZnUF1ZADDERenVRk6EDyqs,Wat Phnom Keo Romoul,cultural,buddhist_temple,Buddhist Temple,sightseeing,12.0455484,105.44642449999999,"2CWW+6H7, Krong Kampong Cham, Cambodia",4.3,12,,OPERATIONAL,https://www.facebook.com/profile.php?id=100063213790678&mibextid=LQQJ4d,https://maps.google.com/?cid=12378710518277436794&g_mp=Cilnb29nbGUubWFwcy5wbGFjZXMudjEuUGxhY2VzLlNlYXJjaE5lYXJieRACGAQgAA,buddhist_temple;place_of_worship;point_of_interest;association_or_organization;establishment,buddhist_temple,Phnom Pros / Phnom Srei
ChIJ01FUKDc5DDER-Rr2tqCRz9M,Wat Mongkol Selaram (Rolous Meas),cultural,buddhist_temple,Buddhist Temple,sightseeing,12.1051656,105.3418279,"71, Cambodia",3.7,9,,OPERATIONAL,,https://maps.google.com/?cid=15262577781632277241&g_mp=Cilnb29nbGUubWFwcy5wbGFjZXMudjEuUGxhY2VzLlNlYXJjaE5lYXJieRACGAQgAA,buddhist_temple;place_of_worship;point_of_interest;association_or_organization;establishment,buddhist_temple,Phnom Pros / Phnom Srei
ChIJi021rBprDDER_Zrmj7viXME,Wat Nokor,cultural,buddhist_temple,Buddhist Temple,sightseeing,12.000031,105.4397839,"2C2Q+2W7, Unnamed Road, Kampong Siem District, Cambodia",4.2,35,,OPERATIONAL,,https://maps.google.com/?cid=13933260642378488573&g_mp=Cilnb29nbGUubWFwcy5wbGFjZXMudjEuUGxhY2VzLlNlYXJjaE5lYXJieRACGAQgAA,buddhist_temple;place_of_worship;point_of_interest;association_or_organization;establishment,buddhist_temple,Phnom Pros / Phnom Srei
ChIJ4f20a-lrDDER2lX7gu9XWi0,Wat Sereisakor Koh Kampong Trom,cultural,buddhist_temple,Buddhist Temple,sightseeing,11.954121,105.4398597,"Unnamed Road, XC3Q+JWX, Krong Kampong Cham, Cambodia",4.2,22,,OPERATIONAL,,https://maps.google.com/?cid=3268021165817026010&g_mp=Cilnb29nbGUubWFwcy5wbGFjZXMudjEuUGxhY2VzLlNlYXJjaE5lYXJieRACGAQgAA,buddhist_temple;place_of_worship;point_of_interest;association_or_organization;establishment,buddhist_temple,Phnom Pros / Phnom Srei
ChIJwU4ogkRrDDERmDS0-ZxKuQE,Wat O Chleung,cultural,buddhist_temple,Buddhist Temple,sightseeing,11.9553125,105.4159375,"Krong Kampong Cham, Cambodia",3.2,9,,OPERATIONAL,,https://maps.google.com/?cid=124212502794089624&g_mp=Cilnb29nbGUubWFwcy5wbGFjZXMudjEuUGxhY2VzLlNlYXJjaE5lYXJieRACGAQgAA,buddhist_temple;place_of_worship;point_of_interest;association_or_organization;establishment,buddhist_temple,Phnom Pros / Phnom Srei
ChIJDVFqBd9qDDERh6lIH0gc6TE,Tameang Pagoda,cultural,buddhist_temple,Buddhist Temple,sightseeing,11.960977399999999,105.4266782,"XC6G+9MV, ភូមិតាមាង, Cambodia",4.3,7,,OPERATIONAL,,https://maps.google.com/?cid=3596436873520130439&g_mp=Cilnb29nbGUubWFwcy5wbGFjZXMudjEuUGxhY2VzLlNlYXJjaE5lYXJieRACGAQgAA,buddhist_temple;place_of_worship;point_of_interest;association_or_organization;establishment,buddhist_temple,Phnom Pros / Phnom Srei
ChIJfULoGNM_DDERUlMTvLvRTa4,វត្តពោធិមង្គលឧត្តម ក្រឡា (Wat Por Mongkul Udom Krala),cultural,buddhist_temple,Buddhist Temple,sightseeing,12.0173849,105.4010998,"2C82+WC, Kampong Siem District, Cambodia",3,1,,OPERATIONAL,,https://maps.google.com/?cid=12559925540050654034&g_mp=Cilnb29nbGUubWFwcy5wbGFjZXMudjEuUGxhY2VzLlNlYXJjaE5lYXJieRACGAQgAA,buddhist_temple;place_of_worship;point_of_interest;association_or_organization;establishment,buddhist_temple,Phnom Pros / Phnom Srei
ChIJUd-UFiFBDDERVQGTaQVTJkA,Wat Trean,cultural,buddhist_temple,Buddhist Temple,sightseeing,12.0869436,105.4454337,"3CPW+Q5F, Unnamed Road, Phumi Kriel Thmei, Cambodia",4.5,2,,OPERATIONAL,,https://maps.google.com/?cid=4622473350253576533&g_mp=Cilnb29nbGUubWFwcy5wbGFjZXMudjEuUGxhY2VzLlNlYXJjaE5lYXJieRACGAQgAA,buddhist_temple;place_of_worship;point_of_interest;association_or_organization;establishment,buddhist_temple,Phnom Pros / Phnom Srei
ChIJj8TPxcU9DDERy-APvxJL8G0,Mongkol Sattharam Pagoda (Wat Khlouy),cultural,buddhist_temple,Buddhist Temple,sightseeing,12.053938299999999,105.2993132,"373X+HPG, NR7, Cambodia",4.3,17,,OPERATIONAL,,https://maps.google.com/?cid=7921914288431685835&g_mp=Cilnb29nbGUubWFwcy5wbGFjZXMudjEuUGxhY2VzLlNlYXJjaE5lYXJieRACGAQgAA,buddhist_temple;place_of_worship;point_of_interest;association_or_organization;establishment,buddhist_temple,Phnom Pros / Phnom Srei
ChIJW1tIN2xADDER6GtGvczbO_g,Wat Phnom Srey,cultural,buddhist_temple,Buddhist Temple,sightseeing,12.0300657,105.422101,"2CJC+2RH, Kampong Siem District, Cambodia",4.2,10,,OPERATIONAL,,https://maps.google.com/?cid=17887132017427377128&g_mp=Cilnb29nbGUubWFwcy5wbGFjZXMudjEuUGxhY2VzLlNlYXJjaE5lYXJieRACGAQgAA,buddhist_temple;place_of_worship;point_of_interest;association_or_organization;establishment,buddhist_temple,Phnom Pros / Phnom Srei
ChIJyz69OiE_DDERwntSyGIpj2c,វត្តពោធិរង្សី ព្រៃចក្រី,cultural,buddhist_temple,Buddhist Temple,sightseeing,12.0779908,105.36377089999999,"39H7+5GR, Prey Chakrei, Cambodia",4.7,9,,OPERATIONAL,,https://maps.google.com/?cid=7462228611820583874&g_mp=Cilnb29nbGUubWFwcy5wbGFjZXMudjEuUGxhY2VzLlNlYXJjaE5lYXJieRACGAQgAA,buddhist_temple;place_of_worship;point_of_interest;association_or_organization;establishment,buddhist_temple,Phnom Pros / Phnom Srei
