google_place_id,name,category,primary_type,primary_type_name,activities,lat,lon,address,rating,rating_count,price_level,business_status,website,google_maps_url,all_types,found_via_category,found_via_cell
ChIJkYnca71dcjERQwcghDV9ilY,Bousra Waterfall,nature,national_park,National Park,walking,12.566545399999999,107.418987,"HC89+JH9, Pech Chreada, Cambodia",4.5,1718,,OPERATIONAL,,https://maps.google.com/?cid=6235934302851303235&g_mp=Cilnb29nbGUubWFwcy5wbGFjZXMudjEuUGxhY2VzLlNlYXJjaE5lYXJieRACGAQgAA,national_park;tourist_attraction;park;point_of_interest;establishment,tourist_attraction,Sen Monorom
ChIJobrQjuPxcjERPLxN2UTXPAQ,Kouprey Roundabout,attraction,tourist_attraction,Tourist Attraction,,12.4601371,107.1857359,"F56P+375, 141, Senmonorom, Cambodia",4.3,498,,OPERATIONAL,,https://maps.google.com/?cid=305355565457849404&g_mp=Cilnb29nbGUubWFwcy5wbGFjZXMudjEuUGxhY2VzLlNlYXJjaE5lYXJieRACGAQgAA,tourist_attraction;point_of_interest;establishment,tourist_attraction,Sen Monorom
ChIJEWEss8_wcjEREfe0jMXXOUU,Mondulkiri Project Elephant Sanctuary,attraction,tourist_attraction,Tourist Attraction,,12.4556875,107.18906249999999,"F54Q+7JC, Senmonorom, Cambodia",4.7,583,,OPERATIONAL,http://www.mondulkiriproject.org/,https://maps.google.com/?cid=4988255305758734097&g_mp=Cilnb29nbGUubWFwcy5wbGFjZXMudjEuUGxhY2VzLlNlYXJjaE5lYXJieRACGAQgAA,tourist_attraction;non_profit_organization;association_or_organization;point_of_interest;establishment,tourist_attraction,Sen Monorom
ChIJM_68EABfcjERo1eA8qmKfEg,Chomkatea Mondolkiri,attraction,tourist_attraction,Tourist Attraction,,12.539283699999999,107.33001329999999,"G8QJ+P26, Sre Ambel, Cambodia",4.5,41,,OPERATIONAL,,https://maps.google.com/?cid=5223202130365536163&g_mp=Cilnb29nbGUubWFwcy5wbGFjZXMudjEuUGxhY2VzLlNlYXJjaE5lYXJieRACGAQgAA,tourist_attraction;point_of_interest;establishment,tourist_attraction,Sen Monorom
ChIJkcCmMhRXcjER0jwr59VphL8,Andung Sneh,attraction,tourist_attraction,Tourist Attraction,,12.3538148,107.31960579999999,"9839+GRH, Cambodia",4.5,22,,OPERATIONAL,,https://maps.google.com/?cid=13800271525597363410&g_mp=Cilnb29nbGUubWFwcy5wbGFjZXMudjEuUGxhY2VzLlNlYXJjaE5lYXJieRACGAQgAA,tourist_attraction;point_of_interest;establishment,tourist_attraction,Sen Monorom
ChIJd4ccrM_wcjERIUujEh4kemk,ELIE & The Elephant Valley Project,nature,non_profit_organization,Non-Profit Organization,walking,12.451713999999999,107.1781999,"ELIE & the Elephant Valley Project Office, សែនមនោរម្យ, Cambodia",4.7,374,,OPERATIONAL,http://www.elephantvalleyproject.org/,https://maps.google.com/?cid=7600427032721443617&g_mp=Cilnb29nbGUubWFwcy5wbGFjZXMudjEuUGxhY2VzLlNlYXJjaE5lYXJieRACGAQgAA,non_profit_organization;wildlife_refuge;tour_agency;tourist_attraction;travel_agency;park;association_or_organization;point_of_interest;service;establishment,tourist_attraction,Sen Monorom
ChIJD09kZ-JXcjER6hLTh6FWrac,ភ្នំអណ្តូងស្នេហ៍,attraction,tourist_attraction,Tourist Attraction,,12.365591199999999,107.3101914,"9886+63, Senmonorom, Cambodia",4.4,54,,OPERATIONAL,,https://maps.google.com/?cid=12082408627073389290&g_mp=Cilnb29nbGUubWFwcy5wbGFjZXMudjEuUGxhY2VzLlNlYXJjaE5lYXJieRACGAQgAA,tourist_attraction;point_of_interest;establishment,tourist_attraction,Sen Monorom
ChIJpQRaXgBXcjER1Z5u77g12sI,ផ្លូវអក្សរ Sonyhill,attraction,tourist_attraction,Tourist Attraction,,12.3631218,107.3091232,"9875+6J, Senmonorom, Cambodia",4.9,12,,OPERATIONAL,,https://maps.google.com/?cid=14040593856688201429&g_mp=Cilnb29nbGUubWFwcy5wbGFjZXMudjEuUGxhY2VzLlNlYXJjaE5lYXJieRACGAQgAA,tourist_attraction;point_of_interest;establishment,tourist_attraction,Sen Monorom
ChIJSV7eSgD7cjERSjKODlKXsN0,ទំនប់អូរតេធិបតី,attraction,tourist_attraction,Tourist Attraction,,12.3718967,107.18431369999999,"95CM+QP, Senmonorom, Cambodia",4.1,21,,OPERATIONAL,,https://maps.google.com/?cid=15974434256970461770&g_mp=Cilnb29nbGUubWFwcy5wbGFjZXMudjEuUGxhY2VzLlNlYXJjaE5lYXJieRACGAQgAA,tourist_attraction;point_of_interest;establishment,tourist_attraction,Sen Monorom
ChIJQ5tqtvL3cjERuQyvzkYbwYk,Junction to Busra Waterfall,attraction,tourist_attraction,Tourist Attraction,,12.4968452,107.24800809999999,"F6WX+P6J, 141, Senmonorom, Cambodia",4.1,36,,OPERATIONAL,,https://maps.google.com/?cid=9926245044630523065&g_mp=Cilnb29nbGUubWFwcy5wbGFjZXMudjEuUGxhY2VzLlNlYXJjaE5lYXJieRACGAQgAA,tourist_attraction;point_of_interest;establishment,tourist_attraction,Sen Monorom
ChIJ87tWh8z7cjERET4f8A3TQ6M,Mondulkiri Elephant & Wildlife Sanctuary - L.E.A.F Cambodia,nature,tourist_information_center,Tourist Information Center,walking;wildlife,12.455151899999999,107.2048857,"Nature Lodge Resort, Senmonorom, Cambodia",3.9,183,,OPERATIONAL,http://www.mondulkirisanctuary.org/,https://maps.google.com/?cid=11764478708438482449&g_mp=Cilnb29nbGUubWFwcy5wbGFjZXMudjEuUGxhY2VzLlNlYXJjaE5lYXJieRACGAQgAA,tourist_information_center;tour_agency;wildlife_park;zoo;tourist_attraction;travel_agency;park;point_of_interest;service;establishment,tourist_attraction,Sen Monorom
ChIJP96qW-vxcjERSvvzmiS5b3U,Mondolkiri City Centre,attraction,tourist_attraction,Tourist Attraction,,12.461229999999999,107.1867534,"F56P+HV7, Senmonorom, Cambodia",4.7,9,,OPERATIONAL,,https://maps.google.com/?cid=8462185791722093386&g_mp=Cilnb29nbGUubWFwcy5wbGFjZXMudjEuUGxhY2VzLlNlYXJjaE5lYXJieRACGAQgAA,tourist_attraction;point_of_interest;establishment,tourist_attraction,Sen Monorom
ChIJUbvFB_j6cjER_ySWkePTlog,Laeng Truk Waterfall,attraction,tourist_attraction,Tourist Attraction,,12.396713,107.14832100000001,"94WX+M8P, Senmonorom, Cambodia",4.5,37,,OPERATIONAL,,https://maps.google.com/?cid=9842287010018370815&g_mp=Cilnb29nbGUubWFwcy5wbGFjZXMudjEuUGxhY2VzLlNlYXJjaE5lYXJieRACGAQgAA,tourist_attraction;point_of_interest;establishment,tourist_attraction,Sen Monorom
ChIJuazwOgABczERaFhfD5RfIkc,Cây đa di sản,attraction,tourist_attraction,Tourist Attraction,,12.223369300000002,107.27329499999999,"67FF+88, Quang Truc, Lam Dong, Vietnam",4.6,30,,OPERATIONAL,,https://maps.google.com/?cid=5125764415418751080&g_mp=Cilnb29nbGUubWFwcy5wbGFjZXMudjEuUGxhY2VzLlNlYXJjaE5lYXJieRACGAQgAA,tourist_attraction;point_of_interest;establishment,tourist_attraction,Sen Monorom
ChIJ45FoHAD7cjER2PBrl5T1nKU,វាលស្មៅ អូររាំង,attraction,tourist_attraction,Tourist Attraction,,12.375134300000001,107.1290169,"94GH+3J, Senmonorom, Cambodia",5,3,,OPERATIONAL,,https://maps.google.com/?cid=11933683131169370328&g_mp=Cilnb29nbGUubWFwcy5wbGFjZXMudjEuUGxhY2VzLlNlYXJjaE5lYXJieRACGAQgAA,tourist_attraction;point_of_interest;establishment,tourist_attraction,Sen Monorom
ChIJ7UN9RgD5cjERvBV-g_f7f4I,កន្លែងថតរូបថ្ងៃលិច,attraction,tourist_attraction,Tourist Attraction,,12.4180625,107.28218749999999,"C79J+6V, Senmonorom, Cambodia",4.5,4,,OPERATIONAL,,https://maps.google.com/?cid=9403511587454457276&g_mp=Cilnb29nbGUubWFwcy5wbGFjZXMudjEuUGxhY2VzLlNlYXJjaE5lYXJieRACGAQgAA,tourist_attraction;point_of_interest;establishment,tourist_attraction,Sen Monorom
ChIJNZXbgjDlcjERGCBobAcdGXo,Kbal Preah Waterfall,attraction,tourist_attraction,Tourist Attraction,,12.430892300000002,107.0800428,"C3JJ+923, Senmonorom, Cambodia",4.1,21,,OPERATIONAL,,https://maps.google.com/?cid=8798095264765714456&g_mp=Cilnb29nbGUubWFwcy5wbGFjZXMudjEuUGxhY2VzLlNlYXJjaE5lYXJieRACGAQgAA,tourist_attraction;point_of_interest;establishment,tourist_attraction,Sen Monorom
ChIJkf6D2IPxcjER0ELRcKUoYes,Jahoo,nature,tourist_attraction,Tourist Attraction,walking,12.3251999,107.06941479999999,"Commune O’Raing District, Cambodia",4.6,38,,OPERATIONAL,https://www.gibbon.life/,https://maps.google.com/?cid=16960882362681475792&g_mp=Cilnb29nbGUubWFwcy5wbGFjZXMudjEuUGxhY2VzLlNlYXJjaE5lYXJieRACGAQgAA,tourist_attraction;nature_preserve;park;point_of_interest;establishment,tourist_attraction,Sen Monorom
ChIJJbLURwDxcjERJgL6l_S1kFk,Laoka Waterfall,attraction,tourist_attraction,Tourist Attraction,,12.500499999999999,107.15299999999999,"G523+66, Senmonorom, Cambodia",4.6,9,,OPERATIONAL,,https://maps.google.com/?cid=6453858328148312614&g_mp=Cilnb29nbGUubWFwcy5wbGFjZXMudjEuUGxhY2VzLlNlYXJjaE5lYXJieRACGAQgAA,tourist_attraction;point_of_interest;establishment,tourist_attraction,Sen Monorom
ChIJoT-AJAD7cjERO-Qa8WEsjg8,ក្រុងសែនមនោរម្យសូមស្វាគមន៍,attraction,tourist_attraction,Tourist Attraction,,12.4148151,107.1865854,"C57P+WJG, Senmonorom, Cambodia",4,2,,OPERATIONAL,,https://maps.google.com/?cid=1120882156430353467&g_mp=Cilnb29nbGUubWFwcy5wbGFjZXMudjEuUGxhY2VzLlNlYXJjaE5lYXJieRACGAQgAA,tourist_attraction;point_of_interest;establishment,tourist_attraction,Sen Monorom
ChIJJT2cP8NTcjER84HuakAMwJw,Bia Henri Maitre,cultural,historical_landmark,Historical Landmark,,12.243943999999999,107.43610299999999,"6CVP+HCH, ĐT681, Tuy Đức, Lâm Đồng, Vietnam",4.3,49,,OPERATIONAL,,https://maps.google.com/?cid=11295041336256659955&g_mp=Cilnb29nbGUubWFwcy5wbGFjZXMudjEuUGxhY2VzLlNlYXJjaE5lYXJieRACGAQgAA,historical_landmark;historical_place;point_of_interest;establishment,historical_landmark,Sen Monorom
ChIJQ8VsCzWrczEROjIGtUsMHm4,Bu Prang Camp Special Forces,cultural,historical_landmark,Historical Landmark,,12.2475621,107.2978529,"67XX+24H, Quang Truc, Lam Dong, Vietnam",3.8,4,,OPERATIONAL,,https://maps.google.com/?cid=7934793112772555322&g_mp=Cilnb29nbGUubWFwcy5wbGFjZXMudjEuUGxhY2VzLlNlYXJjaE5lYXJieRACGAQgAA,historical_landmark;historical_place;point_of_interest;establishment,historical_landmark,Sen Monorom
ChIJFwwpWgBTcjER3ccDOcSd7KY,Cột mốc số 55,cultural,historical_landmark,Historical Landmark,,12.2444803,107.43479579999999,"6CVP+HCH, ĐT681, Tuy Đức, Lâm Đồng, Vietnam",4.9,17,,OPERATIONAL,,https://maps.google.com/?cid=12028162170895452125&g_mp=Cilnb29nbGUubWFwcy5wbGFjZXMudjEuUGxhY2VzLlNlYXJjaE5lYXJieRACGAQgAA,historical_landmark;historical_place;point_of_interest;establishment,historical_landmark,Sen Monorom
ChIJS9UQpSPxcjERj73jYIshZjM,Hill Top View Point,cultural,historical_landmark,Historical Landmark,,12.4806429,107.17590519999999,"F5JG+792, Senmonorom, Cambodia",4,18,,OPERATIONAL,,https://maps.google.com/?cid=3703684626068520335&g_mp=Cilnb29nbGUubWFwcy5wbGFjZXMudjEuUGxhY2VzLlNlYXJjaE5lYXJieRACGAQgAA,historical_landmark;historical_place;point_of_interest;establishment,historical_landmark,Sen Monorom
ChIJiVm4wUnxcjERyUH0QJrysNI,Viewpoint Senmonorum,cultural,historical_landmark,Historical Landmark,,12.472114999999999,107.1867089,"F5CP+RMW, Unnamed Road, Senmonorom, Cambodia",4.8,12,,OPERATIONAL,,https://maps.google.com/?cid=15181901088194576841&g_mp=Cilnb29nbGUubWFwcy5wbGFjZXMudjEuUGxhY2VzLlNlYXJjaE5lYXJieRACGAQgAA,historical_landmark;historical_place;point_of_interest;establishment,historical_landmark,Sen Monorom
ChIJ01CBpPnxcjERDip1zvrJNTE,Chainsaw Elephant,cultural,historical_landmark,Historical Landmark,,12.4567841,107.1816516,"F54J+FHJ, Senmonorom, Cambodia",4.9,11,,OPERATIONAL,,https://maps.google.com/?cid=3545962360666925582&g_mp=Cilnb29nbGUubWFwcy5wbGFjZXMudjEuUGxhY2VzLlNlYXJjaE5lYXJieRACGAQgAA,historical_landmark;historical_place;point_of_interest;establishment,historical_landmark,Sen Monorom
ChIJbSzz7BzxcjERW0_ZtGVPlfo,Statue of Pa Trang Leong,cultural,historical_landmark,Historical Landmark,,12.4694922,107.1928511,"F59V+Q4X, ផ្លូវ​បំបែកក្នុង​ភូមិចំការតែ, Senmonorom, Cambodia",4,8,,OPERATIONAL,,https://maps.google.com/?cid=18056425579256303451&g_mp=Cilnb29nbGUubWFwcy5wbGFjZXMudjEuUGxhY2VzLlNlYXJjaE5lYXJieRACGAQgAA,historical_landmark;historical_place;point_of_interest;establishment,historical_landmark,Sen Monorom
ChIJ24V5ZgBTcjERyJyTFC1zOEg,di tích lịch sử đường mòn Hồ Chí Minh (Tuy Đức),cultural,historical_landmark,Historical Landmark,,12.244565099999999,107.43611709999999,"6CVP+HCH, ĐT681, Tuy Đức, Lâm Đồng, Vietnam",4.3,3,,OPERATIONAL,,https://maps.google.com/?cid=5204036006882548936&g_mp=Cilnb29nbGUubWFwcy5wbGFjZXMudjEuUGxhY2VzLlNlYXJjaE5lYXJieRACGAQgAA,historical_landmark;historical_place;point_of_interest;establishment,historical_landmark,Sen Monorom
ChIJ6XKJ7i7xcjERwAQRY5O9NhE,រង្វង់មូលព្រះនរាយណ៍ មណ្ឌលគិរី,cultural,historical_landmark,Historical Landmark,,12.471319,107.18925399999999,"F5CQ+GM7, Senmonorom, Cambodia",5,3,,OPERATIONAL,,https://maps.google.com/?cid=1240387188107052224&g_mp=Cilnb29nbGUubWFwcy5wbGFjZXMudjEuUGxhY2VzLlNlYXJjaE5lYXJieRACGAQgAA,historical_landmark;historical_place;point_of_interest;establishment,historical_landmark,Sen Monorom
ChIJ218IYABTcjERgEZfa9dscMk,bia tưởng niệm Hồ Chí Minh,cultural,historical_landmark,Historical Landmark,,12.2453066,107.43634639999999,"6CVP+HCH, ĐT681, Tuy Đức, Lâm Đồng, Vietnam",4.1,7,,OPERATIONAL,,https://maps.google.com/?cid=14515221271490283136&g_mp=Cilnb29nbGUubWFwcy5wbGFjZXMudjEuUGxhY2VzLlNlYXJjaE5lYXJieRACGAQgAA,historical_landmark;historical_place;point_of_interest;establishment,historical_landmark,Sen Monorom
ChIJ1_ECYwDrcjER8oPhJSTiPJc,Phumi Tanglang (ភូមិតាំងឡាំង),cultural,historical_landmark,Historical Landmark,,12.5371632,106.9313827,"GWPJ+VH6, Cambodia",3,1,,OPERATIONAL,,https://maps.google.com/?cid=10897833843211994098&g_mp=Cilnb29nbGUubWFwcy5wbGFjZXMudjEuUGxhY2VzLlNlYXJjaE5lYXJieRACGAQgAA,historical_landmark;historical_place;point_of_interest;establishment,historical_landmark,Sen Monorom
ChIJ-a1bHQD9cjER73YmNw-uo_Y,ចំណាន ចំការទុរេន អូររាំង,cultural,historical_landmark,Historical Landmark,,12.321028,107.1495613,"84CX+CR, Ou Reang, Cambodia",,,,OPERATIONAL,,https://maps.google.com/?cid=17772239934907119343&g_mp=Cilnb29nbGUubWFwcy5wbGFjZXMudjEuUGxhY2VzLlNlYXJjaE5lYXJieRACGAQgAA,historical_landmark;historical_place;point_of_interest;establishment,historical_landmark,Sen Monorom
ChIJx_rvUwD_cjERfIHqghkLGHw,Cột mốc hiên giới,cultural,historical_landmark,Historical Landmark,,12.2954707,107.2309848,"76WJ+59Q, Bù Chap, Quảng Trực, Lâm Đồng, Vietnam",,,,OPERATIONAL,,https://maps.google.com/?cid=8941909264342614396&g_mp=Cilnb29nbGUubWFwcy5wbGFjZXMudjEuUGxhY2VzLlNlYXJjaE5lYXJieRACGAQgAA,historical_landmark;historical_place;point_of_interest;establishment,historical_landmark,Sen Monorom
ChIJ70NaRQBfcjERkczbd1aWi84,ដីចម្ការ ជាសំណាង (ភូមិស្រែអំពូម),cultural,historical_landmark,Historical Landmark,,12.544822,107.338521,"G8WQ+4QC, Senmonorom, Cambodia",5,1,,OPERATIONAL,,https://maps.google.com/?cid=14883154691698183313&g_mp=Cilnb29nbGUubWFwcy5wbGFjZXMudjEuUGxhY2VzLlNlYXJjaE5lYXJieRACGAQgAA,historical_landmark;historical_place;point_of_interest;establishment,historical_landmark,Sen Monorom
ChIJFZ5ECwBFcjERy13P58ALU_M,ដីចំការ,cultural,historical_landmark,Historical Landmark,,12.4078713,107.5095309,"CG55+4R, Cambodia",,,,OPERATIONAL,,https://maps.google.com/?cid=17533370697434226123&g_mp=Cilnb29nbGUubWFwcy5wbGFjZXMudjEuUGxhY2VzLlNlYXJjaE5lYXJieRACGAQgAA,historical_landmark;historical_place;point_of_interest;establishment,historical_landmark,Sen Monorom
ChIJbfRhyhn7cjERViBk5Xrfetc,Leng Ang Leng Khin Waterfall,nature,national_park,National Park,walking,12.3801264,107.1268028,"76, Cambodia",4.6,95,,OPERATIONAL,,https://maps.google.com/?cid=15526968384240754774&g_mp=Cilnb29nbGUubWFwcy5wbGFjZXMudjEuUGxhY2VzLlNlYXJjaE5lYXJieRACGAQgAA,national_park;park;point_of_interest;establishment,park,Sen Monorom
ChIJvd2O-CZDcjERXKpOUSuvN0A,Namlear Mountain,nature,national_park,National Park,walking,12.538696999999999,107.53549,"GGQP+F5, ពេជ្រាដា, Cambodia",4.7,98,,OPERATIONAL,,https://maps.google.com/?cid=4627359742729038428&g_mp=Cilnb29nbGUubWFwcy5wbGFjZXMudjEuUGxhY2VzLlNlYXJjaE5lYXJieRACGAQgAA,national_park;park;point_of_interest;establishment,park,Sen Monorom
ChIJ-fCOkjX3cjERRkVJ8kaOFoo,Nature Lodge Resort,nature,resort_hotel,Resort hotel,walking,12.455151899999999,107.2048857,"Nature Lodge Road (MK10), Chomka Tai village, Senmonorom 110101, Cambodia",4,389,,OPERATIONAL,https://naturelodgecambodia.com/,https://maps.google.com/?cid=9950296862085432646&g_mp=Cilnb29nbGUubWFwcy5wbGFjZXMudjEuUGxhY2VzLlNlYXJjaE5lYXJieRACGAQgAA,resort_hotel;nature_preserve;swimming_pool;park;hotel;lodging;sports_activity_location;point_of_interest;establishment,park,Sen Monorom
ChIJY8I4t_JXcjERqkeqoo7CV24,Chrey Thom Waterfall,nature,national_park,National Park,walking,12.4096674,107.3129216,"C857+V57, Senmonorom, Cambodia",4,103,,OPERATIONAL,,https://maps.google.com/?cid=7951037585016113066&g_mp=Cilnb29nbGUubWFwcy5wbGFjZXMudjEuUGxhY2VzLlNlYXJjaE5lYXJieRACGAQgAA,national_park;park;point_of_interest;establishment,park,Sen Monorom
ChIJr-z0vDlQcjERkmfjTuFfm7g,Phnom Namlear Wildlife Sanctuary,nature,wildlife_refuge,Wildlife Refuge,walking,12.3544313,107.46768610000001,Cambodia,4.4,144,,OPERATIONAL,,https://maps.google.com/?cid=13302331345664698258&g_mp=Cilnb29nbGUubWFwcy5wbGFjZXMudjEuUGxhY2VzLlNlYXJjaE5lYXJieRACGAQgAA,wildlife_refuge;park;point_of_interest;establishment,park,Sen Monorom
ChIJixcew3kFczER8Rrf_4v_F7U,Trạm Kiểm Lâm Số 1 - Rừng Bù Gia Mập,nature,national_park,National Park,walking,12.106534900000002,107.1562155,"4544+JF8, ĐT741, Bù Gia Mập, Đồng Nai, Vietnam",4.7,23,,OPERATIONAL,,https://maps.google.com/?cid=13049179422087650033&g_mp=Cilnb29nbGUubWFwcy5wbGFjZXMudjEuUGxhY2VzLlNlYXJjaE5lYXJieRACGAQgAA,national_park;park;point_of_interest;establishment,park,Sen Monorom
ChIJ9aHi0qxDcjERc1yRiMtE0dU,Phnom Nam Lyr Wildlife Sanctuary,nature,wildlife_refuge,Wildlife Refuge,walking,12.5374878,107.5351663,"GGPP+X3V, Pech Chreada, Cambodia",4.5,118,,OPERATIONAL,,https://maps.google.com/?cid=15407171441171455091&g_mp=Cilnb29nbGUubWFwcy5wbGFjZXMudjEuUGxhY2VzLlNlYXJjaE5lYXJieRACGAQgAA,wildlife_refuge;park;point_of_interest;establishment,park,Sen Monorom
ChIJUbs-lyDxcjERmt5MPtlDVMw,Sea Forest Resort-Mondulkiri,nature,national_park,National Park,walking,12.496550300000001,107.18163679999999,"Laoka Village, Sokhdom District, Senmonorom City, Mondulkiri province Senmonorom, F5WJ+JMC, City 11252, Cambodia",4.2,37,,OPERATIONAL,,https://maps.google.com/?cid=14723467682113183386&g_mp=Cilnb29nbGUubWFwcy5wbGFjZXMudjEuUGxhY2VzLlNlYXJjaE5lYXJieRACGAQgAA,national_park;park;point_of_interest;establishment,park,Sen Monorom
ChIJN1NnlXz1cjERAGUOSmkCQ6Y,ភ្នំបាយឆៅ,nature,national_park,National Park,walking,12.516247,107.25225800000001,"G782+FWR, NR76, Senmonorom, Cambodia",4.6,16,,OPERATIONAL,,https://maps.google.com/?cid=11980422084972930304&g_mp=Cilnb29nbGUubWFwcy5wbGFjZXMudjEuUGxhY2VzLlNlYXJjaE5lYXJieRACGAQgAA,national_park;park;point_of_interest;establishment,park,Sen Monorom
ChIJy8n_Ix-LcjERCX-XzDbqpAA,Mayura Wild Park,nature,park,Park,walking,12.629151199999999,107.2559146,"J7H4+M97, ពូជ្រៃ, Cambodia",4.5,11,,OPERATIONAL,,https://maps.google.com/?cid=46419417262161673&g_mp=Cilnb29nbGUubWFwcy5wbGFjZXMudjEuUGxhY2VzLlNlYXJjaE5lYXJieRACGAQgAA,park;point_of_interest;establishment,park,Sen Monorom
ChIJ64OOPQD7cjERzgipvsQtDwE,Romnea Waterfall,nature,national_park,National Park,walking,12.368912499999999,107.1941094,"959V+HJ9, Senmonorom, Cambodia",4.6,19,,OPERATIONAL,,https://maps.google.com/?cid=76330041724176590&g_mp=Cilnb29nbGUubWFwcy5wbGFjZXMudjEuUGxhY2VzLlNlYXJjaE5lYXJieRACGAQgAA,national_park;park;point_of_interest;establishment,park,Sen Monorom
ChIJ5WPS5voFczEROXReKKgHkAU,Cổng Barie Trạm 1,nature,national_park,National Park,walking,12.10766,107.154797,"4553+3W7, Bu Gia Map, Dong Nai, Vietnam",4.6,54,,OPERATIONAL,,https://maps.google.com/?cid=400828785649153081&g_mp=Cilnb29nbGUubWFwcy5wbGFjZXMudjEuUGxhY2VzLlNlYXJjaE5lYXJieRACGAQgAA,national_park;park;point_of_interest;establishment,park,Sen Monorom
ChIJFTRgLgBXcjER36ydoAztuw0,ភូមិដាក់ដាំ,nature,park,Park,walking,12.392149,107.30368100000001,"98R3+VF, ក្រុងសែនមនោរម្យ, Cambodia",,,,OPERATIONAL,,https://maps.google.com/?cid=989645181628034271&g_mp=Cilnb29nbGUubWFwcy5wbGFjZXMudjEuUGxhY2VzLlNlYXJjaE5lYXJieRACGAQgAA,park;point_of_interest;establishment,park,Sen Monorom
ChIJk5KNswvxcjERgBPJ5UGOf1Y,Chrey Yos Eco-Park,nature,park,Park,walking,12.5012998,107.1940001,"Senmonorom, Cambodia",4.4,22,,OPERATIONAL,,https://maps.google.com/?cid=6232856822983234432&g_mp=Cilnb29nbGUubWFwcy5wbGFjZXMudjEuUGxhY2VzLlNlYXJjaE5lYXJieRACGAQgAA,park;point_of_interest;establishment,park,Sen Monorom
ChIJMWHn7LcFczERTlg_PqhCkCg,Chốt Tre Gai (chốt bảo vệ rừng),nature,national_park,National Park,walking,12.1436195,107.16918539999999,"45V9+CMV, Bu Gia Map, Dong Nai, Vietnam",4.8,9,,OPERATIONAL,,https://maps.google.com/?cid=2922909448529729614&g_mp=Cilnb29nbGUubWFwcy5wbGFjZXMudjEuUGxhY2VzLlNlYXJjaE5lYXJieRACGAQgAA,national_park;park;point_of_interest;establishment,park,Sen Monorom
ChIJKcClfRHxcjERNTJgymGqHPA,Sen Monorom Park,nature,park,Park,walking,12.4602801,107.18562519999999,"F56P+28J, 141, Senmonorom, Cambodia",4.5,4,,OPERATIONAL,,https://maps.google.com/?cid=17301891205434454581&g_mp=Cilnb29nbGUubWFwcy5wbGFjZXMudjEuUGxhY2VzLlNlYXJjaE5lYXJieRACGAQgAA,park;point_of_interest;establishment,park,Sen Monorom
ChIJjTnSHwDxcjERChSoEAfxmAQ,Wat Sen Monorom,cultural,buddhist_temple,Buddhist Temple,sightseeing,12.454383,107.18142300000001,"F54J+2JQ, Senmonorom, Cambodia",3.9,10,,OPERATIONAL,,https://maps.google.com/?cid=331279585258247178&g_mp=Cilnb29nbGUubWFwcy5wbGFjZXMudjEuUGxhY2VzLlNlYXJjaE5lYXJieRACGAQgAA,buddhist_temple;place_of_worship;association_or_organization;point_of_interest;establishment,buddhist_temple,Sen Monorom
ChIJP2P6pWL8cjERaRFMzC095Z8,Wat Sen Monorum,cultural,buddhist_temple,Buddhist Temple,sightseeing,12.3303278,107.1488605,"76, Cambodia",5,5,,OPERATIONAL,,https://maps.google.com/?cid=11521682488607641961&g_mp=Cilnb29nbGUubWFwcy5wbGFjZXMudjEuUGxhY2VzLlNlYXJjaE5lYXJieRACGAQgAA,buddhist_temple;place_of_worship;association_or_organization;point_of_interest;establishment,buddhist_temple,Sen Monorom
ChIJjYDV_yaLcjERHArJKAm8da4,វត្តអូធែលតេជោមានជ័យ,cultural,buddhist_temple,Buddhist Temple,sightseeing,12.6848456,107.2251596,"M6MG+W3M, Pu Chrey, Cambodia",5,1,,OPERATIONAL,,https://maps.google.com/?cid=12571160682399599132&g_mp=Cilnb29nbGUubWFwcy5wbGFjZXMudjEuUGxhY2VzLlNlYXJjaE5lYXJieRACGAQgAA,buddhist_temple;place_of_worship;association_or_organization;point_of_interest;establishment,buddhist_temple,Sen Monorom
ChIJ6zCKt_VccjER3pBp6B1KuVQ,Prumh Simareach Pagoda,cultural,buddhist_temple,Buddhist Temple,sightseeing,12.5262763,107.434423,"GCGM+GQ7, Tuần Tra Biên Giới, Pech Chreada, Cambodia",4,6,,OPERATIONAL,,https://maps.google.com/?cid=6104992262191157470&g_mp=Cilnb29nbGUubWFwcy5wbGFjZXMudjEuUGxhY2VzLlNlYXJjaE5lYXJieRACGAQgAA,buddhist_temple;place_of_worship;association_or_organization;point_of_interest;establishment,buddhist_temple,Sen Monorom
ChIJr9Ag7jtdcjERukaUXj28iUM,Watt Buddha Maha Nemeta Bousra,cultural,buddhist_temple,Buddhist Temple,sightseeing,12.5671089,107.41192799999999,"HC86+RQ, Pech Chreada, Cambodia",4,1,,OPERATIONAL,,https://maps.google.com/?cid=4866627844116334266&g_mp=Cilnb29nbGUubWFwcy5wbGFjZXMudjEuUGxhY2VzLlNlYXJjaE5lYXJieRACGAQgAA,buddhist_temple;place_of_worship;association_or_organization;point_of_interest;establishment,buddhist_temple,Sen Monorom
ChIJU4T-bgCLcjERmFGyMfjCrC8,វត្តគិរីវន្តារាម (វត្តពូជ្រៃ)(វត្តភ្លើងឆេះ),cultural,buddhist_temple,Buddhist Temple,sightseeing,12.609273,107.22506299999999,"J65G+P2, Senmonorom, Cambodia",,,,OPERATIONAL,,https://maps.google.com/?cid=3435334987018293656&g_mp=Cilnb29nbGUubWFwcy5wbGFjZXMudjEuUGxhY2VzLlNlYXJjaE5lYXJieRACGAQgAA,buddhist_temple;place_of_worship;association_or_organization;point_of_interest;establishment,buddhist_temple,Sen Monorom
ChIJZyIiDwDxcjER2e4e4CsM1EA,ព្រះរាជដំណាក់ស្តេចចាស់,cultural,buddhist_temple,Buddhist Temple,sightseeing,12.451984,107.164832,"Near by Mondulkiri Pagoda, Senmonorom, Cambodia",,,,OPERATIONAL,,https://maps.google.com/?cid=4671372096073297625&g_mp=Cilnb29nbGUubWFwcy5wbGFjZXMudjEuUGxhY2VzLlNlYXJjaE5lYXJieRACGAQgAA,buddhist_temple;place_of_worship;association_or_organization;point_of_interest;establishment,buddhist_temple,Sen Monorom
ChIJTd0TNADxcjERwklMbCKnrfA,ព្រះរាជដំណាក់ចាស់,cultural,buddhist_temple,Buddhist Temple,sightseeing,12.4747209,107.1484521,"F4FX+V9P Near by Mondulkiri Pagoda, Senmonorom, Cambodia",,,,OPERATIONAL,,https://maps.google.com/?cid=17342701506361313730&g_mp=Cilnb29nbGUubWFwcy5wbGFjZXMudjEuUGxhY2VzLlNlYXJjaE5lYXJieRACGAQgAA,buddhist_temple;place_of_worship;association_or_organization;point_of_interest;establishment,buddhist_temple,Sen Monorom
ChIJowLVSQBfcjER28MG5I0hb9g,វត្តធម្មពេជ្រតេរាម,cultural,buddhist_temple,Buddhist Temple,sightseeing,12.5530189,107.3356785,"H83P+46, Cambodia",,,,OPERATIONAL,,https://maps.google.com/?cid=15595720927907070939&g_mp=Cilnb29nbGUubWFwcy5wbGFjZXMudjEuUGxhY2VzLlNlYXJjaE5lYXJieRACGAQgAA,buddhist_temple;place_of_worship;association_or_organization;point_of_interest;establishment,buddhist_temple,Sen Monorom
ChIJGTChz3xVcjERYJy7e_yZYkg,Nhà thờ Giáo xứ Quảng Trực,cultural,church,Church,sightseeing,12.2578906,107.374352,"795F+5P5, Quảng Trực, Quang Truc, Lam Dong, Vietnam",4.6,7,,OPERATIONAL,,https://maps.google.com/?cid=5215900628135156832&g_mp=Cilnb29nbGUubWFwcy5wbGFjZXMudjEuUGxhY2VzLlNlYXJjaE5lYXJieRACGAQgAA,church;place_of_worship;association_or_organization;point_of_interest;establishment,church,Sen Monorom
ChIJRR67UBhdcjERwTeTzoAZaOw,Catholic Church Busra,cultural,church,Church,sightseeing,12.531603299999999,107.43144840000001,"GCJJ+JHW, Pech Chreada, Cambodia",4.6,15,,OPERATIONAL,,https://maps.google.com/?cid=17034893631541163969&g_mp=Cilnb29nbGUubWFwcy5wbGFjZXMudjEuUGxhY2VzLlNlYXJjaE5lYXJieRACGAQgAA,church;place_of_worship;association_or_organization;point_of_interest;establishment,church,Sen Monorom
ChIJ6RD2kR9ZcjERGIMShsSK77E,ព្រះសហគមន៍​កាតូលិក​ ដាក់ដាំ,cultural,church,Church,sightseeing,12.4239157,107.3139041,"C8F7+HG, Senmonorom, Cambodia",4.5,2,,OPERATIONAL,,https://maps.google.com/?cid=12821619240814674712&g_mp=Cilnb29nbGUubWFwcy5wbGFjZXMudjEuUGxhY2VzLlNlYXJjaE5lYXJieRACGAQgAA,church;place_of_worship;association_or_organization;point_of_interest;establishment,church,Sen Monorom
ChIJX3TbSeJVcjERGNWz8Wx2-qg,Nhà Thờ Tin Lành Bu Prâng(httlvn),cultural,church,Church,sightseeing,12.2612284,107.3724508,"796C+FXW, Quảng Trực, Quang Truc, Lam Dong, Vietnam",5,8,,OPERATIONAL,,https://maps.google.com/?cid=12176174752833197336&g_mp=Cilnb29nbGUubWFwcy5wbGFjZXMudjEuUGxhY2VzLlNlYXJjaE5lYXJieRACGAQgAA,church;place_of_worship;association_or_organization;point_of_interest;establishment,church,Sen Monorom
ChIJizYnnvP2cjERiwIFBh9FlFg,Catholic Church Pu Long,cultural,church,Church,sightseeing,12.4883996,107.23587889999999,"F6QP+992, 141, Senmonorom, Cambodia",3.3,3,,OPERATIONAL,,https://maps.google.com/?cid=6382802571438129803&g_mp=Cilnb29nbGUubWFwcy5wbGFjZXMudjEuUGxhY2VzLlNlYXJjaE5lYXJieRACGAQgAA,tourist_attraction;church;place_of_worship;association_or_organization;point_of_interest;establishment,church,Sen Monorom
ChIJlyIt9hpdcjERIJxRRV_01AQ,Bread of Life KEC of the CMA,cultural,church,Church,sightseeing,12.528614,107.43001799999999,"GCHJ+C2, Pech Chreada, Cambodia",3,2,,OPERATIONAL,,https://maps.google.com/?cid=348171761236417568&g_mp=Cilnb29nbGUubWFwcy5wbGFjZXMudjEuUGxhY2VzLlNlYXJjaE5lYXJieRACGAQgAA,church;place_of_worship;association_or_organization;point_of_interest;establishment,church,Sen Monorom
ChIJA1wLdwDxcjERroT9nL3sou4,គ្រីស្ទបរិស័ទដំណឹងល្អខ្មែរ​ ស៊ីយ៉ូន​ KEC- Siyoun,cultural,church,Church,sightseeing,12.4483435,107.1652386,"C5X8+946, Senmonorom, Cambodia",4.5,2,,OPERATIONAL,,https://maps.google.com/?cid=17195566626380809390&g_mp=Cilnb29nbGUubWFwcy5wbGFjZXMudjEuUGxhY2VzLlNlYXJjaE5lYXJieRACGAQgAA,church;place_of_worship;association_or_organization;point_of_interest;establishment,church,Sen Monorom
ChIJ8d9SwiP7cjERgwL9gWH_paY,Mondulkiri Church 몬돌끼리 교회 ក្រុមជំនុំមណ្ឌលគិរី,cultural,church,Church,sightseeing,12.412174799999999,107.1765169,"C56G+VJ6, Senmonorom, Cambodia",5,4,,OPERATIONAL,,https://maps.google.com/?cid=12008284775711048323&g_mp=Cilnb29nbGUubWFwcy5wbGFjZXMudjEuUGxhY2VzLlNlYXJjaE5lYXJieRACGAQgAA,church;place_of_worship;association_or_organization;point_of_interest;establishment,church,Sen Monorom
ChIJ_bkINgDxcjER6AnV5v3Q2cw,Shalom Dream Center,cultural,church,Church,sightseeing,12.492179799999999,107.17585890000001,"F5RG+V8H, Senmonorom, Cambodia",5,1,,OPERATIONAL,,https://maps.google.com/?cid=14761059042601535976&g_mp=Cilnb29nbGUubWFwcy5wbGFjZXMudjEuUGxhY2VzLlNlYXJjaE5lYXJieRACGAQgAA,church;place_of_worship;association_or_organization;point_of_interest;establishment,church,Sen Monorom
ChIJi8I_AbL3cjER20x6Q1VX9f4,Freedom Church Mondulkiri,cultural,church,Church,sightseeing,12.4516116,107.1979125,"F52X+Q55, NR76, Krong Saen Monourom F52X+Q55, NR76, Krong Saen Monourom, Sean Monorom 110501, Cambodia",5,1,,OPERATIONAL,http://www.freedomchurch.cc/,https://maps.google.com/?cid=18371686278643731675&g_mp=Cilnb29nbGUubWFwcy5wbGFjZXMudjEuUGxhY2VzLlNlYXJjaE5lYXJieRACGAQgAA,church;place_of_worship;association_or_organization;point_of_interest;establishment,church,Sen Monorom
ChIJ2S0ENwBfcjERfuOQkPE8g4A,Church,cultural,church,Church,sightseeing,12.571833199999999,107.3499461,"H8CX+PX, Senmonorom, Cambodia",5,1,,OPERATIONAL,,https://maps.google.com/?cid=9260312267014071166&g_mp=Cilnb29nbGUubWFwcy5wbGFjZXMudjEuUGxhY2VzLlNlYXJjaE5lYXJieRACGAQgAA,church;place_of_worship;association_or_organization;point_of_interest;establishment,church,Sen Monorom
ChIJ7dRSgxtdcjERrlte2iAJIn0,ព្រះវិហារ​គ្រីស្ទ បរិស័ទ​ ដំណឹងល្អខ្មែរ,cultural,church,Church,sightseeing,12.5319149,107.42973819999999,"GCJH+QV9, Unnamed Road, Pech Chreada, Cambodia",4.7,3,,OPERATIONAL,,https://maps.google.com/?cid=9016779440656374702&g_mp=Cilnb29nbGUubWFwcy5wbGFjZXMudjEuUGxhY2VzLlNlYXJjaE5lYXJieRACGAQgAA,church;place_of_worship;association_or_organization;point_of_interest;establishment,church,Sen Monorom
ChIJbdhoCYtdcjERFV_Pan1bU_o,ព្រះវិហារសេវេនដេយអាត់វេនទីស្ទ(ប៊ូស្រា),cultural,church,Church,sightseeing,12.5428935,107.4311456,"GCVJ+5F2, Pech Chreada, Cambodia",5,1,,OPERATIONAL,,https://maps.google.com/?cid=18037861526769983253&g_mp=Cilnb29nbGUubWFwcy5wbGFjZXMudjEuUGxhY2VzLlNlYXJjaE5lYXJieRACGAQgAA,church;place_of_worship;association_or_organization;point_of_interest;establishment,church,Sen Monorom
ChIJudDrWnxdcjER0L8Tbx85Ygs,Seventh-day Adventist Church,cultural,church,Church,sightseeing,12.542940000000002,107.42881039999999,"Pech Chreada ប៊ូស្រា, GCVH+5GF, Pech Chreada, Cambodia",5,2,,OPERATIONAL,,https://maps.google.com/?cid=820280889305186256&g_mp=Cilnb29nbGUubWFwcy5wbGFjZXMudjEuUGxhY2VzLlNlYXJjaE5lYXJieRACGAQgAA,church;place_of_worship;association_or_organization;point_of_interest;establishment,church,Sen Monorom
ChIJAawdIAD3cjERNeDDiddyhC0,Sen Monorom Catholic Center,cultural,church,Church,sightseeing,12.459014499999999,107.1962973,"F55W+JG7, Senmonorom, Cambodia",,,,OPERATIONAL,,https://maps.google.com/?cid=3279872698687414325&g_mp=Cilnb29nbGUubWFwcy5wbGFjZXMudjEuUGxhY2VzLlNlYXJjaE5lYXJieRACGAQgAA,church;place_of_worship;association_or_organization;point_of_interest;establishment,church,Sen Monorom
ChIJk0VsNMxdcjEREwe0HqHP0OA,ទីសក្ករៈ,cultural,church,Church,sightseeing,12.5318013,107.43143219999999,"GCJJ+PHF, Pech Chreada, Cambodia",,,,OPERATIONAL,,https://maps.google.com/?cid=16199676150563473171&g_mp=Cilnb29nbGUubWFwcy5wbGFjZXMudjEuUGxhY2VzLlNlYXJjaE5lYXJieRACGAQgAA,church;place_of_worship;association_or_organization;point_of_interest;establishment,church,Sen Monorom
ChIJE8JbMn5dcjERnPyrhuQJP-U,Nhà thờ dosep sangtak buosra,cultural,church,Church,sightseeing,12.553797999999999,107.4667454,"HF38+GM9, Cambodia",,,,OPERATIONAL,,https://maps.google.com/?cid=16518932835334880412&g_mp=Cilnb29nbGUubWFwcy5wbGFjZXMudjEuUGxhY2VzLlNlYXJjaE5lYXJieRACGAQgAA,church;place_of_worship;association_or_organization;point_of_interest;establishment,church,Sen Monorom
ChIJM3A1PBHxcjERQerChkQccA4,"Church of God in Mondulkiri,Cambodia",cultural,church,Church,sightseeing,12.453624399999999,107.19010469999999,"F53R+C2X, Senmonorom, Cambodia",,,,OPERATIONAL,,https://maps.google.com/?cid=1040362594566859329&g_mp=Cilnb29nbGUubWFwcy5wbGFjZXMudjEuUGxhY2VzLlNlYXJjaE5lYXJieRACGAQgAA,church;place_of_worship;association_or_organization;point_of_interest;establishment,church,Sen Monorom
ChIJa6ztPwDxcjER6MkjhRmEG6A,Saen Monorom Church,cultural,church,Church,sightseeing,12.46645,107.18703599999999,"F58P+HRV, 141, Senmonorom, Cambodia",,,,OPERATIONAL,,https://maps.google.com/?cid=11536960115582421480&g_mp=Cilnb29nbGUubWFwcy5wbGFjZXMudjEuUGxhY2VzLlNlYXJjaE5lYXJieRACGAQgAA,church;place_of_worship;association_or_organization;point_of_interest;establishment,church,Sen Monorom
ChIJOwK66ez3cjERHL721j5Yhrk,ព្រះវិហាពូរាដែត,cultural,church,Church,sightseeing,12.491264,107.2442507,"F6RV+GP2, Senmonorom, Cambodia",,,,OPERATIONAL,,https://maps.google.com/?cid=13368469570813607452&g_mp=Cilnb29nbGUubWFwcy5wbGFjZXMudjEuUGxhY2VzLlNlYXJjaE5lYXJieRACGAQgAA,church;place_of_worship;association_or_organization;point_of_interest;establishment,church,Sen Monorom
ChIJ7TZA3xz3cjER_7k6jIHnFJU,Mondulkiri Mosque,cultural,mosque,Mosque,sightseeing,12.458394799999999,107.19792760000001,"F55X+G22, Senmonorom, Cambodia",4.6,5,,OPERATIONAL,,https://maps.google.com/?cid=10742465554774931967&g_mp=Cilnb29nbGUubWFwcy5wbGFjZXMudjEuUGxhY2VzLlNlYXJjaE5lYXJieRACGAQgAA,mosque;place_of_worship;association_or_organization;point_of_interest;establishment,mosque,Sen Monorom
ChIJ5czbusT3cjERGwbgjN6itxE,ម៉ាស្ជិតភូមិចម្ការតែ Tea Farm Mosque,cultural,mosque,Mosque,sightseeing,12.4584063,107.198005,"F55X+G22, Senmonorom, Cambodia",5,1,,OPERATIONAL,,https://maps.google.com/?cid=1276668096112756251&g_mp=Cilnb29nbGUubWFwcy5wbGFjZXMudjEuUGxhY2VzLlNlYXJjaE5lYXJieRACGAQgAA,mosque;place_of_worship;association_or_organization;point_of_interest;establishment,mosque,Sen Monorom
ChIJs7Gxj0pPcjERIptkhowRwo4,ព្រះវិហារទួលស្វាយ,cultural,mosque,Mosque,sightseeing,12.3461324,107.50495819999999,"C8C5+GR, ក្រុងសែនមនោរម្យ, Cambodia",4,2,,OPERATIONAL,,https://maps.google.com/?cid=10286803794115468066&g_mp=Cilnb29nbGUubWFwcy5wbGFjZXMudjEuUGxhY2VzLlNlYXJjaE5lYXJieRACGAQgAA,mosque;place_of_worship;association_or_organization;point_of_interest;establishment,mosque,Sen Monorom
ChIJk0bYfAuLcjERp1GfZfUUVvM,Masjid Babus Salam Pujri,cultural,mosque,Mosque,sightseeing,12.630539599999999,107.21741109999999,"J6J9+78F, 141, ពូជ្រៃ, Cambodia",,,,OPERATIONAL,,https://maps.google.com/?cid=17534225243418087847&g_mp=Cilnb29nbGUubWFwcy5wbGFjZXMudjEuUGxhY2VzLlNlYXJjaE5lYXJieRACGAQgAA,mosque;place_of_worship;association_or_organization;point_of_interest;establishment,mosque,Sen Monorom
ChIJeVNUUwCFcjER3Xxgaot2J-8,ម៉ាស្ជិឌដេអេ Masjid Dei Ey,cultural,mosque,Mosque,sightseeing,12.7970557,107.15684789999999,"Q5W4+RP, Dei-Ey, Cambodia",,,,OPERATIONAL,,https://maps.google.com/?cid=17232872840313732317&g_mp=Cilnb29nbGUubWFwcy5wbGFjZXMudjEuUGxhY2VzLlNlYXJjaE5lYXJieRACGAQgAA,mosque;place_of_worship;association_or_organization;point_of_interest;establishment,mosque,Sen Monorom
ChIJq1-yY1ldcjERRQ-Enql_1_o,متنزة بوصرة ـ مندول كيري,nature,wildlife_park,Wildlife Park,walking;wildlife,12.5649725,107.41937779999999,"HC79+XQJ, Pech Chreada, Cambodia",3.6,7,,OPERATIONAL,,https://maps.google.com/?cid=18075055995960430405&g_mp=Cilnb29nbGUubWFwcy5wbGFjZXMudjEuUGxhY2VzLlNlYXJjaE5lYXJieRACGAQgAA,wildlife_park;zoo;park;point_of_interest;establishment,zoo,Sen Monorom
ChIJSRpvVQDvcjER5C01K6y61eA,ទឹកធ្លាក់អូរឆ្វេង,urban,water_park,Water Park,rides,12.458473,107.0987019,"F35X+8C, Senmonorom, Cambodia",3.3,3,,OPERATIONAL,,https://maps.google.com/?cid=16201060483157274084&g_mp=Cilnb29nbGUubWFwcy5wbGFjZXMudjEuUGxhY2VzLlNlYXJjaE5lYXJieRACGAQgAA,water_park;amusement_park;point_of_interest;establishment,amusement_park,Sen Monorom
ChIJER5slWv9cjEREhIYzB6X0SA,Little waterfall,urban,water_park,Water Park,rides,12.3180371,107.1639232,"8597+3G, Ou Reang, Cambodia",5,1,,OPERATIONAL,,https://maps.google.com/?cid=2364837437875163666&g_mp=Cilnb29nbGUubWFwcy5wbGFjZXMudjEuUGxhY2VzLlNlYXJjaE5lYXJieRACGAQgAA,water_park;amusement_park;point_of_interest;establishment,amusement_park,Sen Monorom
ChIJsZ1LTgDvcjERvfhA7RguktA,Ou Chhveng Waterfall,urban,water_park,Water Park,rides,12.4584678,107.09867949999999,"F35X+8C, Senmonorom, Cambodia",5,1,,OPERATIONAL,,https://maps.google.com/?cid=15029125591083317437&g_mp=Cilnb29nbGUubWFwcy5wbGFjZXMudjEuUGxhY2VzLlNlYXJjaE5lYXJieRACGAQgAA,water_park;amusement_park;point_of_interest;establishment,amusement_park,Sen Monorom
ChIJj8HJHvP3cjERPLAt9vYgIoU,ROYAL MONDULKIRI KTV,urban,bar,Bar,nightlife,12.453323200000002,107.1979058,"F53X+85C, Senmonorom, Cambodia",4.2,28,,OPERATIONAL,,https://maps.google.com/?cid=9593266401316810812&g_mp=Cilnb29nbGUubWFwcy5wbGFjZXMudjEuUGxhY2VzLlNlYXJjaE5lYXJieRACGAQgAA,night_club;karaoke;bar;point_of_interest;establishment,night_club,Sen Monorom
ChIJrx9wRADxcjERjmGRsROuHrc,វង់ភ័ក្ត្រធារី ខេធីវី (VIP KTV),urban,night_club,Night Club,nightlife,12.471568,107.1896895,"F5CQ+JVG, Senmonorom, Cambodia",4.7,10,,OPERATIONAL,,https://maps.google.com/?cid=13195175357848838542&g_mp=Cilnb29nbGUubWFwcy5wbGFjZXMudjEuUGxhY2VzLlNlYXJjaE5lYXJieRACGAQgAA,night_club;point_of_interest;establishment,night_club,Sen Monorom
ChIJLagRZyXxcjERG6fvhCqGLoE,Seafood គោដុត pub,urban,night_club,Night Club,nightlife,12.4578633,107.1873899,"F55P+4XR, Senmonorom, Cambodia",,,,OPERATIONAL,,https://maps.google.com/?cid=9308524996998440731&g_mp=Cilnb29nbGUubWFwcy5wbGFjZXMudjEuUGxhY2VzLlNlYXJjaE5lYXJieRACGAQgAA,night_club;point_of_interest;establishment,night_club,Sen Monorom
ChIJR73oTQDxcjERCi9WXn4YoME,ទំនប់លំហែ,urban,night_club,Night Club,nightlife,12.459665,107.17622999999999,"F55G+VF9, Senmonorom, Cambodia",5,1,,OPERATIONAL,,https://maps.google.com/?cid=13952178576621448970&g_mp=Cilnb29nbGUubWFwcy5wbGFjZXMudjEuUGxhY2VzLlNlYXJjaE5lYXJieRACGAQgAA,night_club;point_of_interest;establishment,night_club,Sen Monorom
ChIJ9TgGi1VNcjERR85ulmmWWf8,Thanh Ba,urban,night_club,Night Club,nightlife,12.3006789,107.48781439999999,"Trần Thị Thảo, Unnamed Road, Thuận Hạnh, Lâm Đồng, Vietnam",5,2,,OPERATIONAL,,https://maps.google.com/?cid=18399903132838448711&g_mp=Cilnb29nbGUubWFwcy5wbGFjZXMudjEuUGxhY2VzLlNlYXJjaE5lYXJieRACGAQgAA,night_club;point_of_interest;establishment,night_club,Sen Monorom
ChIJ-UpqhTT3cjER9g-7FLtRLUM,ELEPHENTS Mini Mart,urban,shopping_mall,Shopping Mall,shopping,12.4504544,107.199272,"F52X+5PJ, NR76, Senmonorom, Cambodia",,,,OPERATIONAL,,https://maps.google.com/?cid=4840615038441689078&g_mp=Cilnb29nbGUubWFwcy5wbGFjZXMudjEuUGxhY2VzLlNlYXJjaE5lYXJieRACGAQgAA,shopping_mall;point_of_interest;establishment,shopping_mall,Sen Monorom
ChIJKY1A6YDxcjER_W91rKxvvc8,Sok Cheav Phone Shop,urban,shopping_mall,Shopping Mall,shopping,12.457761999999999,107.1841,"F55M+4J5, Senmonorom, Cambodia",4.9,7,,OPERATIONAL,,https://maps.google.com/?cid=14969243523867832317&g_mp=Cilnb29nbGUubWFwcy5wbGFjZXMudjEuUGxhY2VzLlNlYXJjaE5lYXJieRACGAQgAA,shopping_mall;point_of_interest;establishment,shopping_mall,Sen Monorom
ChIJXRImt77xcjER26pIY6ClSIE,អង្គរជុំ,urban,shopping_mall,Shopping Mall,shopping,12.457451599999999,107.18722749999999,"F54P+XVQ, Senmonorom, Cambodia",,,,OPERATIONAL,,https://maps.google.com/?cid=9315877937494928091&g_mp=Cilnb29nbGUubWFwcy5wbGFjZXMudjEuUGxhY2VzLlNlYXJjaE5lYXJieRACGAQgAA,shopping_mall;point_of_interest;establishment,shopping_mall,Sen Monorom
ChIJIXMi787wcjERuixlkjpp6u0,Mondulkiri Forest Venture (MFV),urban,shopping_mall,Shopping Mall,shopping,12.457333799999999,107.1877816,"F54Q+W4M, Senmonorom, Cambodia",3,2,,OPERATIONAL,,https://maps.google.com/?cid=17143630631824338106&g_mp=Cilnb29nbGUubWFwcy5wbGFjZXMudjEuUGxhY2VzLlNlYXJjaE5lYXJieRACGAQgAA,shopping_mall;point_of_interest;establishment,shopping_mall,Sen Monorom
ChIJD6KBBgD1cjERfj30nS7Ri18,Tha srey vat,urban,shopping_mall,Shopping Mall,shopping,12.5993029,107.2306813,"H6XJ+P74, Senmonorom, Cambodia",5,1,,OPERATIONAL,,https://maps.google.com/?cid=6884826453514665342&g_mp=Cilnb29nbGUubWFwcy5wbGFjZXMudjEuUGxhY2VzLlNlYXJjaE5lYXJieRACGAQgAA,shopping_mall;point_of_interest;establishment,shopping_mall,Sen Monorom
ChIJLW1DsuFdcjEREAX3qDymxgs,ផ្ទះចាប់ហួយ,urban,shopping_mall,Shopping Mall,shopping,12.536750699999999,107.43335160000001,"ផ្លូវ ពេជ្រាដា, សែនមនោរម្យ, Cambodia",,,,OPERATIONAL,,https://maps.google.com/?cid=848548359268926736&g_mp=Cilnb29nbGUubWFwcy5wbGFjZXMudjEuUGxhY2VzLlNlYXJjaE5lYXJieRACGAQgAA,shopping_mall;point_of_interest;establishment,shopping_mall,Sen Monorom
ChIJHQWNq0GtczERpZ5GLyuOvHI,BVTV: Thanh Bình 2,urban,shopping_mall,Shopping Mall,shopping,12.2140515,107.45900859999999,"6F75+JJC, ĐT681, Tuy Đức, Lâm Đồng, Vietnam",4.2,17,,OPERATIONAL,,https://maps.google.com/?cid=8267639332073283237&g_mp=Cilnb29nbGUubWFwcy5wbGFjZXMudjEuUGxhY2VzLlNlYXJjaE5lYXJieRACGAQgAA,shopping_mall;point_of_interest;establishment,shopping_mall,Sen Monorom
ChIJK_5z-aS9cjER1S4WvlJ9c8c,Phnum Prech Wildlife Sanctuary,nature,national_park,National Park,walking,12.7591089,106.8650395,Cambodia,4,111,,OPERATIONAL,,https://maps.google.com/?cid=14371968630199299797&g_mp=Cilnb29nbGUubWFwcy5wbGFjZXMudjEuUGxhY2VzLlNlYXJjaE5lYXJieRACGAQgAA,national_park;tourist_attraction;park;point_of_interest;establishment,tourist_attraction,North Mondulkiri
ChIJCRKrDgCFcjERQzgWmW47t5c,Mondulkiri,attraction,tourist_attraction,Tourist Attraction,,12.7887514,107.10123589999999,"Q4Q2+5FG, ពូជ្រៃ, Cambodia",3.7,3,,OPERATIONAL,,https://maps.google.com/?cid=10932271966665979971&g_mp=Cilnb29nbGUubWFwcy5wbGFjZXMudjEuUGxhY2VzLlNlYXJjaE5lYXJieRACGAQgAA,tourist_attraction;point_of_interest;establishment,tourist_attraction,North Mondulkiri
ChIJ1Q4JlVuPcjER9a2WsSgGDTg,អូផ្លាយ,attraction,tourist_attraction,Tourist Attraction,,12.787942699999999,107.10119309999999,"Q4Q2+5FG, ពូជ្រៃ, Cambodia",4.5,2,,OPERATIONAL,,https://maps.google.com/?cid=4038891212669103605&g_mp=Cilnb29nbGUubWFwcy5wbGFjZXMudjEuUGxhY2VzLlNlYXJjaE5lYXJieRACGAQgAA,tourist_attraction;point_of_interest;establishment,tourist_attraction,North Mondulkiri
ChIJWWKX2Xb7cjERXqZXcsGFK88,Mondulkiri view point,attraction,tourist_attraction,Tourist Attraction,,12.403172099999999,107.1911842,"C53R+7F7, Unnamed Road, Senmonorom, Cambodia",4.7,10,,OPERATIONAL,,https://maps.google.com/?cid=14928172455743170142&g_mp=Cilnb29nbGUubWFwcy5wbGFjZXMudjEuUGxhY2VzLlNlYXJjaE5lYXJieRACGAQgAA,tourist_attraction;point_of_interest;establishment,tourist_attraction,North Mondulkiri
ChIJN810GPjxcjERDhGn2Z-Y2u0,Ananda Eco Park - Mondulkiri,attraction,tourist_attraction,Tourist Attraction,,12.5140143,107.1690982,"Senmonorom, Cambodia",4.8,8,,OPERATIONAL,https://www.facebook.com/anandaecopark,https://maps.google.com/?cid=17139179144230670606&g_mp=Cilnb29nbGUubWFwcy5wbGFjZXMudjEuUGxhY2VzLlNlYXJjaE5lYXJieRACGAQgAA,tourist_attraction;point_of_interest;establishment,tourist_attraction,North Mondulkiri
ChIJs8uqQwCJbTER6r4cb__WYFU,Bia di tích lịch sử quốc gia đặc biệt đường Trường Sơn - Hồ Chí Minh khu vực vượt sông Sê Rê Pốc,cultural,museum,Museum,sightseeing,13.0160875,107.4969168,"2F8W+CQ, Buon Don, Dak Lak, Vietnam",5,2,,OPERATIONAL,,https://maps.google.com/?cid=6152153483557256938&g_mp=Cilnb29nbGUubWFwcy5wbGFjZXMudjEuUGxhY2VzLlNlYXJjaE5lYXJieRACGAQgAA,museum;point_of_interest;establishment,museum,North Mondulkiri
ChIJy-eKBgCJbTERWlalgQPDOAY,Cột mốc 45 (2),cultural,historical_landmark,Historical Landmark,,13.0145728,107.49240759999999,"2F7R+RX, Buon Don, Dak Lak, Vietnam",5,1,,OPERATIONAL,,https://maps.google.com/?cid=448322582750778970&g_mp=Cilnb29nbGUubWFwcy5wbGFjZXMudjEuUGxhY2VzLlNlYXJjaE5lYXJieRACGAQgAA,historical_landmark;historical_place;point_of_interest;establishment,historical_landmark,North Mondulkiri
ChIJfYDAFgCJbTERBvaGbcXhs_8,Cột mốc 44/5 (2),cultural,historical_landmark,Historical Landmark,,13.015412000000001,107.4919862,"2F8R+5Q, Buon Don, Dak Lak, Vietnam",5,1,,OPERATIONAL,,https://maps.google.com/?cid=18425318738565199366&g_mp=Cilnb29nbGUubWFwcy5wbGFjZXMudjEuUGxhY2VzLlNlYXJjaE5lYXJieRACGAQgAA,historical_landmark;historical_place;point_of_interest;establishment,historical_landmark,North Mondulkiri
ChIJ61lJKABlbTER9j57CDvn5lM,កោះញែក,nature,park,Park,walking,13.0755436,107.0362272,"32GP+6F9, Kaoh Nheaek, Cambodia",4.3,3,,OPERATIONAL,,https://maps.google.com/?cid=6045773790522851062&g_mp=Cilnb29nbGUubWFwcy5wbGFjZXMudjEuUGxhY2VzLlNlYXJjaE5lYXJieRACGAQgAA,park;point_of_interest;establishment,park,North Mondulkiri
ChIJM1E4zT1dcjEREK8CwHmt1vc,Bousra Eco-Park,nature,park,Park,walking,12.566479399999999,107.4188648,"HC89+HGX, Pech Chreada, Cambodia",5,5,,OPERATIONAL,,https://maps.google.com/?cid=17858652110808330000&g_mp=Cilnb29nbGUubWFwcy5wbGFjZXMudjEuUGxhY2VzLlNlYXJjaE5lYXJieRACGAQgAA,park;point_of_interest;establishment,park,North Mondulkiri
ChIJccXr5pfxcjERGLUS6CmHPZI,Mayura Wildlife Park,nature,park,Park,walking,12.4747209,107.1484521,"F4FX+V9P Pu Chri, Senmonorom, Cambodia",3,3,,OPERATIONAL,,https://maps.google.com/?cid=10537727317173777688&g_mp=Cilnb29nbGUubWFwcy5wbGFjZXMudjEuUGxhY2VzLlNlYXJjaE5lYXJieRACGAQgAA,park;point_of_interest;establishment,park,North Mondulkiri
ChIJV0E2KgD7cjERd0atTBKFTww,កន្លែងបោះតង់មើលថ្ងៃលិច,nature,park,Park,walking,12.421965799999999,107.17289489999999,"C5CF+P2, Senmonorom, Cambodia",5,1,,OPERATIONAL,,https://maps.google.com/?cid=887073965257606775&g_mp=Cilnb29nbGUubWFwcy5wbGFjZXMudjEuUGxhY2VzLlNlYXJjaE5lYXJieRACGAQgAA,park;point_of_interest;establishment,park,North Mondulkiri
ChIJ1xLeHXb3cjERgr6SepRv1zQ,ចំការកាហ្វេ,nature,park,Park,walking,12.4590237,107.265136,"F758+J3, Senmonorom, Cambodia",,,,OPERATIONAL,,https://maps.google.com/?cid=3807634693467324034&g_mp=Cilnb29nbGUubWFwcy5wbGFjZXMudjEuUGxhY2VzLlNlYXJjaE5lYXJieRACGAQgAA,park;point_of_interest;establishment,park,North Mondulkiri
ChIJVfVfVABlbTERt2FIx-9m_Y4,វត្ត ធម្មារហន្ត,cultural,buddhist_temple,Buddhist Temple,sightseeing,13.0718532,107.01646609999999,"32C8+PHW, Kaoh Nheaek, Cambodia",,,,OPERATIONAL,,https://maps.google.com/?cid=10303504702520189367&g_mp=Cilnb29nbGUubWFwcy5wbGFjZXMudjEuUGxhY2VzLlNlYXJjaE5lYXJieRACGAQgAA,buddhist_temple;place_of_worship;association_or_organization;point_of_interest;establishment,buddhist_temple,North Mondulkiri
ChIJQZUCYgBvbTERIaSLAxV_Egk,វាលមេដា,cultural,buddhist_temple,Buddhist Temple,sightseeing,13.166786499999999,107.0414643,"5382+FV, Cambodia",,,,OPERATIONAL,,https://maps.google.com/?cid=653724624152667169&g_mp=Cilnb29nbGUubWFwcy5wbGFjZXMudjEuUGxhY2VzLlNlYXJjaE5lYXJieRACGAQgAA,buddhist_temple;place_of_worship;association_or_organization;point_of_interest;establishment,buddhist_temple,North Mondulkiri
ChIJ_YdIeABjbTER2Lu4LUuCRL0,껀녜익교회,cultural,church,Church,sightseeing,12.997010000000001,107.02868,"X2WH+RF, Kaoh Nheaek, Cambodia",,,,OPERATIONAL,,https://maps.google.com/?cid=13638168830985944024&g_mp=Cilnb29nbGUubWFwcy5wbGFjZXMudjEuUGxhY2VzLlNlYXJjaE5lYXJieRACGAQgAA,church;place_of_worship;association_or_organization;point_of_interest;establishment,church,North Mondulkiri
ChIJR028PgDrcjEROf9OYnCXPZI,"St.Vincent De Paul Catholic Church Memong,មេម៉ង់",cultural,church,Church,sightseeing,12.5848742,106.92413169999999,"HWMF+WJ, Ban Mesi, Cambodia",,,,OPERATIONAL,,https://maps.google.com/?cid=10537745212058304313&g_mp=Cilnb29nbGUubWFwcy5wbGFjZXMudjEuUGxhY2VzLlNlYXJjaE5lYXJieRACGAQgAA,church;place_of_worship;association_or_organization;point_of_interest;establishment,church,North Mondulkiri
ChIJQzRFAACLcjER1gXzeuLsiiM,Gusti,cultural,church,Church,sightseeing,12.6321854,107.21680239999999,"J6J8+VPF, 141, ពូជ្រៃ, Cambodia",,,,OPERATIONAL,,https://maps.google.com/?cid=2561119795583059414&g_mp=Cilnb29nbGUubWFwcy5wbGFjZXMudjEuUGxhY2VzLlNlYXJjaE5lYXJieRACGAQgAA,church;place_of_worship;association_or_organization;point_of_interest;establishment,church,North Mondulkiri
ChIJ9zOHewDxcjERhPwGQpirhm4,Sary hom,cultural,church,Church,sightseeing,12.464526999999999,107.107563,"F474+HV, Senmonorom, Cambodia",,,,OPERATIONAL,,https://maps.google.com/?cid=7964241661482433668&g_mp=Cilnb29nbGUubWFwcy5wbGFjZXMudjEuUGxhY2VzLlNlYXJjaE5lYXJieRACGAQgAA,church;place_of_worship;association_or_organization;point_of_interest;establishment,church,North Mondulkiri
ChIJ367mIDdlbTERLgKRUlfn8oc,ផ្ទះស្នេហ៍​KTV,urban,bar,Bar,nightlife,13.0785708,107.0385982,"76, Kaoh Nheaek 12345, Cambodia",,,,OPERATIONAL,,https://maps.google.com/?cid=9796146501717656110&g_mp=Cilnb29nbGUubWFwcy5wbGFjZXMudjEuUGxhY2VzLlNlYXJjaE5lYXJieRACGAQgAA,karaoke;night_club;bar;point_of_interest;establishment,night_club,North Mondulkiri
ChIJA-9G83VlbTERG6nT3K9UD1A,Fertilizer Nuon Sronos,urban,shopping_mall,Shopping Mall,shopping,13.0789806,107.0318523,"32HJ+HPX, NR76, Kaoh Nheaek, Cambodia",5,4,,OPERATIONAL,,https://maps.google.com/?cid=5768922761985763611&g_mp=Cilnb29nbGUubWFwcy5wbGFjZXMudjEuUGxhY2VzLlNlYXJjaE5lYXJieRACGAQgAA,shopping_mall;point_of_interest;establishment,shopping_mall,North Mondulkiri
ChIJmWMAAIJjbTER11LzANlclcY,Book Store and Printing House,urban,shopping_mall,Shopping Mall,shopping,12.9988829,107.0175584,"141 ភូមិទួល ឃុំអបួនលើ, Kaoh Nheaek, Cambodia",,,,OPERATIONAL,,https://maps.google.com/?cid=14309445478133224151&g_mp=Cilnb29nbGUubWFwcy5wbGFjZXMudjEuUGxhY2VzLlNlYXJjaE5lYXJieRACGAQgAA,shopping_mall;point_of_interest;establishment,shopping_mall,North Mondulkiri
ChIJx4yndABlbTERu8d5MiwZ-FU,Ahnoy,urban,shopping_mall,Shopping Mall,shopping,13.0758566,107.0421892,"32GR+8JX, Kaoh Nheaek, Cambodia",,,,OPERATIONAL,,https://maps.google.com/?cid=6194728965064214459&g_mp=Cilnb29nbGUubWFwcy5wbGFjZXMudjEuUGxhY2VzLlNlYXJjaE5lYXJieRACGAQgAA,shopping_mall;point_of_interest;establishment,shopping_mall,North Mondulkiri
