google_place_id,name,category,primary_type,primary_type_name,activities,lat,lon,address,rating,rating_count,price_level,business_status,website,google_maps_url,all_types,found_via_category,found_via_cell
ChIJ0TXiS1i-BDER_gMHOERTZfk,วัดเขาชวัง,cultural,buddhist_temple,Buddhist Temple,sightseeing,12.9207781,102.3790271,"W9CH+8J6, Pong Nam Ron, Pong Nam Ron District, Chanthaburi 22140, Thailand",4.6,714,,OPERATIONAL,http://www.facebook.com/%E0%B8%A7%E0%B8%B1%E0%B8%94%E0%B9%80%E0%B8%82%E0%B8%B2%E0%B8%8A%E0%B8%A7%E0%B8%B1%E0%B8%87-241249666229103,https://maps.google.com/?cid=17970861440554697726&g_mp=Cilnb29nbGUubWFwcy5wbGFjZXMudjEuUGxhY2VzLlNlYXJjaE5lYXJieRACGAQgAA,buddhist_temple;tourist_attraction;place_of_worship;association_or_organization;point_of_interest;establishment,tourist_attraction,Pailin town
ChIJfYxYvd_wBDERgLVD3rIAAR0,Namtok Khlong Kaeo National Park,nature,national_park,National Park,walking,12.6178215,102.57714059999999,"หมู่ที่ 2 ตำบล บ่อพลอย อำเภอ บ่อไร่ ตราด 23140, Thailand",4.4,324,,OPERATIONAL,https://www.facebook.com/Klongkaeonationalpark/?mibextid=ZbWKwL,https://maps.google.com/?cid=2089952470309778816&g_mp=Cilnb29nbGUubWFwcy5wbGFjZXMudjEuUGxhY2VzLlNlYXJjaE5lYXJieRACGAQgAA,national_park;tourist_attraction;park;point_of_interest;establishment,tourist_attraction,Pailin town
ChIJyyyGKKLoBDERseCZrTnLk0g,Phnom Khiev Waterfall,attraction,tourist_attraction,Tourist Attraction,,12.796772599999999,102.6152068,"QJW8+P34, Krong Pailin, Cambodia",4.3,259,,OPERATIONAL,,https://maps.google.com/?cid=5229747040893395121&g_mp=Cilnb29nbGUubWFwcy5wbGFjZXMudjEuUGxhY2VzLlNlYXJjaE5lYXJieRACGAQgAA,tourist_attraction;point_of_interest;establishment,tourist_attraction,Pailin town
ChIJZWoCiLzyBDERq2JMhwcwlz0,Wat Nong Bon,cultural,buddhist_temple,Buddhist Temple,sightseeing,12.6797089,102.4554435,"123 5, Tambon Nong Bon, Amphoe Bo Rai, Chang Wat Trat 23140, Thailand",4.5,56,,OPERATIONAL,https://www.facebook.com/watnongbon?mibextid=ZbWKwL,https://maps.google.com/?cid=4438068766689747627&g_mp=Cilnb29nbGUubWFwcy5wbGFjZXMudjEuUGxhY2VzLlNlYXJjaE5lYXJieRACGAQgAA,buddhist_temple;tourist_attraction;place_of_worship;association_or_organization;point_of_interest;establishment,tourist_attraction,Pailin town
ChIJ43CpoBLoBDER0NDDcqS-2nA,វត្តភ្នំយ៉ាត,attraction,place_of_worship,Place of Worship,,12.8457938,102.61021590000001,"RJW6+838, Krong Pailin, Cambodia",4.5,146,,OPERATIONAL,,https://maps.google.com/?cid=8132021690680201424&g_mp=Cilnb29nbGUubWFwcy5wbGFjZXMudjEuUGxhY2VzLlNlYXJjaE5lYXJieRACGAQgAA,tourist_attraction;place_of_worship;association_or_organization;point_of_interest;establishment,tourist_attraction,Pailin town
ChIJG020yVvHBDERpU2DcIbxVQg,ផ្លូវបំបែកកំរៀង ខេត្តបាត់ដំបង,attraction,tourist_attraction,Tourist Attraction,,13.046574999999999,102.50042739999999,"NR59, Kâmrieng Kraôm, Cambodia",4.2,65,,OPERATIONAL,http://5.15.83.176/,https://maps.google.com/?cid=600651685039394213&g_mp=Cilnb29nbGUubWFwcy5wbGFjZXMudjEuUGxhY2VzLlNlYXJjaE5lYXJieRACGAQgAA,tourist_attraction;point_of_interest;establishment,tourist_attraction,Pailin town
ChIJxUIknqLpBDERVYUGrRIRrfo,Borhuy or Elephant Head Waterfall,attraction,tourist_attraction,Tourist Attraction,,12.8332941,102.5524458,"RHM2+8X8, Krong Pailin, Cambodia",4.1,20,,OPERATIONAL,,https://maps.google.com/?cid=18063112452362896725&g_mp=Cilnb29nbGUubWFwcy5wbGFjZXMudjEuUGxhY2VzLlNlYXJjaE5lYXJieRACGAQgAA,tourist_attraction;point_of_interest;establishment,tourist_attraction,Pailin town
ChIJ11B0oEbtBDERfTg2nm4Vw68,น้ำตกธารหินดาษ,attraction,tourist_attraction,Tourist Attraction,,12.706605699999999,102.48728659999999,"PF4P+JWV, Nong Bon, Bo Rai District, Trat 23140, Thailand",4.2,14,,OPERATIONAL,,https://maps.google.com/?cid=12664990141940906109&g_mp=Cilnb29nbGUubWFwcy5wbGFjZXMudjEuUGxhY2VzLlNlYXJjaE5lYXJieRACGAQgAA,tourist_attraction;point_of_interest;establishment,tourist_attraction,Pailin town
ChIJvfyCjL39BDER1XHyShoVMDs,ចំការធុរេនពុកម៉នសំឡូតចាស់,attraction,tourist_attraction,Tourist Attraction,,12.648894,102.764709,"JQX7+HV, Phumi Chhâk Rôkar, Cambodia",2.5,4,,OPERATIONAL,,https://maps.google.com/?cid=4264932049790595541&g_mp=Cilnb29nbGUubWFwcy5wbGFjZXMudjEuUGxhY2VzLlNlYXJjaE5lYXJieRACGAQgAA,tourist_attraction;point_of_interest;establishment,tourist_attraction,Pailin town
ChIJLc7Id_LjBDERHEhLSWybIr4,រមណីយដ្ឋានទឹកជ្រោះដើមល្វា,attraction,tourist_attraction,Tourist Attraction,,12.7182754,102.77132379999999,"PQ9C+8G, Phum Balaing, Cambodia",4.6,14,,OPERATIONAL,,https://maps.google.com/?cid=13700683905802913820&g_mp=Cilnb29nbGUubWFwcy5wbGFjZXMudjEuUGxhY2VzLlNlYXJjaE5lYXJieRACGAQgAA,tourist_attraction;point_of_interest;establishment,tourist_attraction,Pailin town
ChIJ37uiOEa-BDERK-31d5xMuQM,Shooting the Rapids at Khlong Pong Nam Ron,attraction,tourist_attraction,Tourist Attraction,,12.904448200000001,102.379364,"W93H+QPH, Pong Nam Ron, Pong Nam Ron District, Chanthaburi 22140, Thailand",3.5,11,,OPERATIONAL,,https://maps.google.com/?cid=268329887716470059&g_mp=Cilnb29nbGUubWFwcy5wbGFjZXMudjEuUGxhY2VzLlNlYXJjaE5lYXJieRACGAQgAA,tourist_attraction;point_of_interest;establishment,tourist_attraction,Pailin town
ChIJQXk49E_zBDER1ziS8uuWXlU,ฝายบ้านเนินพัฒนา,attraction,tourist_attraction,Tourist Attraction,,12.6543197,102.46298809999999,"MF37+P5H, Chang Thun, Bo Rai District, Trat 23140, Thailand",,,,OPERATIONAL,,https://maps.google.com/?cid=6151520081165826263&g_mp=Cilnb29nbGUubWFwcy5wbGFjZXMudjEuUGxhY2VzLlNlYXJjaE5lYXJieRACGAQgAA,tourist_attraction;point_of_interest;establishment,tourist_attraction,Pailin town
ChIJZ3fqZbX9BDERzJLWeJzAC2g,ចំការធុរេនលំហែ,attraction,tourist_attraction,Tourist Attraction,,12.6603437,102.7505048,"សំឡូតចាស់, Phum Balaing, Cambodia",4.3,3,,OPERATIONAL,,https://maps.google.com/?cid=7497297782963081932&g_mp=Cilnb29nbGUubWFwcy5wbGFjZXMudjEuUGxhY2VzLlNlYXJjaE5lYXJieRACGAQgAA,tourist_attraction;point_of_interest;establishment,tourist_attraction,Pailin town
ChIJq_pCWgD9BDER64ZfbeIOkFA,ចម្ការទុរេនហៀង យីម សំឡូតចាស់,attraction,tourist_attraction,Tourist Attraction,,12.648368099999999,102.76618470000001,"JQX8+8FV, Samlout, Cambodia",3,2,,OPERATIONAL,,https://maps.google.com/?cid=5805156285340944107&g_mp=Cilnb29nbGUubWFwcy5wbGFjZXMudjEuUGxhY2VzLlNlYXJjaE5lYXJieRACGAQgAA,tourist_attraction;point_of_interest;establishment,tourist_attraction,Pailin town
ChIJY46jYyrHBDERl3akYnHFp8I,រមណីយដ្ឋានព្រះពុទ្ធ,attraction,tourist_attraction,Tourist Attraction,,13.0454824,102.489364,"2FWQ+5P, Kâmrieng Kraôm, Cambodia",4,6,,OPERATIONAL,,https://maps.google.com/?cid=14026396655245620887&g_mp=Cilnb29nbGUubWFwcy5wbGFjZXMudjEuUGxhY2VzLlNlYXJjaE5lYXJieRACGAQgAA,tourist_attraction;point_of_interest;establishment,tourist_attraction,Pailin town
ChIJoRH0EADbBDERF7s4SfjMb0E,ស្ពានទឹកពុះ(កំប្រង់),attraction,tourist_attraction,Tourist Attraction,,13.1139031,102.6435279,"4J7V+HC6, Cambodia",4.8,6,,OPERATIONAL,,https://maps.google.com/?cid=4715212701632609047&g_mp=Cilnb29nbGUubWFwcy5wbGFjZXMudjEuUGxhY2VzLlNlYXJjaE5lYXJieRACGAQgAA,tourist_attraction;point_of_interest;establishment,tourist_attraction,Pailin town
ChIJB3faX47DBDER8bMddQ0npPk,Seng SARORRN,attraction,tourist_attraction,Tourist Attraction,,12.895507,102.576713,"NR57, Cambodia",5,1,,OPERATIONAL,,https://maps.google.com/?cid=17988545750377542641&g_mp=Cilnb29nbGUubWFwcy5wbGFjZXMudjEuUGxhY2VzLlNlYXJjaE5lYXJieRACGAQgAA,tourist_attraction;point_of_interest;establishment,tourist_attraction,Pailin town
ChIJffVHvd_wBDER93MGOL7QNMQ,Tourist Information Center,attraction,tourist_attraction,Tourist Attraction,,12.6184657,102.5772271,"JH9G+9VQ, Bo Phloi, Bo Rai District, Trat 23140, Thailand",3.8,5,,OPERATIONAL,,https://maps.google.com/?cid=14138154645625140215&g_mp=Cilnb29nbGUubWFwcy5wbGFjZXMudjEuUGxhY2VzLlNlYXJjaE5lYXJieRACGAQgAA,tourist_attraction;point_of_interest;establishment,tourist_attraction,Pailin town
ChIJdWFjDgDpBDERiSh7YU0zvGM,ផ្លូវកោងបរតាំងស៊ូ,attraction,tourist_attraction,Tourist Attraction,,12.8557557,102.56375399999999,"VH47+MQ, Krong Pailin, Cambodia",,,,OPERATIONAL,,https://maps.google.com/?cid=7186675512817428617&g_mp=Cilnb29nbGUubWFwcy5wbGFjZXMudjEuUGxhY2VzLlNlYXJjaE5lYXJieRACGAQgAA,tourist_attraction;point_of_interest;establishment,tourist_attraction,Pailin town
ChIJTz4Qpnf3BDER7tiXiShEIQU,Secret Garden,attraction,tourist_attraction,Tourist Attraction,,12.5884015,102.5926028,"HHQV+929 หมื่นด่าน บ่อพลอย Tambon Bo Phloi, Amphoe Bo Rai, Chang Wat Trat 23140, Thailand",5,1,,OPERATIONAL,,https://maps.google.com/?cid=369651585318901998&g_mp=Cilnb29nbGUubWFwcy5wbGFjZXMudjEuUGxhY2VzLlNlYXJjaE5lYXJieRACGAQgAA,tourist_attraction;point_of_interest;establishment,tourist_attraction,Pailin town
ChIJybjkSq7zBDER1Zd_aemR6Cc,วิสาหกิจชุมชนนิเวศพิพิธภัณฑ์ชองบ้านช้างทูน,cultural,museum,Museum,sightseeing,12.6119822,102.477876,"ม.1 บ้านคลองขวาง ต Tambon Chang Thun, Amphoe Bo Rai, Chang Wat Trat 23140, Thailand",5,3,,OPERATIONAL,,https://maps.google.com/?cid=2875708793759438805&g_mp=Cilnb29nbGUubWFwcy5wbGFjZXMudjEuUGxhY2VzLlNlYXJjaE5lYXJieRACGAQgAA,museum;point_of_interest;establishment,museum,Pailin town
ChIJh5L0B7PdBDERycea1OlSh1o,SOU KIMSENG HOME,cultural,museum,Museum,sightseeing,12.9092962,102.6675475,"WM59+P27, Krong Pailin, Cambodia",5,1,,OPERATIONAL,,https://maps.google.com/?cid=6523273749517223881&g_mp=Cilnb29nbGUubWFwcy5wbGFjZXMudjEuUGxhY2VzLlNlYXJjaE5lYXJieRACGAQgAA,museum;point_of_interest;establishment,museum,Pailin town
ChIJv1ckeA3oBDER5ei2yjaPQXM,Yey Yat Shrine,cultural,place_of_worship,Place of Worship,,12.8469427,102.6109617,"RJW6+Q9G, NR57, Krong Pailin, Cambodia",4.4,320,,OPERATIONAL,,https://maps.google.com/?cid=8305076653339896037&g_mp=Cilnb29nbGUubWFwcy5wbGFjZXMudjEuUGxhY2VzLlNlYXJjaE5lYXJieRACGAQgAA,historical_landmark;historical_place;place_of_worship;association_or_organization;point_of_interest;establishment,historical_landmark,Pailin town
ChIJDV3dMwDpBDERAdJ0cteC8JE,Independence monument (Pailin),cultural,historical_landmark,Historical Landmark,,12.8553268,102.60885909999999,"VJ45+3HV, Krong Pailin, Cambodia",4.3,54,,OPERATIONAL,,https://maps.google.com/?cid=10516048991759946241&g_mp=Cilnb29nbGUubWFwcy5wbGFjZXMudjEuUGxhY2VzLlNlYXJjaE5lYXJieRACGAQgAA,historical_landmark;historical_place;point_of_interest;establishment,historical_landmark,Pailin town
ChIJKfCiUnTnBDERRcde7VfcSUI,ស្តូបនុស្សាវរីយ៍ នយោបាយ ឈ្នះ ឈ្នះ ប៉ៃលិន Win Win Pailin,cultural,historical_landmark,Historical Landmark,,12.86398,102.62403429999999,"VJ7F+HJ, Krong Pailin, Cambodia",3.9,8,,OPERATIONAL,,https://maps.google.com/?cid=4776591150005798725&g_mp=Cilnb29nbGUubWFwcy5wbGFjZXMudjEuUGxhY2VzLlNlYXJjaE5lYXJieRACGAQgAA,historical_landmark;historical_place;point_of_interest;establishment,historical_landmark,Pailin town
ChIJ9QSep-PXBDERTPYMra2ECXE,អាងទំនប់អូរដូនតា,cultural,historical_landmark,Historical Landmark,,13.0779362,102.7372822,"3PHP+5WF, Cambodia",1,3,,OPERATIONAL,,https://maps.google.com/?cid=8145187282543769164&g_mp=Cilnb29nbGUubWFwcy5wbGFjZXMudjEuUGxhY2VzLlNlYXJjaE5lYXJieRACGAQgAA,historical_landmark;historical_place;point_of_interest;establishment,historical_landmark,Pailin town
ChIJTfZPTwDZBDERXE538v4EOLM,ភូមិគល់ដំរី,cultural,historical_landmark,Historical Landmark,,12.959999900000001,102.74072249999999,"XP5R+X7X, Phumi Phnum Dâmrei, Cambodia",5,1,,OPERATIONAL,,https://maps.google.com/?cid=12914077424521006684&g_mp=Cilnb29nbGUubWFwcy5wbGFjZXMudjEuUGxhY2VzLlNlYXJjaE5lYXJieRACGAQgAA,historical_landmark;historical_place;point_of_interest;establishment,historical_landmark,Pailin town
ChIJ5ezOBwDJBDER8hYfIcJh7vo,បង្គោលព្រំដែនលេខ៦២,cultural,historical_landmark,Historical Landmark,,13.07822,102.46432000000001,"3FH7+7P, Kamrieng, Cambodia",5,3,,OPERATIONAL,,https://maps.google.com/?cid=18081497040346355442&g_mp=Cilnb29nbGUubWFwcy5wbGFjZXMudjEuUGxhY2VzLlNlYXJjaE5lYXJieRACGAQgAA,historical_landmark;historical_place;point_of_interest;establishment,historical_landmark,Pailin town
ChIJY3eXKgDXBDERay6idYUHZPc,Kan Bunthol’s Farm,cultural,historical_landmark,Historical Landmark,,13.055486,102.73682989999999,"3P4P+CW, Phumi Ta Krei, Cambodia",5,1,,OPERATIONAL,,https://maps.google.com/?cid=17826381494824873579&g_mp=Cilnb29nbGUubWFwcy5wbGFjZXMudjEuUGxhY2VzLlNlYXJjaE5lYXJieRACGAQgAA,historical_landmark;historical_place;point_of_interest;establishment,historical_landmark,Pailin town
ChIJ4djqHQDXBDERGS4rgMPrQq8,phoumi deisaet,cultural,historical_landmark,Historical Landmark,,13.076525,102.7332844,"3PGM+J8, Phumi Ta Krei, Cambodia",5,1,,OPERATIONAL,,https://maps.google.com/?cid=12628915530001755673&g_mp=Cilnb29nbGUubWFwcy5wbGFjZXMudjEuUGxhY2VzLlNlYXJjaE5lYXJieRACGAQgAA,historical_landmark;historical_place;point_of_interest;establishment,historical_landmark,Pailin town
ChIJbSkJoVTjBDERGTPmRhXs4zk,Bor Lang Waterfall,nature,park,Park,walking,12.6804065,102.7432723,"43, Samlout 020905, Cambodia",4.1,40,,OPERATIONAL,,https://maps.google.com/?cid=4171437256003171097&g_mp=Cilnb29nbGUubWFwcy5wbGFjZXMudjEuUGxhY2VzLlNlYXJjaE5lYXJieRACGAQgAA,park;point_of_interest;establishment,park,Pailin town
ChIJ0-jX62r9BDER9Or-WyueWCA,ចំការតាម៉ាប់ធូរេនសំឡូតចាស់,nature,park,Park,walking,12.6600617,102.7446801,"MP6V+2V, Phum Balaing, Cambodia",3.7,6,,OPERATIONAL,,https://maps.google.com/?cid=2330786716228446964&g_mp=Cilnb29nbGUubWFwcy5wbGFjZXMudjEuUGxhY2VzLlNlYXJjaE5lYXJieRACGAQgAA,park;point_of_interest;establishment,park,Pailin town
ChIJ3-TXDkTZBDERvMY36Z630do,ភ្នំកូនដំរី,nature,national_park,National Park,walking,12.967925399999999,102.7298498,"XP9H+5WH, Phumi Phnum Dâmrei, Cambodia",4.4,9,,OPERATIONAL,,https://maps.google.com/?cid=15767585663546279612&g_mp=Cilnb29nbGUubWFwcy5wbGFjZXMudjEuUGxhY2VzLlNlYXJjaE5lYXJieRACGAQgAA,national_park;park;point_of_interest;establishment,park,Pailin town
ChIJIyuZFk_dBDERnyCwWoFojek,ចម្ការស្វាយ,nature,park,Park,walking,12.9092962,102.6675575,"WM59+P27, Krong Pailin, Cambodia",,,,OPERATIONAL,,https://maps.google.com/?cid=16829222287334973599&g_mp=Cilnb29nbGUubWFwcy5wbGFjZXMudjEuUGxhY2VzLlNlYXJjaE5lYXJieRACGAQgAA,park;point_of_interest;establishment,park,Pailin town
ChIJzXcP4hLDBDER7Prpp77m2Ww,ស្ទឹងកាច់,nature,park,Park,walking,12.888329599999999,102.590251,"VHQR+R3Q, Krong Pailin, Cambodia",4.9,7,,OPERATIONAL,,https://maps.google.com/?cid=7843553932577733356&g_mp=Cilnb29nbGUubWFwcy5wbGFjZXMudjEuUGxhY2VzLlNlYXJjaE5lYXJieRACGAQgAA,park;point_of_interest;establishment,park,Pailin town
ChIJr-j9RajpBDERZLwY6HqUdr4,សួនក្ដីស្រលាញ់​,nature,park,Park,walking,12.8547055,102.5576889,"VH35+V3P, Unnamed Road, Krong Pailin, Cambodia",5,3,,OPERATIONAL,,https://maps.google.com/?cid=13724320170059021412&g_mp=Cilnb29nbGUubWFwcy5wbGFjZXMudjEuUGxhY2VzLlNlYXJjaE5lYXJieRACGAQgAA,park;point_of_interest;establishment,park,Pailin town
ChIJn2340BT9BDERm20pL8In-B4,ចំការធូរ៉េន សាវម៉ាវ​ លោកតាទុំ,nature,park,Park,walking,12.664107000000001,102.743214,"MP7V+J7, Phum Balaing, Cambodia",4.2,5,,OPERATIONAL,,https://maps.google.com/?cid=2231577330330463643&g_mp=Cilnb29nbGUubWFwcy5wbGFjZXMudjEuUGxhY2VzLlNlYXJjaE5lYXJieRACGAQgAA,park;point_of_interest;establishment,park,Pailin town
ChIJ7Scy3EjpBDERU8OlP4KcKFo,A (Krong Pailin),nature,park,Park,walking,12.860504599999999,102.6066262,"VJ64+6M2, Krong Pailin, Cambodia",3.5,2,,OPERATIONAL,,https://maps.google.com/?cid=6496614545709450067&g_mp=Cilnb29nbGUubWFwcy5wbGFjZXMudjEuUGxhY2VzLlNlYXJjaE5lYXJieRACGAQgAA,park;point_of_interest;establishment,park,Pailin town
ChIJNe7JUYL9BDERpCXAVQ3CY_w,ចម្ការទុរេនទន់យូឡែនទន់ធារ៉ាសំឡូតចាស់,nature,park,Park,walking,12.6634514,102.7478069,"MP7X+94M, Cambodia",3,4,,OPERATIONAL,,https://maps.google.com/?cid=18186593082781214116&g_mp=Cilnb29nbGUubWFwcy5wbGFjZXMudjEuUGxhY2VzLlNlYXJjaE5lYXJieRACGAQgAA,park;point_of_interest;establishment,park,Pailin town
ChIJ6TPvLYqUBDERxXlvrG4Zxeg,Pong Nam Ron Canal,nature,national_park,National Park,walking,12.804583599999999,102.39477219999999,"R93V+RWJ, Pong Nam Ron, Pong Nam Ron District, Chanthaburi 22140, Thailand",,,,OPERATIONAL,,https://maps.google.com/?cid=16772840350341364165&g_mp=Cilnb29nbGUubWFwcy5wbGFjZXMudjEuUGxhY2VzLlNlYXJjaE5lYXJieRACGAQgAA,national_park;park;point_of_interest;establishment,park,Pailin town
ChIJMSkytR0nBTERcuCdnlcC8es,Pra Dak national park,nature,national_park,National Park,walking,12.975243899999999,102.8486288,"XRGX+3FR, Ratanak Mondul, Cambodia",4.2,5,,OPERATIONAL,,https://maps.google.com/?cid=17001372643646890098&g_mp=Cilnb29nbGUubWFwcy5wbGFjZXMudjEuUGxhY2VzLlNlYXJjaE5lYXJieRACGAQgAA,national_park;park;point_of_interest;establishment,park,Pailin town
ChIJJ5GiOG3nBDER4qBWlPXKy80,Waterfall pailin,nature,park,Park,walking,12.812289999999999,102.62911199999999,"RJ6H+WJ, Krong Pailin, Cambodia",,,,OPERATIONAL,,https://maps.google.com/?cid=14829169354151993570&g_mp=Cilnb29nbGUubWFwcy5wbGFjZXMudjEuUGxhY2VzLlNlYXJjaE5lYXJieRACGAQgAA,park;point_of_interest;establishment,park,Pailin town
ChIJORmEFADjBDERX6jroB_UHd4,ចំការធុរេនដង្ខៅប៊ុនសុង,nature,park,Park,walking,12.6903262,102.7532481,"MQR3+47, Phum Balaing, Cambodia",,,,OPERATIONAL,,https://maps.google.com/?cid=16005181883053484127&g_mp=Cilnb29nbGUubWFwcy5wbGFjZXMudjEuUGxhY2VzLlNlYXJjaE5lYXJieRACGAQgAA,park;point_of_interest;establishment,park,Pailin town
ChIJkxb0oRroBDERs9nDWX_S26Y,Kids Park (Pailin Province),nature,park,Park,walking,12.856070599999999,102.6087759,"National Road 57, Krong Pailin, Cambodia",4.2,40,,OPERATIONAL,,https://maps.google.com/?cid=12023435074604358067&g_mp=Cilnb29nbGUubWFwcy5wbGFjZXMudjEuUGxhY2VzLlNlYXJjaE5lYXJieRACGAQgAA,park;point_of_interest;establishment,park,Pailin town
ChIJh31EiKLhBDERaQnenkoS90s,សួនផ្កា​សន្តិភាព​ខេត្តប៉ៃលិន​,nature,park,Park,walking,12.7983672,102.7232741,"Unnamed Road, Krong Pailin, Cambodia",2,4,,OPERATIONAL,,https://maps.google.com/?cid=5473863983794358633&g_mp=Cilnb29nbGUubWFwcy5wbGFjZXMudjEuUGxhY2VzLlNlYXJjaE5lYXJieRACGAQgAA,park;point_of_interest;establishment,park,Pailin town
ChIJtWPdcwDpBDER9wfu2igIoGU,Buengchok,nature,park,Park,walking,12.8573077,102.5662703,"VH48+WG, Krong Pailin, Cambodia",5,1,,OPERATIONAL,,https://maps.google.com/?cid=7322861965669173239&g_mp=Cilnb29nbGUubWFwcy5wbGFjZXMudjEuUGxhY2VzLlNlYXJjaE5lYXJieRACGAQgAA,park;point_of_interest;establishment,park,Pailin town
ChIJ95xQhqbnBDER_ET6Ak0cEDk,ចំការមៀនប៉ៃលិន មុំជ្រី,nature,park,Park,walking,12.8190473,102.68975549999999,"RM9Q+JW6, Krong Pailin, Cambodia",,,,OPERATIONAL,,https://maps.google.com/?cid=4111817576877278460&g_mp=Cilnb29nbGUubWFwcy5wbGFjZXMudjEuUGxhY2VzLlNlYXJjaE5lYXJieRACGAQgAA,park;point_of_interest;establishment,park,Pailin town
ChIJwYJHawDjBDERpK8mSdE6kTg,View point ទេសភាព,nature,park,Park,walking,12.7183706,102.7559249,"PQ94+89, Phum Balaing, Cambodia",3,2,,OPERATIONAL,,https://maps.google.com/?cid=4076103808296857508&g_mp=Cilnb29nbGUubWFwcy5wbGFjZXMudjEuUGxhY2VzLlNlYXJjaE5lYXJieRACGAQgAA,park;point_of_interest;establishment,park,Pailin town
ChIJ48SzPgDFBDERlK4pEHfbReI,ទំនេរ,nature,park,Park,walking,13.046085399999999,102.5914371,"2HWR+CH, Phumi Khchéay, Cambodia",,,,OPERATIONAL,,https://maps.google.com/?cid=16304679330383507092&g_mp=Cilnb29nbGUubWFwcy5wbGFjZXMudjEuUGxhY2VzLlNlYXJjaE5lYXJieRACGAQgAA,park;point_of_interest;establishment,park,Pailin town
ChIJD3uOGnbpBDERTA_3cnKSDyg,CHANDAN KUMAR,cultural,hindu_temple,Hindu Temple,sightseeing,12.8460299,102.61438059999999,"NH.57 KE BAGL ME 39.k.m CHOK.KULLIPTTI, Krong Pailin KAMLDAHA, Krong Pailin, Cambodia",,,,OPERATIONAL,,https://maps.google.com/?cid=2886686906420498252&g_mp=Cilnb29nbGUubWFwcy5wbGFjZXMudjEuUGxhY2VzLlNlYXJjaE5lYXJieRACGAQgAA,hindu_temple;place_of_worship;association_or_organization;point_of_interest;establishment,hindu_temple,Pailin town
ChIJG0kbol2-BDER4FzXNHZsjbk,วัดสามสิบ,cultural,buddhist_temple,Buddhist Temple,sightseeing,12.8838701,102.3681692,"3 หมู่ที่ 3 Tambon Pong Nam Ron, Amphoe Pong Nam Ron, Chang Wat Chanthaburi 22140, Thailand",4.6,16,,OPERATIONAL,,https://maps.google.com/?cid=13370462123681340640&g_mp=Cilnb29nbGUubWFwcy5wbGFjZXMudjEuUGxhY2VzLlNlYXJjaE5lYXJieRACGAQgAA,buddhist_temple;place_of_worship;association_or_organization;point_of_interest;establishment,buddhist_temple,Pailin town
ChIJJ8wVDHL3BDERqf8RQkDukhs,วัดรัตนวนาราม - Wat Rattanawanaram,cultural,buddhist_temple,Buddhist Temple,sightseeing,12.5914108,102.5589825,"Bo Phloi, Bo Rai District, Trat 23140, Thailand",4.8,48,,OPERATIONAL,,https://maps.google.com/?cid=1986912345377603497&g_mp=Cilnb29nbGUubWFwcy5wbGFjZXMudjEuUGxhY2VzLlNlYXJjaE5lYXJieRACGAQgAA,buddhist_temple;place_of_worship;association_or_organization;point_of_interest;establishment,buddhist_temple,Pailin town
ChIJ92tr35mXBDERTl9UW9nNg_Y,Maha Thamma Rakkhit Chedi,cultural,buddhist_temple,Buddhist Temple,sightseeing,12.8723254,102.3444083,"V8CV+WQM, Pong Nam Ron, Pong Nam Ron District, Chanthaburi 22140, Thailand",4.4,23,,OPERATIONAL,http://dhammarakkhita.org/,https://maps.google.com/?cid=17763267688703221582&g_mp=Cilnb29nbGUubWFwcy5wbGFjZXMudjEuUGxhY2VzLlNlYXJjaE5lYXJieRACGAQgAA,buddhist_temple;place_of_worship;association_or_organization;point_of_interest;establishment,buddhist_temple,Pailin town
ChIJAQ8XGurHBDER55Ko_oN8xtw,Wat Bueng Chanang,cultural,buddhist_temple,Buddhist Temple,sightseeing,13.037495799999999,102.45915099999999,"2FP5+XMR, Thep Nimit, Pong Nam Ron District, Chanthaburi 22140, Thailand",4.6,42,,OPERATIONAL,,https://maps.google.com/?cid=15908539640087876327&g_mp=Cilnb29nbGUubWFwcy5wbGFjZXMudjEuUGxhY2VzLlNlYXJjaE5lYXJieRACGAQgAA,buddhist_temple;place_of_worship;association_or_organization;point_of_interest;establishment,buddhist_temple,Pailin town
ChIJA_Z_0uvHBDERGnjqlRIHSu4,Wat Pa Thep Nimit,cultural,buddhist_temple,Buddhist Temple,sightseeing,12.9951634,102.4619551,"หมู่ 2 ตําบลเทพนิมิต อําเภอโปงงนํ้าร้อน, ตำบล เทพนิมิต อำเภอโป่งน้ำร้อน จันทบุรี 22140, Thailand",4.6,20,,OPERATIONAL,https://www.facebook.com/profile.php?id=100063692175243,https://maps.google.com/?cid=17170544305709414426&g_mp=Cilnb29nbGUubWFwcy5wbGFjZXMudjEuUGxhY2VzLlNlYXJjaE5lYXJieRACGAQgAA,buddhist_temple;place_of_worship;association_or_organization;point_of_interest;establishment,buddhist_temple,Pailin town
ChIJKWYf17a4BDER2Da6weRV098,Wat Wang Krathing,cultural,buddhist_temple,Buddhist Temple,sightseeing,12.9745337,102.4193244,"XCF9+RP8, Pong Nam Ron, Pong Nam Ron District, Chanthaburi 22140, Thailand",4.5,24,,OPERATIONAL,,https://maps.google.com/?cid=16128329131534989016&g_mp=Cilnb29nbGUubWFwcy5wbGFjZXMudjEuUGxhY2VzLlNlYXJjaE5lYXJieRACGAQgAA,buddhist_temple;place_of_worship;association_or_organization;point_of_interest;establishment,buddhist_temple,Pailin town
ChIJiQgRkiDzBDEROkziP2SISo8,Wat Pa Wisuttham,cultural,buddhist_temple,Buddhist Temple,sightseeing,12.6420526,102.4520058,"JFR2+RRC, Nong Bon, Bo Rai District, Trat 23140, Thailand",4.7,23,,OPERATIONAL,https://www.facebook.com/groups/1496389783918900/,https://maps.google.com/?cid=10325215059850185786&g_mp=Cilnb29nbGUubWFwcy5wbGFjZXMudjEuUGxhY2VzLlNlYXJjaE5lYXJieRACGAQgAA,buddhist_temple;place_of_worship;association_or_organization;point_of_interest;establishment,buddhist_temple,Pailin town
ChIJ1UwZhH-VBDER8VavR1c68E0,Wat Khlong Khanun,cultural,buddhist_temple,Buddhist Temple,sightseeing,12.874722199999999,102.39277779999999,"V9FV+V4J, Pong Nam Ron, Pong Nam Ron District, Chanthaburi 22140, Thailand",4.5,29,,OPERATIONAL,,https://maps.google.com/?cid=5616052881870247665&g_mp=Cilnb29nbGUubWFwcy5wbGFjZXMudjEuUGxhY2VzLlNlYXJjaE5lYXJieRACGAQgAA,buddhist_temple;place_of_worship;association_or_organization;point_of_interest;establishment,buddhist_temple,Pailin town
ChIJ6_UULDnABDERsizL4yOMV9g,Wat Pakkad,cultural,buddhist_temple,Buddhist Temple,sightseeing,12.8952657,102.4693357,"VFW9+4P4, Khlong Yai, Pong Nam Ron District, Chanthaburi 22140, Thailand",4.3,10,,OPERATIONAL,,https://maps.google.com/?cid=15589082720939748530&g_mp=Cilnb29nbGUubWFwcy5wbGFjZXMudjEuUGxhY2VzLlNlYXJjaE5lYXJieRACGAQgAA,buddhist_temple;place_of_worship;association_or_organization;point_of_interest;establishment,buddhist_temple,Pailin town
ChIJF-j0rOjABDERoqaaINQHvOs,Wat Mahakongkaram,cultural,buddhist_temple,Buddhist Temple,sightseeing,12.9363745,102.47191959999999,"WFPC+GQV, Khlong Yai, Pong Nam Ron District, Chanthaburi 22140, Thailand",4.1,19,,OPERATIONAL,,https://maps.google.com/?cid=16986460502196135586&g_mp=Cilnb29nbGUubWFwcy5wbGFjZXMudjEuUGxhY2VzLlNlYXJjaE5lYXJieRACGAQgAA,buddhist_temple;place_of_worship;association_or_organization;point_of_interest;establishment,buddhist_temple,Pailin town
ChIJ17LEo6S_BDERZ_to8T3tSJM,Wat Krua Wai Kanaram,cultural,buddhist_temple,Buddhist Temple,sightseeing,12.9115436,102.40953809999999,"WC65+JR7, Pong Nam Ron, Pong Nam Ron District, Chanthaburi 22140, Thailand",4.3,6,,OPERATIONAL,,https://maps.google.com/?cid=10612993372197550951&g_mp=Cilnb29nbGUubWFwcy5wbGFjZXMudjEuUGxhY2VzLlNlYXJjaE5lYXJieRACGAQgAA,buddhist_temple;place_of_worship;association_or_organization;point_of_interest;establishment,buddhist_temple,Pailin town
ChIJJSIQsYLABDERW6TqN9llMZ0,Wat Nong Bon,cultural,buddhist_temple,Buddhist Temple,sightseeing,12.931601400000002,102.43923780000001,"WCJQ+JMX Unnamed Road Tambon Khlong Yai, Amphoe Pong Nam Ron, Chang Wat Chanthaburi 22140, Thailand",4.4,20,,OPERATIONAL,,https://maps.google.com/?cid=11326946521433941083&g_mp=Cilnb29nbGUubWFwcy5wbGFjZXMudjEuUGxhY2VzLlNlYXJjaE5lYXJieRACGAQgAA,buddhist_temple;place_of_worship;association_or_organization;point_of_interest;establishment,buddhist_temple,Pailin town
ChIJ4wl_WdS_BDERWySJcQOTTqg,วัดบ้านใหม่,cultural,buddhist_temple,Buddhist Temple,sightseeing,12.9379368,102.3898794,"W9QQ+5XC, Pong Nam Ron, Pong Nam Ron District, Chanthaburi 22140, Thailand",4.4,8,,OPERATIONAL,,https://maps.google.com/?cid=12127792489554322523&g_mp=Cilnb29nbGUubWFwcy5wbGFjZXMudjEuUGxhY2VzLlNlYXJjaE5lYXJieRACGAQgAA,buddhist_temple;place_of_worship;association_or_organization;point_of_interest;establishment,buddhist_temple,Pailin town
ChIJlXfa59AdBTERYvzFAhwJ7t0,Wat Phnom Chambang,cultural,buddhist_temple,Buddhist Temple,sightseeing,12.7582734,102.8421673,"National Hwy 57, Cambodia",4.6,12,,OPERATIONAL,,https://maps.google.com/?cid=15991729342749473890&g_mp=Cilnb29nbGUubWFwcy5wbGFjZXMudjEuUGxhY2VzLlNlYXJjaE5lYXJieRACGAQgAA,buddhist_temple;place_of_worship;association_or_organization;point_of_interest;establishment,buddhist_temple,Pailin town
ChIJnaR4mta4BDERSLu7kLnWPws,Wat Khao Hom,cultural,buddhist_temple,Buddhist Temple,sightseeing,12.973880999999999,102.3955823,"X9FW+H64, Pong Nam Ron, Pong Nam Ron District, Chanthaburi 22140, Thailand",4.7,13,,OPERATIONAL,,https://maps.google.com/?cid=810602550435494728&g_mp=Cilnb29nbGUubWFwcy5wbGFjZXMudjEuUGxhY2VzLlNlYXJjaE5lYXJieRACGAQgAA,buddhist_temple;place_of_worship;association_or_organization;point_of_interest;establishment,buddhist_temple,Pailin town
ChIJrZbc3pnyBDERgPnjq_qv_XI,Wat Tha Nam Lang,cultural,buddhist_temple,Buddhist Temple,sightseeing,12.680969099999999,102.46728979999999,"MFJ8+9WM, Nong Bon, Bo Rai District, Trat 23140, Thailand",4,11,,OPERATIONAL,,https://maps.google.com/?cid=8285972380592109952&g_mp=Cilnb29nbGUubWFwcy5wbGFjZXMudjEuUGxhY2VzLlNlYXJjaE5lYXJieRACGAQgAA,buddhist_temple;place_of_worship;association_or_organization;point_of_interest;establishment,buddhist_temple,Pailin town
ChIJ12WZMJuVBDEReIT95PZu9U8,วัดป่าเขาหักบุญรักษาราม,cultural,buddhist_temple,Buddhist Temple,sightseeing,12.8658413,102.38458419999999,"V98M+8RP, Pong Nam Ron, Pong Nam Ron District, Chanthaburi 22140, Thailand",4.2,5,,OPERATIONAL,,https://maps.google.com/?cid=5761633304973247608&g_mp=Cilnb29nbGUubWFwcy5wbGFjZXMudjEuUGxhY2VzLlNlYXJjaE5lYXJieRACGAQgAA,buddhist_temple;place_of_worship;association_or_organization;point_of_interest;establishment,buddhist_temple,Pailin town
ChIJ1fukV8CVBDERyWtMFP6FCdI,Wat Khlong Klang,cultural,buddhist_temple,Buddhist Temple,sightseeing,12.8533999,102.3670489,"V938+9R3, Pong Nam Ron, Pong Nam Ron District, Chanthaburi 22140, Thailand",4.8,9,,OPERATIONAL,,https://maps.google.com/?cid=15134775349064002505&g_mp=Cilnb29nbGUubWFwcy5wbGFjZXMudjEuUGxhY2VzLlNlYXJjaE5lYXJieRACGAQgAA,buddhist_temple;place_of_worship;association_or_organization;point_of_interest;establishment,buddhist_temple,Pailin town
ChIJlzXQR7C5BDERJV0T5jP7BOA,คริสตจักรพัฒนาการทรัพย์ประเมิน โป่งน้ำร้อน,cultural,church,Church,sightseeing,13.005089600000002,102.3953799,"294W+25J, Pong Nam Ron, Pong Nam Ron District, Chanthaburi 22140, Thailand",5,3,,OPERATIONAL,https://www.facebook.com/subpramoenchurchpsc,https://maps.google.com/?cid=16142303164724632869&g_mp=Cilnb29nbGUubWFwcy5wbGFjZXMudjEuUGxhY2VzLlNlYXJjaE5lYXJieRACGAQgAA,church;place_of_worship;association_or_organization;point_of_interest;establishment,church,Pailin town
ChIJG7n-1yboBDERizBvIyiL2bY,Catholic Church (Sacred heart parish),cultural,church,Church,sightseeing,12.8656487,102.5929573,"VH8V+754, Krong Pailin, Cambodia",4.1,19,,OPERATIONAL,,https://maps.google.com/?cid=13175715189358538891&g_mp=Cilnb29nbGUubWFwcy5wbGFjZXMudjEuUGxhY2VzLlNlYXJjaE5lYXJieRACGAQgAA,church;place_of_worship;association_or_organization;point_of_interest;establishment,church,Pailin town
ChIJG8oz-WHpBDERPk9Uvq3clFk,Pailin Kwangmyung Church,cultural,church,Church,sightseeing,12.868250600000001,102.586089,"VH9P+C6, Krong Pailin, Cambodia",4.8,4,,OPERATIONAL,,https://maps.google.com/?cid=6455026804709412670&g_mp=Cilnb29nbGUubWFwcy5wbGFjZXMudjEuUGxhY2VzLlNlYXJjaE5lYXJieRACGAQgAA,church;place_of_worship;association_or_organization;point_of_interest;establishment,church,Pailin town
ChIJp9Ey59nDBDER4uEt7qc5T3g,파이린 선교센터 윤선교사,cultural,church,Church,sightseeing,12.891772399999999,102.5806965,"VHRJ+P7, Krong Pailin, Cambodia",5,2,,OPERATIONAL,,https://maps.google.com/?cid=8669211201129800162&g_mp=Cilnb29nbGUubWFwcy5wbGFjZXMudjEuUGxhY2VzLlNlYXJjaE5lYXJieRACGAQgAA,church;place_of_worship;association_or_organization;point_of_interest;establishment,church,Pailin town
ChIJR2XEP9PpBDERnEWnlM3io5Y,ព្រះវិហារនំបុ័ងជីវិត BLCC-in Pailin,cultural,church,Church,sightseeing,12.841605099999999,102.58874689999999,"RHRQ+JFX, Krong Pailin, Cambodia",4.7,3,,CLOSED_TEMPORARILY,,https://maps.google.com/?cid=10854768899483190684&g_mp=Cilnb29nbGUubWFwcy5wbGFjZXMudjEuUGxhY2VzLlNlYXJjaE5lYXJieRACGAQgAA,church;place_of_worship;association_or_organization;point_of_interest;establishment,church,Pailin town
ChIJRchvX-whBTERlM9oqCFfKeY,ក្រុមជំនុំមេតូឌីស្ទភ្នំដូនមាយ,cultural,church,Church,sightseeing,12.9002293,102.85148369999999,"WV22+3HX ព្រៃអំពរ អណ្ដើកហែប, រតនមណ្ឌល, Cambodia",,,,OPERATIONAL,,https://maps.google.com/?cid=16584891700932562836&g_mp=Cilnb29nbGUubWFwcy5wbGFjZXMudjEuUGxhY2VzLlNlYXJjaE5lYXJieRACGAQgAA,church;place_of_worship;association_or_organization;point_of_interest;establishment,church,Pailin town
ChIJ17M_iCjoBDERktkDP13kQ7Y,Pailin Holy Mountain Methodist Church,cultural,church,Church,sightseeing,12.865265899999999,102.58637069999999,"VH8P+4G5, Krong Pailin, Cambodia",4.6,5,,OPERATIONAL,,https://maps.google.com/?cid=13133592027482806674&g_mp=Cilnb29nbGUubWFwcy5wbGFjZXMudjEuUGxhY2VzLlNlYXJjaE5lYXJieRACGAQgAA,church;place_of_worship;association_or_organization;point_of_interest;establishment,church,Pailin town
ChIJhZQ252HpBDERmUcIxJiocZg,Lighthouse Church,cultural,church,Church,sightseeing,12.857718199999999,102.54938879999999,"VG5X+3QJ, Krong Pailin, Cambodia",5,7,,OPERATIONAL,,https://maps.google.com/?cid=10984746340210722713&g_mp=Cilnb29nbGUubWFwcy5wbGFjZXMudjEuUGxhY2VzLlNlYXJjaE5lYXJieRACGAQgAA,church;place_of_worship;association_or_organization;point_of_interest;establishment,church,Pailin town
ChIJiV1bXAAdBTERWgbrKO0XGfk,Olamon Light,cultural,church,Church,sightseeing,12.745852999999999,102.81518290000001,"PRW8+83, Treng, Cambodia",,,,OPERATIONAL,,https://maps.google.com/?cid=17949404097223001690&g_mp=Cilnb29nbGUubWFwcy5wbGFjZXMudjEuUGxhY2VzLlNlYXJjaE5lYXJieRACGAQgAA,church;place_of_worship;association_or_organization;point_of_interest;establishment,church,Pailin town
ChIJT6GhhTbpBDERIUM4fknRPmY,B.P Hanmaen Church,cultural,church,Church,sightseeing,12.8622274,102.60442379999999,"VJ63+VQV, Unnamed Road, Krong Pailin, Cambodia",3.4,5,,OPERATIONAL,,https://maps.google.com/?cid=7367556154005144353&g_mp=Cilnb29nbGUubWFwcy5wbGFjZXMudjEuUGxhY2VzLlNlYXJjaE5lYXJieRACGAQgAA,church;place_of_worship;association_or_organization;point_of_interest;establishment,church,Pailin town
ChIJn4_MgBroBDERtAllOJPwoOM,Pailin Church,cultural,church,Church,sightseeing,12.8608763,102.5975991,"VH6X+925, NR57, Krong Pailin, Cambodia",3.8,10,,CLOSED_TEMPORARILY,,https://maps.google.com/?cid=16402374357980350900&g_mp=Cilnb29nbGUubWFwcy5wbGFjZXMudjEuUGxhY2VzLlNlYXJjaE5lYXJieRACGAQgAA,church;place_of_worship;association_or_organization;point_of_interest;establishment,church,Pailin town
ChIJNaQe1YHpBDERN68bp0m_i-c,ព្រះ​វិហា​ឧត្តម​សាម៉ារី,cultural,church,Church,sightseeing,12.856076600000002,102.6026507,"VJ43+C3J, NR57, Krong Pailin, Cambodia",,,,OPERATIONAL,,https://maps.google.com/?cid=16684639567581261623&g_mp=Cilnb29nbGUubWFwcy5wbGFjZXMudjEuUGxhY2VzLlNlYXJjaE5lYXJieRACGAQgAA,church;place_of_worship;association_or_organization;point_of_interest;establishment,church,Pailin town
ChIJfT-S8v4dBTERDPc4eHXxH6c,Samlot SDA Church,cultural,church,Church,sightseeing,12.718714499999999,102.81794939999999,"PR99+F5P, Cambodia",3,2,,OPERATIONAL,,https://maps.google.com/?cid=12042609415442462476&g_mp=Cilnb29nbGUubWFwcy5wbGFjZXMudjEuUGxhY2VzLlNlYXJjaE5lYXJieRACGAQgAA,church;place_of_worship;association_or_organization;point_of_interest;establishment,church,Pailin town
ChIJqY_iaQDhBDERRenQK_QY6Js,ព្រះវិហារតាគ្រួក,cultural,church,Church,sightseeing,12.8398231,102.77857550000002,"RQQH+WC, Phum Chranieng, Cambodia",,,,OPERATIONAL,,https://maps.google.com/?cid=11234256707461900613&g_mp=Cilnb29nbGUubWFwcy5wbGFjZXMudjEuUGxhY2VzLlNlYXJjaE5lYXJieRACGAQgAA,church;place_of_worship;association_or_organization;point_of_interest;establishment,church,Pailin town
ChIJg4a1IkTXBDERZ6k3GXq4RIM,ព្រះ​វិហារ​ផល​ផ្លែ​ដំបូង​(ផ្ទះការ),cultural,church,Church,sightseeing,13.073571399999999,102.7291645,"3PFH+CMF, Cambodia",5,1,,OPERATIONAL,,https://maps.google.com/?cid=9458887951933483367&g_mp=Cilnb29nbGUubWFwcy5wbGFjZXMudjEuUGxhY2VzLlNlYXJjaE5lYXJieRACGAQgAA,church;place_of_worship;association_or_organization;point_of_interest;establishment,church,Pailin town
ChIJH1cRg6vpBDEReCQZ9UO9dBw,Masjid Krong Pailin,cultural,mosque,Mosque,sightseeing,12.850887499999999,102.60029689999999,"VJ22+943, Krong Pailin🕌, Cambodia",5,2,,OPERATIONAL,,https://maps.google.com/?cid=2050471829932942456&g_mp=Cilnb29nbGUubWFwcy5wbGFjZXMudjEuUGxhY2VzLlNlYXJjaE5lYXJieRACGAQgAA,mosque;place_of_worship;association_or_organization;point_of_interest;establishment,mosque,Pailin town
ChIJG0l-TQDnBDERHse_g3c7_X4,ស៊ួរ៉ាវ​ អូតាវ៉ៅ,cultural,mosque,Mosque,sightseeing,12.840289,102.6228441,"RJRF+44, Krong Pailin, Cambodia",5,1,,OPERATIONAL,,https://maps.google.com/?cid=9150535402384246558&g_mp=Cilnb29nbGUubWFwcy5wbGFjZXMudjEuUGxhY2VzLlNlYXJjaE5lYXJieRACGAQgAA,mosque;place_of_worship;association_or_organization;point_of_interest;establishment,mosque,Pailin town
ChIJh76oIADpBDEReOVq6ooxkNA,مسجد الامام القشيري,cultural,mosque,Mosque,sightseeing,12.8455973,102.5947771,"RHWV+6W, Krong Pailin, Cambodia",,,,OPERATIONAL,,https://maps.google.com/?cid=15028566429243467128&g_mp=Cilnb29nbGUubWFwcy5wbGFjZXMudjEuUGxhY2VzLlNlYXJjaE5lYXJieRACGAQgAA,mosque;place_of_worship;association_or_organization;point_of_interest;establishment,mosque,Pailin town
ChIJaTwpOQAdBTERLdZroIINbXI,ម៉ាស្ជិឌ Masjid,cultural,mosque,Mosque,sightseeing,12.7171167,102.8487578,"PR8X+RG, Cambodia",,,,OPERATIONAL,,https://maps.google.com/?cid=8245261347473577517&g_mp=Cilnb29nbGUubWFwcy5wbGFjZXMudjEuUGxhY2VzLlNlYXJjaE5lYXJieRACGAQgAA,mosque;place_of_worship;association_or_organization;point_of_interest;establishment,mosque,Pailin town
ChIJl41IGgDdBDERx803XcrkQhs,Otapukler,nature,zoo,Zoo,wildlife,12.9092962,102.6675575,"WM59+P27, Krong Pailin, Cambodia",,,,OPERATIONAL,,https://maps.google.com/?cid=1964383945285422535&g_mp=Cilnb29nbGUubWFwcy5wbGFjZXMudjEuUGxhY2VzLlNlYXJjaE5lYXJieRACGAQgAA,zoo;point_of_interest;establishment,zoo,Pailin town
ChIJuTyxB8XXBDERAxT2MI7G85E,តារា​បាល់​ទះផ្សារអូដូនតា,urban,stadium,Stadium,,13.0759148,102.72479179999999,"ផ្សារ​អូដូនតា, 230102, Cambodia",3.5,2,,OPERATIONAL,,https://maps.google.com/?cid=10516967868849329155&g_mp=Cilnb29nbGUubWFwcy5wbGFjZXMudjEuUGxhY2VzLlNlYXJjaE5lYXJieRACGAQgAA,stadium;sports_complex;sports_activity_location;event_venue;point_of_interest;establishment,stadium,Pailin town
ChIJ66EwydjBBDERrONDgYhsRuk,មហាមិត្ត KTV,urban,night_club,Night Club,nightlife,12.9448782,102.4889216,"WFVQ+XH3, Cambodia",5,1,,OPERATIONAL,,https://maps.google.com/?cid=16809241992747017132&g_mp=Cilnb29nbGUubWFwcy5wbGFjZXMudjEuUGxhY2VzLlNlYXJjaE5lYXJieRACGAQgAA,night_club;point_of_interest;establishment,night_club,Pailin town
ChIJCcdt0I3pBDERbpxkpHss8MA,GOLDEN KTV PAILIN,urban,bar,Bar,nightlife,12.8580431,102.60850429999999,"ភូមិប៉ាហុីត្បូង, Krong Pailin 230201, Cambodia",5,2,,OPERATIONAL,,https://maps.google.com/?cid=13902660959243377774&g_mp=Cilnb29nbGUubWFwcy5wbGFjZXMudjEuUGxhY2VzLlNlYXJjaE5lYXJieRACGAQgAA,karaoke;night_club;bar;point_of_interest;establishment,night_club,Pailin town
ChIJ352gOUfBBDERppESFKS0VT0,ភោជនីយដ្ធាន នឹង ផ្ទះសំណាក់ វឌ្ឍនា,urban,food,Food,nightlife,12.947842099999999,102.5090567,"Pailin Prum location, Krong Pailin 230201, Cambodia",5,1,,OPERATIONAL,,https://maps.google.com/?cid=4419637226138407334&g_mp=Cilnb29nbGUubWFwcy5wbGFjZXMudjEuUGxhY2VzLlNlYXJjaE5lYXJieRACGAQgAA,karaoke;night_club;bar;restaurant;food;point_of_interest;establishment,night_club,Pailin town
ChIJc8aY_B_pBDERQN2lMENGJrI,រូសា,urban,bar,Bar,nightlife,12.861527599999999,102.602674,"VJ63+4CR, Krong Pailin, Cambodia",3,2,,OPERATIONAL,,https://maps.google.com/?cid=12837025042259107136&g_mp=Cilnb29nbGUubWFwcy5wbGFjZXMudjEuUGxhY2VzLlNlYXJjaE5lYXJieRACGAQgAA,karaoke;night_club;bar;point_of_interest;establishment,night_club,Pailin town
ChIJ-Z6Jg_vpBDERs1XUygNgytQ,ម្នាក់អែង សារជាថ្មី,urban,bar,Bar,nightlife,12.8614555,102.6025691,"VJ63+4CR, Krong Pailin, Cambodia",,,,OPERATIONAL,,https://maps.google.com/?cid=15333173450740356531&g_mp=Cilnb29nbGUubWFwcy5wbGFjZXMudjEuUGxhY2VzLlNlYXJjaE5lYXJieRACGAQgAA,karaoke;night_club;bar;point_of_interest;establishment,night_club,Pailin town
ChIJP2pwOBvDBDERiAtCaQ6YnpE,Coffee Phnom,urban,night_club,Night Club,nightlife,12.8865795,102.6014411,"VHQX+8M, Krong Pailin, Cambodia",,,,OPERATIONAL,,https://maps.google.com/?cid=10492991369482734472&g_mp=Cilnb29nbGUubWFwcy5wbGFjZXMudjEuUGxhY2VzLlNlYXJjaE5lYXJieRACGAQgAA,night_club;point_of_interest;establishment,night_club,Pailin town
ChIJUZicHxDBBDERFy3NPjRBVfw,Sense Club,urban,night_club,Night Club,nightlife,12.929050199999999,102.49677260000001,"WFHW+JPC, Phsar Prum, Cambodia",5,2,,CLOSED_TEMPORARILY,,https://maps.google.com/?cid=18182510763225984279&g_mp=Cilnb29nbGUubWFwcy5wbGFjZXMudjEuUGxhY2VzLlNlYXJjaE5lYXJieRACGAQgAA,night_club;point_of_interest;establishment,night_club,Pailin town
ChIJBxmsd9m4BDERbi1UizIX3qw,สัมพันธ์การค้า,urban,shopping_mall,Shopping Mall,shopping,12.9824182,102.3966153,"7/19 โป่งน้ำร้อน Tambon Pong Nam Ron, Amphoe Pong Nam Ron, Chang Wat Chanthaburi 22140, Thailand",4.7,30,,OPERATIONAL,,https://maps.google.com/?cid=12456419125206723950&g_mp=Cilnb29nbGUubWFwcy5wbGFjZXMudjEuUGxhY2VzLlNlYXJjaE5lYXJieRACGAQgAA,shopping_mall;point_of_interest;establishment,shopping_mall,Pailin town
ChIJQ-amNADdBDEReU6IBTPL0OQ,ស្ដៅ,urban,shopping_mall,Shopping Mall,shopping,12.9092962,102.6675575,"WM59+P27, Krong Pailin, Cambodia",5,1,,OPERATIONAL,,https://maps.google.com/?cid=16487901655799975545&g_mp=Cilnb29nbGUubWFwcy5wbGFjZXMudjEuUGxhY2VzLlNlYXJjaE5lYXJieRACGAQgAA,shopping_mall;point_of_interest;establishment,shopping_mall,Pailin town
ChIJkQwV_HC5BDERPWfeKcKQ3EE,ล้งไท่หยวน อาสิงห์,urban,shopping_mall,Shopping Mall,shopping,13.008537899999999,102.3970748,"295W+CR8, 3247, Tambon Pong Nam Ron, Amphoe Pong Nam Ron, Chang Wat Chanthaburi 22140, Thailand",3.5,6,,OPERATIONAL,,https://maps.google.com/?cid=4745827270942156605&g_mp=Cilnb29nbGUubWFwcy5wbGFjZXMudjEuUGxhY2VzLlNlYXJjaE5lYXJieRACGAQgAA,shopping_mall;point_of_interest;establishment,shopping_mall,Pailin town
ChIJ5W1yHM7BBDER_oUHooucQ9A,Parking lot (Kamnan Green Scale),urban,shopping_mall,Shopping Mall,shopping,12.9245447,102.49093959999999,"59 9 ต.คลองใหญ่ Amphoe Pong Nam Ron, Chang Wat Chanthaburi 22140, Thailand",,,,OPERATIONAL,,https://maps.google.com/?cid=15007010506861413886&g_mp=Cilnb29nbGUubWFwcy5wbGFjZXMudjEuUGxhY2VzLlNlYXJjaE5lYXJieRACGAQgAA,shopping_mall;point_of_interest;establishment,shopping_mall,Pailin town
ChIJ37pVJ2bBBDERE6S7EhSAzOg,នំប៉ាវ ប៉ាប៉ាប៉ាវ (ផ្សារព្រំ),urban,shopping_mall,Shopping Mall,shopping,12.9267694,102.5101332,"57, Prum Market, Phsar Prum 230103, Cambodia",,,,OPERATIONAL,,https://maps.google.com/?cid=16774923535750243347&g_mp=Cilnb29nbGUubWFwcy5wbGFjZXMudjEuUGxhY2VzLlNlYXJjaE5lYXJieRACGAQgAA,shopping_mall;point_of_interest;establishment,shopping_mall,Pailin town
ChIJ1Q_fygzhBDERfM5p2qMAhRE,ហ៊ា សួរ,urban,shopping_mall,Shopping Mall,shopping,12.8120175,102.71674089999999,"RP68+RM5, Krong Pailin, Cambodia",3.7,6,,OPERATIONAL,,https://maps.google.com/?cid=1262415974291328636&g_mp=Cilnb29nbGUubWFwcy5wbGFjZXMudjEuUGxhY2VzLlNlYXJjaE5lYXJieRACGAQgAA,shopping_mall;point_of_interest;establishment,shopping_mall,Pailin town
ChIJVzeFOMLBBDER369oXfx6b2A,The Store,urban,shopping_mall,Shopping Mall,shopping,12.928178800000001,102.5008379,"St. 57 Phsar Prum Village Steung kach Commune, Sala kraov District Pailin Province, Phsar Prum 02455, Cambodia",5,2,,OPERATIONAL,,https://maps.google.com/?cid=6948907974373453791&g_mp=Cilnb29nbGUubWFwcy5wbGFjZXMudjEuUGxhY2VzLlNlYXJjaE5lYXJieRACGAQgAA,shopping_mall;point_of_interest;establishment,shopping_mall,Pailin town
ChIJxy14hA7oBDERNB1sj8TCs3c,កន្លែងធ្វើនំបញ្ចុក អ៊ុង ឈុំ,urban,shopping_mall,Shopping Mall,shopping,12.8502306,102.6135418,"VJ27+3CV, Krong Pailin, Cambodia",3.9,11,,OPERATIONAL,,https://maps.google.com/?cid=8625451860820237620&g_mp=Cilnb29nbGUubWFwcy5wbGFjZXMudjEuUGxhY2VzLlNlYXJjaE5lYXJieRACGAQgAA,shopping_mall;point_of_interest;establishment,shopping_mall,Pailin town
ChIJ2588RQTBBDERVb5JPy6bMzY,គីមឡេងលក់ទួរសព្ទ័ដៃរ,urban,shopping_mall,Shopping Mall,shopping,12.9255439,102.4916775,"WFGR+6M7, Khlong Yai, Pong Nam Ron District, Chanthaburi 22140, Thailand",4.3,20,,OPERATIONAL,,https://maps.google.com/?cid=3905635924792950357&g_mp=Cilnb29nbGUubWFwcy5wbGFjZXMudjEuUGxhY2VzLlNlYXJjaE5lYXJieRACGAQgAA,shopping_mall;point_of_interest;establishment,shopping_mall,Pailin town
ChIJbxu0kMW5BDERqI83Jj0j9Aw,CK จำกัด,urban,shopping_mall,Shopping Mall,shopping,13.0072323,102.3978683,"Pong Nam Ron, Pong Nam Ron District, Chanthaburi 22140, Thailand",,,,OPERATIONAL,,https://maps.google.com/?cid=933409768313687976&g_mp=Cilnb29nbGUubWFwcy5wbGFjZXMudjEuUGxhY2VzLlNlYXJjaE5lYXJieRACGAQgAA,shopping_mall;point_of_interest;establishment,shopping_mall,Pailin town
ChIJIenk4l2-BDERUI55jOJC5Qg,JCFruit ล้งลำไย,urban,shopping_mall,Shopping Mall,shopping,12.9178847,102.37015609999999,"W99C+532, Pong Nam Ron, Pong Nam Ron District, Chanthaburi 22140, Thailand",4,2,,OPERATIONAL,,https://maps.google.com/?cid=640992062756982352&g_mp=Cilnb29nbGUubWFwcy5wbGFjZXMudjEuUGxhY2VzLlNlYXJjaE5lYXJieRACGAQgAA,shopping_mall;point_of_interest;establishment,shopping_mall,Pailin town
ChIJ3eN7TZ7BBDERHBbClbwvinU,សុខសាន្ដ វេរលុយ,urban,shopping_mall,Shopping Mall,shopping,12.927327199999999,102.50332979999999,"WGG3+W8P, NR57, Phsar Prum, Cambodia",5,1,,OPERATIONAL,,https://maps.google.com/?cid=8469634536236520988&g_mp=Cilnb29nbGUubWFwcy5wbGFjZXMudjEuUGxhY2VzLlNlYXJjaE5lYXJieRACGAQgAA,shopping_mall;point_of_interest;establishment,shopping_mall,Pailin town
ChIJ_6e5NXXpBDERH2Hib3Tm2nU,ហេង​ហេង​ ជួសជុល​នឹង​ លក់ម៉ូតូ,urban,shopping_mall,Shopping Mall,shopping,12.8586175,102.60250959999999,"VJ53+C2R, NR57, Krong Pailin, Cambodia",5,1,,OPERATIONAL,https://fast.com/,https://maps.google.com/?cid=8492353435128193311&g_mp=Cilnb29nbGUubWFwcy5wbGFjZXMudjEuUGxhY2VzLlNlYXJjaE5lYXJieRACGAQgAA,shopping_mall;point_of_interest;establishment,shopping_mall,Pailin town
ChIJ0TcmUVDBBDERFeckcINq4ek,"Eastern Seoul Import Export (Thailand) Co., Ltd.",urban,shopping_mall,Shopping Mall,shopping,12.924846899999999,102.49100949999999,"59/9 หมู่ 4 คลองใหญ่ Tambon Khlong Yai, Amphoe Pong Nam Ron, Chang Wat Chanthaburi 22140, Thailand",,,,OPERATIONAL,,https://maps.google.com/?cid=16852868393351833365&g_mp=Cilnb29nbGUubWFwcy5wbGFjZXMudjEuUGxhY2VzLlNlYXJjaE5lYXJieRACGAQgAA,shopping_mall;point_of_interest;establishment,shopping_mall,Pailin town
ChIJl9P6nhjoBDERVIZ-9N2Gt9U,ZHULIAN PAILIN,urban,shopping_mall,Shopping Mall,shopping,12.859978799999999,102.5993273,"VH5X+XPW, NR57, Krong Pailin, Cambodia",3.4,9,,OPERATIONAL,,https://maps.google.com/?cid=15399925738664527444&g_mp=Cilnb29nbGUubWFwcy5wbGFjZXMudjEuUGxhY2VzLlNlYXJjaE5lYXJieRACGAQgAA,shopping_mall;point_of_interest;establishment,shopping_mall,Pailin town
ChIJuRoyk0rDBDERQb4U2C26lF4,ជាសាខន (តូបលក់អីវ៉ាន់),urban,shopping_mall,Shopping Mall,shopping,12.907665100000001,102.5628141,"WH57+348, សាលាក្រៅ, Cambodia",4,9,,OPERATIONAL,,https://maps.google.com/?cid=6815276842179935809&g_mp=Cilnb29nbGUubWFwcy5wbGFjZXMudjEuUGxhY2VzLlNlYXJjaE5lYXJieRACGAQgAA,shopping_mall;point_of_interest;establishment,shopping_mall,Pailin town
ChIJ6y1LXD7BBDER65KXASfK2hA,Kongkea168,urban,shopping_mall,Shopping Mall,shopping,12.9262458,102.4895832,"WFGQ+FRW ถนนคลองใหญ่ - เมืองปรม Tambon Khlong Yai, Amphoe Pong Nam Ron, Chang Wat Chanthaburi 22140, Thailand",,,,OPERATIONAL,,https://maps.google.com/?cid=1214505318409016043&g_mp=Cilnb29nbGUubWFwcy5wbGFjZXMudjEuUGxhY2VzLlNlYXJjaE5lYXJieRACGAQgAA,shopping_mall;point_of_interest;establishment,shopping_mall,Pailin town
ChIJSXqTQZL9BDERtRgaBdjUR_c,ពូនាងចំការទុរេនសំឡូត,urban,shopping_mall,Shopping Mall,shopping,12.6436998,102.76417239999999,"Samlout, Cambodia",2.5,2,,OPERATIONAL,,https://maps.google.com/?cid=17818444474978277557&g_mp=Cilnb29nbGUubWFwcy5wbGFjZXMudjEuUGxhY2VzLlNlYXJjaE5lYXJieRACGAQgAA,shopping_mall;point_of_interest;establishment,shopping_mall,Pailin town
ChIJOXt4Si_BBDERqemTNIU6SdE,Tree House Sak&Thon Phsar Prum Pailin,urban,shopping_mall,Shopping Mall,shopping,12.9263435,102.5095229,"WGG5+GRJ, Phsar Prum, Cambodia",5,1,,OPERATIONAL,https://web.facebook.com/anusak2518,https://maps.google.com/?cid=15080649171013986729&g_mp=Cilnb29nbGUubWFwcy5wbGFjZXMudjEuUGxhY2VzLlNlYXJjaE5lYXJieRACGAQgAA,shopping_mall;point_of_interest;establishment,shopping_mall,Pailin town
ChIJ21JHpJLpBDER6ukc7Ytr0xU,សំណង់ យន់ កប,urban,shopping_mall,Shopping Mall,shopping,12.856853899999999,102.6057424,"NR57, Krong Pailin 855924, Cambodia",5,1,,OPERATIONAL,,https://maps.google.com/?cid=1572718943605156330&g_mp=Cilnb29nbGUubWFwcy5wbGFjZXMudjEuUGxhY2VzLlNlYXJjaE5lYXJieRACGAQgAA,shopping_mall;point_of_interest;establishment,shopping_mall,Pailin town
ChIJZ8bvaADDBDERd64vOAlObyE,Steung Kach,attraction,tourist_attraction,Tourist Attraction,,12.8943073,102.5933328,"VHVV+P8G, NR57, Krong Pailin, Cambodia",5,2,,OPERATIONAL,,https://maps.google.com/?cid=2409230127170825847&g_mp=Cilnb29nbGUubWFwcy5wbGFjZXMudjEuUGxhY2VzLlNlYXJjaE5lYXJieRACGAQgAA,tourist_attraction;point_of_interest;establishment,tourist_attraction,Phnom Yat
ChIJYdX3wrfnBDERDVuXZtLNdsI,Keo Garden,attraction,tourist_attraction,Tourist Attraction,,12.8439093,102.644117,"RJVV+HJ, Krong Pailin, Cambodia",5,1,,OPERATIONAL,,https://maps.google.com/?cid=14012613594157898509&g_mp=Cilnb29nbGUubWFwcy5wbGFjZXMudjEuUGxhY2VzLlNlYXJjaE5lYXJieRACGAQgAA,tourist_attraction;point_of_interest;establishment,tourist_attraction,Phnom Yat
ChIJZ6lMWgDnBDERggH03y_tX6g,ផ្ទះតាយឿន​ Phnom Jruk Resort,attraction,tourist_attraction,Tourist Attraction,,12.834819,102.632199,"RJMJ+WV, Krong Pailin, Cambodia",,,,OPERATIONAL,,https://maps.google.com/?cid=12132676711035961730&g_mp=Cilnb29nbGUubWFwcy5wbGFjZXMudjEuUGxhY2VzLlNlYXJjaE5lYXJieRACGAQgAA,tourist_attraction;point_of_interest;establishment,tourist_attraction,Phnom Yat
ChIJZ_5RYwDpBDERzIpin2GY8Ns,Chomkar ouborn phnomyet,nature,park,Park,walking,12.829498,102.6125696,"RJH7+Q2W Chomkar ouborn phnomyet, Krong Pailin, Cambodia",,,,OPERATIONAL,,https://maps.google.com/?cid=15848334633770060492&g_mp=Cilnb29nbGUubWFwcy5wbGFjZXMudjEuUGxhY2VzLlNlYXJjaE5lYXJieRACGAQgAA,park;point_of_interest;establishment,park,Phnom Yat
ChIJRed1UtjnBDERI8rOu0y6_cQ,ផ្ទះសួនផ្កាអ្នកចម្ការ,nature,park,Park,walking,12.8400375,102.62957809999999,"RJRH+2R8, NR57, Krong Pailin, Cambodia",5,1,,OPERATIONAL,,https://maps.google.com/?cid=14194706439272843811&g_mp=Cilnb29nbGUubWFwcy5wbGFjZXMudjEuUGxhY2VzLlNlYXJjaE5lYXJieRACGAQgAA,park;point_of_interest;establishment,park,Phnom Yat
ChIJwwMX-6PpBDER2Mg-03WVNL0,ផាន់ វទ្ធី Phan Vuthy,nature,park,Park,walking,12.8629844,102.5772982,"VH7G+5W, Krong Pailin, Cambodia",,,,OPERATIONAL,,https://maps.google.com/?cid=13633686305245153496&g_mp=Cilnb29nbGUubWFwcy5wbGFjZXMudjEuUGxhY2VzLlNlYXJjaE5lYXJieRACGAQgAA,park;point_of_interest;establishment,park,Phnom Yat
ChIJXza4TxLoBDERAJQ-P5vPpJo,Ratanak Sophoan Pagoda (Wat Kaong Kang),cultural,buddhist_temple,Buddhist Temple,sightseeing,12.8480901,102.6077825,"RJX5+64M, National Highway 57, Krong Pailin, Cambodia",4.4,16,,OPERATIONAL,,https://maps.google.com/?cid=11143259643709395968&g_mp=Cilnb29nbGUubWFwcy5wbGFjZXMudjEuUGxhY2VzLlNlYXJjaE5lYXJieRACGAQgAA,buddhist_temple;place_of_worship;association_or_organization;point_of_interest;establishment,buddhist_temple,Phnom Yat
ChIJq-DR4YzCBDEREcTjLYVXkOY,វត្តបេង,cultural,place_of_worship,Place of Worship,sightseeing,12.889166999999999,102.58426759999999,"VHQM+MP6, National Highway 57, Krong Pailin, Cambodia",4.1,10,,OPERATIONAL,,https://maps.google.com/?cid=16613875254881928209&g_mp=Cilnb29nbGUubWFwcy5wbGFjZXMudjEuUGxhY2VzLlNlYXJjaE5lYXJieRACGAQgAA,buddhist_temple;place_of_worship;association_or_organization;point_of_interest;establishment,buddhist_temple,Phnom Yat
ChIJacGFqxLoBDER_PlxNlOtC0I,Eight Doors Direction Temple,cultural,buddhist_temple,Buddhist Temple,sightseeing,12.8446126,102.6097951,"RJV5+RWV, Krong Pailin, Cambodia",4.4,18,,OPERATIONAL,,https://maps.google.com/?cid=4759088004154391036&g_mp=Cilnb29nbGUubWFwcy5wbGFjZXMudjEuUGxhY2VzLlNlYXJjaE5lYXJieRACGAQgAA,buddhist_temple;place_of_worship;association_or_organization;point_of_interest;establishment,buddhist_temple,Phnom Yat
ChIJ9SK4d4bpBDERlrCuAsodJJg,សង្ឃមណ្ឌបរិស្ថាន(ព្រៃសង្ឃវន) Monk OF The Environment Center,cultural,buddhist_temple,Buddhist Temple,sightseeing,12.8354965,102.5524291,"ភូមិបរហ៊ុយត្បូង, RHP2+5XV, Krong Pailin, Cambodia",2.3,4,,OPERATIONAL,,https://maps.google.com/?cid=10962920146392232086&g_mp=Cilnb29nbGUubWFwcy5wbGFjZXMudjEuUGxhY2VzLlNlYXJjaE5lYXJieRACGAQgAA,buddhist_temple;place_of_worship;association_or_organization;point_of_interest;establishment,buddhist_temple,Phnom Yat
ChIJPfDm_XDpBDER3wBqinQkZjA,មជ្ឍមណ្ឌលវិប្បសនាធុរៈខេត្តប៉ៃលិន,cultural,buddhist_temple,Buddhist Temple,sightseeing,12.8407977,102.6076506,"RJR5+836, Unnamed Road, Krong Pailin, Cambodia",4,1,,OPERATIONAL,,https://maps.google.com/?cid=3487515044402036959&g_mp=Cilnb29nbGUubWFwcy5wbGFjZXMudjEuUGxhY2VzLlNlYXJjaE5lYXJieRACGAQgAA,buddhist_temple;place_of_worship;association_or_organization;point_of_interest;establishment,buddhist_temple,Phnom Yat
ChIJ3SKYeqzpBDERwmcXB6A0WRA,ព្រះចូឡាមុនីចេតិយ,cultural,buddhist_temple,Buddhist Temple,sightseeing,12.8452852,102.61008439999999,"RJW6+428, Krong Pailin, Cambodia",4.6,5,,OPERATIONAL,,https://maps.google.com/?cid=1178030639452481474&g_mp=Cilnb29nbGUubWFwcy5wbGFjZXMudjEuUGxhY2VzLlNlYXJjaE5lYXJieRACGAQgAA,buddhist_temple;place_of_worship;association_or_organization;point_of_interest;establishment,buddhist_temple,Phnom Yat
ChIJ-dAhNrjpBDER8VXoxKem4rs,SIGBP 2015,cultural,buddhist_temple,Buddhist Temple,sightseeing,12.8460299,102.61438059999999,"RJW7+CQ6, NR57, Krong Pailin, Cambodia",,,,OPERATIONAL,,https://maps.google.com/?cid=13538566669322442225&g_mp=Cilnb29nbGUubWFwcy5wbGFjZXMudjEuUGxhY2VzLlNlYXJjaE5lYXJieRACGAQgAA,buddhist_temple;place_of_worship;association_or_organization;point_of_interest;establishment,buddhist_temple,Phnom Yat
ChIJzwbK8nDpBDERKjklaCRWM3w,LSC Mart,urban,shopping_mall,Shopping Mall,shopping,12.850375,102.6094693,"VJ25+4QX, Krong Pailin, Cambodia",4,1,,OPERATIONAL,,https://maps.google.com/?cid=8949591598881388842&g_mp=Cilnb29nbGUubWFwcy5wbGFjZXMudjEuUGxhY2VzLlNlYXJjaE5lYXJieRACGAQgAA,shopping_mall;point_of_interest;establishment,shopping_mall,Phnom Yat
ChIJv_mf-RroBDERwPyzlop7p2I,Dyna phone shop,urban,shopping_mall,Shopping Mall,shopping,12.858084999999999,102.60753969999999,"VJ55+62M, Krong Pailin, Cambodia",4.3,6,,OPERATIONAL,,https://maps.google.com/?cid=7108786371991698624&g_mp=Cilnb29nbGUubWFwcy5wbGFjZXMudjEuUGxhY2VzLlNlYXJjaE5lYXJieRACGAQgAA,shopping_mall;point_of_interest;establishment,shopping_mall,Phnom Yat
ChIJ91QYLPzpBDERv9tQuK1gtT8,សុទ្ធ វ៉ាន់សៀម លក់ទូរស័ព្ទ,urban,shopping_mall,Shopping Mall,shopping,12.8595042,102.6045335,"VJ53+QQ5, Krong Pailin, Cambodia",,,,OPERATIONAL,,https://maps.google.com/?cid=4590681694412004287&g_mp=Cilnb29nbGUubWFwcy5wbGFjZXMudjEuUGxhY2VzLlNlYXJjaE5lYXJieRACGAQgAA,shopping_mall;point_of_interest;establishment,shopping_mall,Phnom Yat
ChIJ8eMo59DpBDER-NpbHnx4las,Pich Pailin Mini Mart,urban,shopping_mall,Shopping Mall,shopping,12.858564999999999,102.60269439999999,"NR57, Krong Pailin, Cambodia",,,,OPERATIONAL,,https://maps.google.com/?cid=12363920826496178936&g_mp=Cilnb29nbGUubWFwcy5wbGFjZXMudjEuUGxhY2VzLlNlYXJjaE5lYXJieRACGAQgAA,shopping_mall;point_of_interest;establishment,shopping_mall,Phnom Yat
