google_place_id,name,category,primary_type,primary_type_name,activities,activity_type,lat,lon,address,rating,rating_count,price_level,business_status,website,google_maps_url,all_types,found_via_category,found_via_cell
ChIJ50ZSm1rjBzERJTX2c3eEBFY,BROWN Coffee | Seaview,coffee,coffee_shop,Coffee Shop,coffee,coffee,10.5839836,103.54279129999999,"HGMV+H4V Oucheteal Beach, Near បន្ទប់ទឹកលេខ៤, Preah Sihanouk, Cambodia",4.4,1060,PRICE_LEVEL_MODERATE,OPERATIONAL,http://www.browncoffee.com.kh/,https://maps.google.com/?cid=6198224635750135077&g_mp=Cilnb29nbGUubWFwcy5wbGFjZXMudjEuUGxhY2VzLlNlYXJjaE5lYXJieRACGAQgAA,coffee_shop;cafe;food_store;store;food;point_of_interest;establishment,coffee_shop,Sihanoukville
ChIJu_6RFq_hBzERNNqiLo2YvZw,TUBE COFFEE SIHANOUKVILLE,coffee,coffee_shop,Coffee Shop,coffee,coffee,10.6206192,103.5258671,"Street 7 Makara, Phum 2, Sihanouk, Cambodia",4.6,81,,OPERATIONAL,,https://maps.google.com/?cid=11294351172655307316&g_mp=Cilnb29nbGUubWFwcy5wbGFjZXMudjEuUGxhY2VzLlNlYXJjaE5lYXJieRACGAQgAA,coffee_shop;cafe;food_store;store;food;point_of_interest;establishment,coffee_shop,Sihanoukville
ChIJEdSncQDhBzER5-2HXiygXjI,Coffee corner កាហ្វេខនណើរ,coffee,coffee_shop,Coffee Shop,coffee,coffee,10.623058799999999,103.5211386,"JGFC+6CM, Preah Sihanouk, Cambodia",4.5,30,,OPERATIONAL,,https://maps.google.com/?cid=3629514462132170215&g_mp=Cilnb29nbGUubWFwcy5wbGFjZXMudjEuUGxhY2VzLlNlYXJjaE5lYXJieRACGAQgAA,coffee_shop;cafe;food_store;store;food;point_of_interest;establishment,coffee_shop,Sihanoukville
ChIJjYF0fbfhBzERcH-0pHOQ5e0,ផ្សារទំនប់រលក,coffee,coffee_shop,Coffee Shop,coffee,coffee,10.663931,103.5221786,"MG7C+GVM, Preah Sihanouk, Cambodia",4.1,45,,OPERATIONAL,,https://maps.google.com/?cid=17142266383014592368&g_mp=Cilnb29nbGUubWFwcy5wbGFjZXMudjEuUGxhY2VzLlNlYXJjaE5lYXJieRACGAQgAA,coffee_shop;cafe;food_store;store;food;point_of_interest;establishment,coffee_shop,Sihanoukville
ChIJq9L_KgDhBzERQzhAGuzkRFo,Starbucks Reserve (Peninsula Bay),coffee,coffee_shop,Coffee Shop,coffee,coffee,10.604457,103.517715,"City, Unit A19 Peninsula Bay, No. 1745, Preah Sihanouk, Cambodia",4,57,,OPERATIONAL,,https://maps.google.com/?cid=6504575464533669955&g_mp=Cilnb29nbGUubWFwcy5wbGFjZXMudjEuUGxhY2VzLlNlYXJjaE5lYXJieRACGAQgAA,coffee_shop;cafe;food_store;store;food;point_of_interest;establishment,coffee_shop,Sihanoukville
ChIJ7SDShWbhBzERq8OqPfdho_4,The Pier by Ocean,coffee,coffee_shop,Coffee Shop,coffee,coffee,10.640340499999999,103.5016223,"10.640340504374647, 103.50157931104415, Preah Sihanouk, Cambodia",4.3,154,,OPERATIONAL,,https://maps.google.com/?cid=18348617021356950443&g_mp=Cilnb29nbGUubWFwcy5wbGFjZXMudjEuUGxhY2VzLlNlYXJjaE5lYXJieRACGAQgAA,coffee_shop;cafe;food_store;store;food;point_of_interest;establishment,coffee_shop,Sihanoukville
ChIJYQCOfgDhBzERlZwqKmr3qYQ,The Pier 206,coffee,coffee_shop,Coffee Shop,coffee,coffee,10.6202793,103.5257594,"Preah Sihanouk, Cambodia",4.5,44,,OPERATIONAL,,https://maps.google.com/?cid=9559443719416618133&g_mp=Cilnb29nbGUubWFwcy5wbGFjZXMudjEuUGxhY2VzLlNlYXJjaE5lYXJieRACGAQgAA,coffee_shop;cafe;food_store;store;food;point_of_interest;establishment,coffee_shop,Sihanoukville
ChIJIXA2HMjhBzER4QWjga0tHYo,Zero8 Chamkar Spei,coffee,coffee_shop,Coffee Shop,coffee,coffee,10.6182775,103.5202288,"JGGF+CGX, Preah Sihanouk, Cambodia",4.3,47,,OPERATIONAL,,https://maps.google.com/?cid=9952160974786201057&g_mp=Cilnb29nbGUubWFwcy5wbGFjZXMudjEuUGxhY2VzLlNlYXJjaE5lYXJieRACGAQgAA,coffee_shop;cafe;food_store;store;food;point_of_interest;establishment,coffee_shop,Sihanoukville
ChIJZygyqGHhBzEREOINA1JoNxE,Starbucks | FURI Times,coffee,coffee_shop,Coffee Shop,coffee,coffee,10.630688,103.5054315,"Preah Sihanouk, Cambodia",4.1,185,PRICE_LEVEL_MODERATE,OPERATIONAL,,https://maps.google.com/?cid=1240574923811709456&g_mp=Cilnb29nbGUubWFwcy5wbGFjZXMudjEuUGxhY2VzLlNlYXJjaE5lYXJieRACGAQgAA,coffee_shop;cafe;food_store;store;food;point_of_interest;establishment,coffee_shop,Sihanoukville
ChIJR1JdGADhBzER-S0ItZ7IC3w,ស្លឹកកាហ្វេ,coffee,coffee_shop,Coffee Shop,coffee,coffee,10.6150421,103.53931639999999,"JG7Q+WQC, Street Nº 814, Preah Sihanouk, Cambodia",4.7,21,,OPERATIONAL,,https://maps.google.com/?cid=8938458469414481401&g_mp=Cilnb29nbGUubWFwcy5wbGFjZXMudjEuUGxhY2VzLlNlYXJjaE5lYXJieRACGAQgAA,coffee_shop;cafe;food_store;store;food;point_of_interest;establishment,coffee_shop,Sihanoukville
ChIJ1f8_CoLhBzERMbwmUzRapN8,Dark coffee,coffee,coffee_shop,Coffee Shop,coffee,coffee,10.6166925,103.52541409999999,"1032, Preah Sihanouk, Cambodia",4.8,44,,OPERATIONAL,,https://maps.google.com/?cid=16115104547418324017&g_mp=Cilnb29nbGUubWFwcy5wbGFjZXMudjEuUGxhY2VzLlNlYXJjaE5lYXJieRACGAQgAA,coffee_shop;cafe;food_store;store;food;point_of_interest;establishment,coffee_shop,Sihanoukville
ChIJH0ITeAB1CDERuixIMCNpjeQ,Blue & Chill Resort,coffee,resort_hotel,Resort hotel,coffee,coffee,10.703268,103.546222,"PG3W+9G, Preah Sihanouk, Cambodia",4.4,38,,OPERATIONAL,https://www.blueandchill.com/,https://maps.google.com/?cid=16468935012218580154&g_mp=Cilnb29nbGUubWFwcy5wbGFjZXMudjEuUGxhY2VzLlNlYXJjaE5lYXJieRACGAQgAA,resort_hotel;coffee_shop;cafe;hotel;food_store;store;lodging;food;point_of_interest;establishment,coffee_shop,Sihanoukville
ChIJQ2YuKwDhBzERcUAcIJwAxrI,KIRI CAFE,coffee,coffee_shop,Coffee Shop,coffee,coffee,10.629274899999999,103.516491,"JGH8+PH5, Preah Sihanouk, Cambodia",4.8,24,,OPERATIONAL,,https://maps.google.com/?cid=12881984454693503089&g_mp=Cilnb29nbGUubWFwcy5wbGFjZXMudjEuUGxhY2VzLlNlYXJjaE5lYXJieRACGAQgAA,coffee_shop;cafe;food_store;store;food;point_of_interest;establishment,coffee_shop,Sihanoukville
ChIJe28zuOvhBzERSv5zwxKhP0Y,Doi Chaang Caffe (Ochheuteal Beach),coffee,coffee_shop,Coffee Shop,coffee,coffee,10.599999900000002,103.5304614,"ឆ្នេរអូរឈើទាល, Preah Sihanouk, Cambodia",4.4,157,,OPERATIONAL,,https://maps.google.com/?cid=5061941608148368970&g_mp=Cilnb29nbGUubWFwcy5wbGFjZXMudjEuUGxhY2VzLlNlYXJjaE5lYXJieRACGAQgAA,coffee_shop;cafe;food_store;store;food;point_of_interest;establishment,coffee_shop,Sihanoukville
ChIJ5Zid_TzhBzERcieH5kVDHHc,Caltex o1 អូរមួយ ក្រុងព្រះសីហនុ,coffee,gas_station,Gas Station,coffee,coffee,10.6239575,103.5331641,"Mittapheap St, Preah Sihanouk, Cambodia",4.4,49,,OPERATIONAL,,https://maps.google.com/?cid=8582808957360744306&g_mp=Cilnb29nbGUubWFwcy5wbGFjZXMudjEuUGxhY2VzLlNlYXJjaE5lYXJieRACGAQgAA,gas_station;coffee_shop;cafe;food_store;store;service;food;point_of_interest;establishment,coffee_shop,Sihanoukville
ChIJSz7EWwDjBzERuaCiuGJsk5k,Café Amazon Ocheuteal,coffee,coffee_shop,Coffee Shop,coffee,coffee,10.592168599999999,103.53730739999999,"HGRP+VW, Preah Sihanouk, Cambodia",4.4,36,,OPERATIONAL,,https://maps.google.com/?cid=11066307880639701177&g_mp=Cilnb29nbGUubWFwcy5wbGFjZXMudjEuUGxhY2VzLlNlYXJjaE5lYXJieRACGAQgAA,coffee_shop;cafe;food_store;store;food;point_of_interest;establishment,coffee_shop,Sihanoukville
ChIJUdr25tThBzERMREHGtJ6kZk,Sun Sand Coffee,coffee,coffee_shop,Coffee Shop,coffee,coffee,10.623768199999999,103.5254646,"Street 207, Preah Sihanouk, Cambodia",4.2,23,,OPERATIONAL,,https://maps.google.com/?cid=11065760802224410929&g_mp=Cilnb29nbGUubWFwcy5wbGFjZXMudjEuUGxhY2VzLlNlYXJjaE5lYXJieRACGAQgAA,coffee_shop;cafe;food_store;store;food;point_of_interest;establishment,coffee_shop,Sihanoukville
ChIJRRk6Hy_hBzERj0JymS3Glqc,Cafery,coffee,cake_shop,Cake Shop,coffee,coffee,10.618180299999999,103.52328059999999,"Sereypheap St, Preah Sihanouk, Cambodia",4.7,24,,OPERATIONAL,,https://maps.google.com/?cid=12076057349990793871&g_mp=Cilnb29nbGUubWFwcy5wbGFjZXMudjEuUGxhY2VzLlNlYXJjaE5lYXJieRACGAQgAA,cake_shop;coffee_shop;cafe;bakery;wholesaler;food_store;store;manufacturer;food;point_of_interest;establishment,coffee_shop,Sihanoukville
ChIJq4zdCwDhBzERf0tSSYz_hXU,Zero8 2nd Branch,coffee,coffee_shop,Coffee Shop,coffee,coffee,10.6108672,103.5378703,"JG6Q+8C6, Street 384, Preah Sihanouk, Cambodia",4.4,14,,OPERATIONAL,,https://maps.google.com/?cid=8468455652330720127&g_mp=Cilnb29nbGUubWFwcy5wbGFjZXMudjEuUGxhY2VzLlNlYXJjaE5lYXJieRACGAQgAA,coffee_shop;cafe;food_store;store;food;point_of_interest;establishment,coffee_shop,Sihanoukville
ChIJvfGXfQDhBzERMFIoIbUJPNk,He Coffee Bar,coffee,coffee_shop,Coffee Shop,coffee,coffee,10.615521399999999,103.5370628,"JG8P+6R3, Preah Sihanouk, Cambodia",4.5,6,,OPERATIONAL,,https://maps.google.com/?cid=15653397078383022640&g_mp=Cilnb29nbGUubWFwcy5wbGFjZXMudjEuUGxhY2VzLlNlYXJjaE5lYXJieRACGAQgAA,coffee_shop;cafe;food_store;store;food;point_of_interest;establishment,coffee_shop,Sihanoukville
ChIJvaJpeAjhBzERjVz1XJndkVM,DDoS - Café,coffee,cafe,Cafe,coffee,coffee,10.6164896,103.5071014,"Mithonu, SK3, Mitapheap, St. 28, Preah Sihanouk 180101, Cambodia",4.5,34,,OPERATIONAL,http://www.ddoscafe.com/,https://maps.google.com/?cid=6021837827530382477&g_mp=Cilnb29nbGUubWFwcy5wbGFjZXMudjEuUGxhY2VzLlNlYXJjaE5lYXJieRACGAQgAA,cafe;food;point_of_interest;establishment,cafe,Sihanoukville
ChIJG8i3PO3hBzER9KfgSO1iCcU,Invito Guesthouse,coffee,guest_house,Guest House,coffee,coffee,10.6084137,103.52186859999999,"Serendipity Beach Street (502), Preah Sihanouk, Cambodia",3.6,228,PRICE_LEVEL_INEXPENSIVE,OPERATIONAL,,https://maps.google.com/?cid=14197988071531653108&g_mp=Cilnb29nbGUubWFwcy5wbGFjZXMudjEuUGxhY2VzLlNlYXJjaE5lYXJieRACGAQgAA,guest_house;steak_house;cafe;restaurant;lodging;food;point_of_interest;establishment,cafe,Sihanoukville
ChIJLzsnN0vgBzERNTGKegR3ADg,Keang You Guesthouse,coffee,hotel,Hotel,coffee,coffee,10.640483699999999,103.51633149999999,"Street 705, Preah Sihanouk, Cambodia",4.5,192,,OPERATIONAL,https://www.facebook.com/KeangYouGuesthouse/,https://maps.google.com/?cid=4035356127243415861&g_mp=Cilnb29nbGUubWFwcy5wbGFjZXMudjEuUGxhY2VzLlNlYXJjaE5lYXJieRACGAQgAA,hotel;cafe;restaurant;lodging;food;point_of_interest;establishment,cafe,Sihanoukville
ChIJ2wxR3evpBzERmUTAesnpun4,Jungle Bar and kitchen,coffee,restaurant,Restaurant,coffee,coffee,10.6633249,103.2732451,"Preah Sihanouk, Cambodia",4.8,329,,CLOSED_TEMPORARILY,https://www.facebook.com/junglebarkr,https://maps.google.com/?cid=9131868246004221081&g_mp=Cilnb29nbGUubWFwcy5wbGFjZXMudjEuUGxhY2VzLlNlYXJjaE5lYXJieRACGAQgAA,restaurant;hamburger_restaurant;pizza_restaurant;coffee_shop;tour_agency;live_music_venue;cafe;travel_agency;meal_takeaway;food_store;american_restaurant;store;bar;event_venue;service;food;point_of_interest;establishment,coffee_shop,Koh Rong
ChIJCwiYGUXpBzERcPiOPWRiHtg,CASA MIA PIZZERIA KOH RONG,coffee,pizza_restaurant,Pizza Restaurant,coffee,coffee,10.68319,103.2859617,"Pub street Long Set Koh Rong island, Koh, Rong 12500, Cambodia",4.6,320,,OPERATIONAL,,https://maps.google.com/?cid=15572992744162785392&g_mp=Cilnb29nbGUubWFwcy5wbGFjZXMudjEuUGxhY2VzLlNlYXJjaE5lYXJieRACGAQgAA,pizza_restaurant;coffee_shop;cafe;food_store;store;restaurant;food;point_of_interest;establishment,coffee_shop,Koh Rong
ChIJUdzPihPpBzERXWIcKcUDokE,Bella Vista,coffee,coffee_shop,Coffee Shop,coffee,coffee,10.666286600000001,103.273088,"Ko rong island, village, Preah Sihanouk 18205, Cambodia",4.8,166,,OPERATIONAL,,https://maps.google.com/?cid=4729346704025608797&g_mp=Cilnb29nbGUubWFwcy5wbGFjZXMudjEuUGxhY2VzLlNlYXJjaE5lYXJieRACGAQgAA,coffee_shop;cafe;food_store;store;food;point_of_interest;establishment,coffee_shop,Koh Rong
ChIJpzijTZfpBzER1oEONH3lz4M,The Balcony Koh Rong - Coffee & Wine house,coffee,wine_bar,Wine Bar,coffee,coffee,10.6815977,103.2785617,"Koh Rong Long Set, Sala Krong, Preah Sihanouk 18000, Cambodia",5,113,,OPERATIONAL,,https://maps.google.com/?cid=9498062465054704086&g_mp=Cilnb29nbGUubWFwcy5wbGFjZXMudjEuUGxhY2VzLlNlYXJjaE5lYXJieRACGAQgAA,wine_bar;coffee_shop;cafe;food_store;store;bar;food;point_of_interest;establishment,coffee_shop,Koh Rong
ChIJO5C1xz7pBzERQCunkYeF6jw,Beach House Cambodia,coffee,guest_house,Guest House,coffee,coffee,10.6225334,103.2935825,"M'Pai Bay, 7 Street 23, ក្រុងព្រះសីហនុ 180405, Cambodia",4.6,232,,OPERATIONAL,http://www.beachhousecambodia.com/,https://maps.google.com/?cid=4389467604136700736&g_mp=Cilnb29nbGUubWFwcy5wbGFjZXMudjEuUGxhY2VzLlNlYXJjaE5lYXJieRACGAQgAA,guest_house;bed_and_breakfast;coffee_shop;hostel;cafe;food_store;store;bar;lodging;restaurant;food;point_of_interest;establishment,coffee_shop,Koh Rong
ChIJE40lrJnpBzER8RvRCPuzPjM,Good morning,coffee,coffee_shop,Coffee Shop,coffee,coffee,10.665733399999999,103.27294850000001,"M78F+75V Koh Rong Island, Koh Tui Beach, Preah Sihanouk, Cambodia",4.7,19,,OPERATIONAL,,https://maps.google.com/?cid=3692586635256470513&g_mp=Cilnb29nbGUubWFwcy5wbGFjZXMudjEuUGxhY2VzLlNlYXJjaE5lYXJieRACGAQgAA,coffee_shop;cafe;food_store;store;food;point_of_interest;establishment,coffee_shop,Koh Rong
ChIJf39znyjpBzERF8JaVEdkggc,The Hornbill Cafe and Hostel,coffee,cafe,Cafe,coffee,coffee,10.621305099999999,103.2925379,"M'pai Bay, Unnamed street, ក្រុងព្រះសីហនុ, Cambodia",4.6,74,,OPERATIONAL,https://www.facebook.com/HBHQ.CAMBODIA,https://maps.google.com/?cid=541105162758570519&g_mp=Cilnb29nbGUubWFwcy5wbGFjZXMudjEuUGxhY2VzLlNlYXJjaE5lYXJieRACGAQgAA,cafe;coffee_shop;hostel;food_store;store;bar;lodging;restaurant;food;point_of_interest;establishment,coffee_shop,Koh Rong
ChIJBbdSVQC3BzERc5jmJfw_Zm4,ព្រេកខ្សាច់,coffee,coffee_shop,Coffee Shop,coffee,coffee,10.9139517,103.1213665,"W47C+QW, ឃុំ កោះស្ដេច, Cambodia",4.3,3,,OPERATIONAL,,https://maps.google.com/?cid=7955116143996737651&g_mp=Cilnb29nbGUubWFwcy5wbGFjZXMudjEuUGxhY2VzLlNlYXJjaE5lYXJieRACGAQgAA,coffee_shop;cafe;food_store;store;food;point_of_interest;establishment,coffee_shop,Koh Rong
ChIJ5dyOxCbBBzERtlzlmH8GSUc,Mafiya's Café,coffee,coffee_shop,Coffee Shop,coffee,coffee,10.736856999999999,103.2003096,"P6P2+P4, Preah Sihanouk, Cambodia",4.1,7,,OPERATIONAL,,https://maps.google.com/?cid=5136643995088542902&g_mp=Cilnb29nbGUubWFwcy5wbGFjZXMudjEuUGxhY2VzLlNlYXJjaE5lYXJieRACGAQgAA,coffee_shop;cafe;food_store;store;food;point_of_interest;establishment,coffee_shop,Koh Rong
ChIJ_4jaDfnpBzER5Bs8CipBAgE,SEA HOUSE COFFEE,coffee,coffee_shop,Coffee Shop,coffee,coffee,10.6666829,103.2738734,"koh rong island sihanoukville, Preah Sihanouk 18000, Cambodia",5,3,,CLOSED_TEMPORARILY,,https://maps.google.com/?cid=72692192807492580&g_mp=Cilnb29nbGUubWFwcy5wbGFjZXMudjEuUGxhY2VzLlNlYXJjaE5lYXJieRACGAQgAA,coffee_shop;cafe;food_store;store;restaurant;food;point_of_interest;establishment,coffee_shop,Koh Rong
ChIJC-OcXADpBzERax9aIRvReOI,លោករឹម,coffee,coffee_shop,Coffee Shop,coffee,coffee,10.6059235,103.30487470000001,"J843+9X, Preah Sihanouk, Cambodia",1.5,2,,OPERATIONAL,,https://maps.google.com/?cid=16319023164230868843&g_mp=Cilnb29nbGUubWFwcy5wbGFjZXMudjEuUGxhY2VzLlNlYXJjaE5lYXJieRACGAQgAA,coffee_shop;cafe;food_store;store;food;point_of_interest;establishment,coffee_shop,Koh Rong
ChIJHcGzeQDBBzERIaHd96iHWvk,Sweet Coffee & Restaurant 🍴,coffee,coffee_shop,Coffee Shop,coffee,coffee,10.714233199999999,103.2387165,"P67Q+MF, Preah Sihanouk, Cambodia",4.9,46,,OPERATIONAL,,https://maps.google.com/?cid=17967822823130767649&g_mp=Cilnb29nbGUubWFwcy5wbGFjZXMudjEuUGxhY2VzLlNlYXJjaE5lYXJieRACGAQgAA,coffee_shop;cafe;food_store;store;food;point_of_interest;establishment,coffee_shop,Koh Rong
ChIJZ40bcQDpBzEREVaWUK7H1rs,TrueCafe,coffee,coffee_shop,Coffee Shop,coffee,coffee,10.665659,103.2744197,"M78F+7Q7 Koh Rong Community Pier, Preah Sihanouk, Cambodia",4.7,3,,OPERATIONAL,https://truecafe.vn/,https://maps.google.com/?cid=13535225281598871057&g_mp=Cilnb29nbGUubWFwcy5wbGFjZXMudjEuUGxhY2VzLlNlYXJjaE5lYXJieRACGAQgAA,coffee_shop;cafe;food_store;store;food;point_of_interest;establishment,coffee_shop,Koh Rong
ChIJvTXei77vBzERTcHI4LHasmo,Coffee shop,coffee,coffee_shop,Coffee Shop,coffee,coffee,10.5775774,103.3100573,"H8H6+32, Preah Sihanouk, Cambodia",5,1,,OPERATIONAL,,https://maps.google.com/?cid=7688447971390177613&g_mp=Cilnb29nbGUubWFwcy5wbGFjZXMudjEuUGxhY2VzLlNlYXJjaE5lYXJieRACGAQgAA,coffee_shop;cafe;food_store;store;food;point_of_interest;establishment,coffee_shop,Koh Rong
ChIJR4VnWQDpBzERz10KUCJ04C4,ធ្ទះអ៊ុំផល,coffee,coffee_shop,Coffee Shop,coffee,coffee,10.6053248,103.3055212,"J844+2F5, Preah Sihanouk, Cambodia",,,,OPERATIONAL,,https://maps.google.com/?cid=3377827411248438735&g_mp=Cilnb29nbGUubWFwcy5wbGFjZXMudjEuUGxhY2VzLlNlYXJjaE5lYXJieRACGAQgAA,coffee_shop;cafe;food_store;store;food;point_of_interest;establishment,coffee_shop,Koh Rong
ChIJeSAgIADvBzERSeC0C--nu6g,ហាងកាហ្វេD.Kកោះរ៉ុងសន្លឹម,coffee,coffee_shop,Coffee Shop,coffee,coffee,10.5471875,103.32168750000001,"G8WC+VM, Preah Sihanouk, Cambodia",,,,OPERATIONAL,,https://maps.google.com/?cid=12158496264152211529&g_mp=Cilnb29nbGUubWFwcy5wbGFjZXMudjEuUGxhY2VzLlNlYXJjaE5lYXJieRACGAQgAA,coffee_shop;cafe;food_store;store;food;point_of_interest;establishment,coffee_shop,Koh Rong
ChIJcXO7WQDBBzERxG8B4FOW7nY,Prek Svay Café,coffee,coffee_shop,Coffee Shop,coffee,coffee,10.7646132,103.2478283,"Q67X+R4W, Preah Sihanouk, Cambodia",5,14,,OPERATIONAL,,https://maps.google.com/?cid=8569952427917275076&g_mp=Cilnb29nbGUubWFwcy5wbGFjZXMudjEuUGxhY2VzLlNlYXJjaE5lYXJieRACGAQgAA,coffee_shop;cafe;food_store;store;food;point_of_interest;establishment,coffee_shop,Koh Rong
ChIJv-dg3CDpBzERHIapOP-3NP8,"Prime Meats Butcher Shop, Grill, Cafe, Bed & Breakfast Koh Rong",coffee,food_store,Food Store,coffee,coffee,10.6793541,103.2770376,"Samsara Villas Entrance, Preah Sihanouk 18000, Cambodia",5,3,,OPERATIONAL,https://primemeatskohrong.com/,https://maps.google.com/?cid=18389525485255755292&g_mp=Cilnb29nbGUubWFwcy5wbGFjZXMudjEuUGxhY2VzLlNlYXJjaE5lYXJieRACGAQgAA,butcher_shop;bar_and_grill;coffee_shop;steak_house;market;cafe;food_store;store;health;bar;manufacturer;service;restaurant;food;point_of_interest;establishment,coffee_shop,Koh Rong
ChIJrb-ljvjBBzERV8RifDAcdZU,Homestay&walkingstreets,coffee,coffee_shop,Coffee Shop,coffee,coffee,10.678663199999999,103.27655709999999,"Preah Sihanouk, Cambodia",,,,OPERATIONAL,,https://maps.google.com/?cid=10769545078497264727&g_mp=Cilnb29nbGUubWFwcy5wbGFjZXMudjEuUGxhY2VzLlNlYXJjaE5lYXJieRACGAQgAA,coffee_shop;cafe;food_store;store;food;point_of_interest;establishment,coffee_shop,Koh Rong
ChIJBU3GfY7pBzER0fl2IWjGGls,Ava Café,coffee,coffee_shop,Coffee Shop,coffee,coffee,10.6834908,103.2862378,"Long set pier, Preah Sihanouk 18000, Cambodia",5,28,,OPERATIONAL,,https://maps.google.com/?cid=6564777557386262993&g_mp=Cilnb29nbGUubWFwcy5wbGFjZXMudjEuUGxhY2VzLlNlYXJjaE5lYXJieRACGAQgAA,coffee_shop;cafe;food_store;store;food;point_of_interest;establishment,coffee_shop,Koh Rong
ChIJ6btAC-3hBzERcGL_1X8UvCM,Enocafe Coffee & Italian Restaurant,coffee,italian_restaurant,Italian Restaurant,coffee,coffee,10.665881299999999,103.2726132,"Koh toch village Koh toch village, Koh Rong commune, Koh Rong Island, Preah Sihanouk, Cambodia",4.6,668,PRICE_LEVEL_MODERATE,OPERATIONAL,https://m.facebook.com/enocafekohrong/,https://maps.google.com/?cid=2574955626232767088&g_mp=Cilnb29nbGUubWFwcy5wbGFjZXMudjEuUGxhY2VzLlNlYXJjaE5lYXJieRACGAQgAA,italian_restaurant;pizza_restaurant;bistro;cafe;restaurant;food;point_of_interest;establishment,cafe,Koh Rong
ChIJ3WbgBHHvBzERrjD4RJK-IZI,Lucky Sun Hostel,coffee,hostel,Hostel,coffee,coffee,10.5788186,103.3085835,"Saracen Bay, Preah Sihanouk, Cambodia",4.3,112,,OPERATIONAL,,https://maps.google.com/?cid=10529906939200549038&g_mp=Cilnb29nbGUubWFwcy5wbGFjZXMudjEuUGxhY2VzLlNlYXJjaE5lYXJieRACGAQgAA,hostel;tourist_information_center;general_store;tour_agency;cafe;hotel;night_club;travel_agency;food_store;store;bar;lodging;service;restaurant;food;point_of_interest;establishment,cafe,Koh Rong
ChIJS75RkRDpBzERYPo4CVrirH4,Beach Coffee,coffee,cafe,Cafe,coffee,coffee,10.667031099999999,103.2735888,"M78F+RC8 Koh Rong Community Pier, Preah Sihanouk, Cambodia",4.8,4,,OPERATIONAL,,https://maps.google.com/?cid=9127919421102815840&g_mp=Cilnb29nbGUubWFwcy5wbGFjZXMudjEuUGxhY2VzLlNlYXJjaE5lYXJieRACGAQgAA,cafe;food;point_of_interest;establishment,cafe,Koh Rong
ChIJE5_VDkDpBzERfJKe8fQX5-M,Sunrise Hill Koh Rong,coffee,cafe,Cafe,coffee,coffee,10.678009399999999,103.2740895,"Koh Rong, Preah Sihanouk 12000, Cambodia",4.5,12,,OPERATIONAL,,https://maps.google.com/?cid=16422120907022963324&g_mp=Cilnb29nbGUubWFwcy5wbGFjZXMudjEuUGxhY2VzLlNlYXJjaE5lYXJieRACGAQgAA,cafe;food;point_of_interest;establishment,cafe,Koh Rong
ChIJNa6lKgDvBzERY3h7cDQQPeE,Mr'vy Taxi Boats And Cafe Shops,coffee,coffee_shop,Coffee Shop,coffee,coffee,10.5862875,103.3059531,"H8P4+G98, Preah Sihanouk, Cambodia",4.9,15,,OPERATIONAL,,https://maps.google.com/?cid=16230146449524619363&g_mp=Cilnb29nbGUubWFwcy5wbGFjZXMudjEuUGxhY2VzLlNlYXJjaE5lYXJieRACGAQgAA,coffee_shop;cafe;food_store;store;food;point_of_interest;establishment,coffee_shop,Koh Rong Samloem
ChIJo-3KegDpBzERZ9T2ha2xii4,Pablo Restaurant & Guesthouse,coffee,restaurant,Restaurant,coffee,coffee,10.666027699999999,103.27303169999999,"Preah Sihanouk, Cambodia",4.7,91,,OPERATIONAL,,https://maps.google.com/?cid=3353688231365760103&g_mp=Cilnb29nbGUubWFwcy5wbGFjZXMudjEuUGxhY2VzLlNlYXJjaE5lYXJieRACGAQgAA,restaurant;coffee_shop;cafe;hotel;food_store;store;bar;lodging;food;point_of_interest;establishment,coffee_shop,Koh Rong Samloem
ChIJEWfXUqnpBzERrXVaxNSyDdU,yuki's,coffee,cafe,Cafe,coffee,coffee,10.6802289,103.2821237,"M7JJ+3RX, Preah Sihanouk, Cambodia",4.8,4,,CLOSED_TEMPORARILY,,https://maps.google.com/?cid=15352123331672962477&g_mp=Cilnb29nbGUubWFwcy5wbGFjZXMudjEuUGxhY2VzLlNlYXJjaE5lYXJieRACGAQgAA,cafe;food;point_of_interest;establishment,cafe,Koh Rong Samloem
ChIJtTRfdQDhBzERwTmaklU2pV4,Starbucks U Mall Sihanouk Ville,coffee,coffee_shop,Coffee Shop,coffee,coffee,10.612459699999999,103.51640189999999,"JG68+XHJ, Preah Sihanouk, Cambodia",3.5,30,,OPERATIONAL,http://www.starbucks.com.kh/,https://maps.google.com/?cid=6819916951882185153&g_mp=Cilnb29nbGUubWFwcy5wbGFjZXMudjEuUGxhY2VzLlNlYXJjaE5lYXJieRACGAQgAA,coffee_shop;cafe;point_of_interest;food_store;store;food;establishment,coffee_shop,Ream National Park
ChIJA7SreirhBzERcFDNiBEhjlY,One Edition Coffee,coffee,coffee_shop,Coffee Shop,coffee,coffee,10.629807399999999,103.517601,"115 វិថី កម្មករ, Kâmpóng Saôm, Cambodia",4.9,203,,OPERATIONAL,,https://maps.google.com/?cid=6236958893148033136&g_mp=Cilnb29nbGUubWFwcy5wbGFjZXMudjEuUGxhY2VzLlNlYXJjaE5lYXJieRACGAQgAA,coffee_shop;cafe;point_of_interest;food_store;store;food;establishment,coffee_shop,Ream National Park
ChIJXbp1RDwJCDERpFJzo5tuExk,The Quay Cafe,coffee,coffee_shop,Coffee Shop,coffee,coffee,10.566546599999999,103.55667319999999,"Otres Blvd, Preah Sihanouk, Cambodia",4.4,28,,OPERATIONAL,,https://maps.google.com/?cid=1806909490246931108&g_mp=Cilnb29nbGUubWFwcy5wbGFjZXMudjEuUGxhY2VzLlNlYXJjaE5lYXJieRACGAQgAA,coffee_shop;cafe;point_of_interest;food_store;store;food;establishment,coffee_shop,Ream National Park
ChIJr3MhMszhBzEROL1N5HXd1XY,Flower Coffee,coffee,cafe,Cafe,coffee,coffee,10.6229833,103.5234665,"Street 109, Preah Sihanouk 18000, Cambodia",4.7,39,,OPERATIONAL,https://t.me/pkacafe9,https://maps.google.com/?cid=8562993764926078264&g_mp=Cilnb29nbGUubWFwcy5wbGFjZXMudjEuUGxhY2VzLlNlYXJjaE5lYXJieRACGAQgAA,cafe;breakfast_restaurant;restaurant;food;point_of_interest;establishment,cafe,Ream National Park
ChIJNUilFZR1CDERuAYs3W9q0TI,Steung Hav Coffee,coffee,coffee_shop,Coffee Shop,coffee,coffee,10.7210441,103.6160932,"Stueng Hav District, Cambodia",4.5,56,,OPERATIONAL,,https://maps.google.com/?cid=3661825000713488056&g_mp=Cilnb29nbGUubWFwcy5wbGFjZXMudjEuUGxhY2VzLlNlYXJjaE5lYXJieRACGAQgAA,coffee_shop;cafe;food_store;store;food;point_of_interest;establishment,coffee_shop,Kbal Chhay waterfall
ChIJrVar11B1CDERrSGriPD6M-4,7VK Cafè Steung Hav,coffee,coffee_shop,Coffee Shop,coffee,coffee,10.7462091,103.62092559999999,"Unknown Street, Stueng Hav District 180201, Cambodia",4.3,3,,CLOSED_TEMPORARILY,,https://maps.google.com/?cid=17164338515831103917&g_mp=Cilnb29nbGUubWFwcy5wbGFjZXMudjEuUGxhY2VzLlNlYXJjaE5lYXJieRACGAQgAA,coffee_shop;cafe;food_store;store;food;point_of_interest;establishment,coffee_shop,Kbal Chhay waterfall
ChIJBRO5CQB1CDER3Lu7V1IwHbA,Jezie coffee & burgur,coffee,coffee_shop,Coffee Shop,coffee,coffee,10.733828100000002,103.6238565,"PJMF+R9H, Stueng Hav District, Cambodia",5,3,,OPERATIONAL,,https://maps.google.com/?cid=12690352455217298396&g_mp=Cilnb29nbGUubWFwcy5wbGFjZXMudjEuUGxhY2VzLlNlYXJjaE5lYXJieRACGAQgAA,coffee_shop;cafe;food_store;store;food;point_of_interest;establishment,coffee_shop,Kbal Chhay waterfall
ChIJJbm1R7B1CDERfTbLTM1cQOE,គុយទាវ​តា​ហួត​,coffee,coffee_shop,Coffee Shop,coffee,coffee,10.7434847,103.6246641,"PJVF+9VV, Unnamed Road, Stueng Hav District, Cambodia",5,5,,OPERATIONAL,,https://maps.google.com/?cid=16231075093869704829&g_mp=Cilnb29nbGUubWFwcy5wbGFjZXMudjEuUGxhY2VzLlNlYXJjaE5lYXJieRACGAQgAA,coffee_shop;cafe;food_store;store;food;point_of_interest;establishment,coffee_shop,Kbal Chhay waterfall
ChIJ3bErgVQLCDEROESxT7bahv0,Daimond coffee,coffee,coffee_shop,Coffee Shop,coffee,coffee,10.6746322,103.6083184,"MJF5+V84, Preah Sihanouk, Cambodia",,,,OPERATIONAL,,https://maps.google.com/?cid=18268529415030916152&g_mp=Cilnb29nbGUubWFwcy5wbGFjZXMudjEuUGxhY2VzLlNlYXJjaE5lYXJieRACGAQgAA,coffee_shop;cafe;food_store;store;food;point_of_interest;establishment,coffee_shop,Kbal Chhay waterfall
ChIJxavKCAB1CDERNodZVhpBsbc,ស្រុកស្ទឹងហាវ,coffee,coffee_shop,Coffee Shop,coffee,coffee,10.724932899999999,103.6211277,"PJFC+XF6, វិថីសុវត្ថិភាព ទេព វង្ស, Stueng Hav District, Cambodia",,,,OPERATIONAL,,https://maps.google.com/?cid=13236432361192261430&g_mp=Cilnb29nbGUubWFwcy5wbGFjZXMudjEuUGxhY2VzLlNlYXJjaE5lYXJieRACGAQgAA,coffee_shop;cafe;food_store;store;food;point_of_interest;establishment,coffee_shop,Kbal Chhay waterfall
ChIJWzS5UHB1CDERZnNh9ZgunX8,Cony Coffee,coffee,coffee_shop,Coffee Shop,coffee,coffee,10.7395072,103.6186116,"Stueng Hav District 180203, Cambodia",1,1,,OPERATIONAL,,https://maps.google.com/?cid=9195557248647132006&g_mp=Cilnb29nbGUubWFwcy5wbGFjZXMudjEuUGxhY2VzLlNlYXJjaE5lYXJieRACGAQgAA,coffee_shop;cafe;food_store;store;food;point_of_interest;establishment,coffee_shop,Kbal Chhay waterfall
ChIJLzcw-2x1CDERnRtuOKK6rG8,រតនាស្ទឹងហាវ លក់គ្រឿងសមុទ្យ,coffee,coffee_shop,Coffee Shop,coffee,coffee,10.7269654,103.62261950000001,"PJGF+Q2Q, Stueng Hav District, Cambodia",1,1,,OPERATIONAL,,https://maps.google.com/?cid=8047011840098442141&g_mp=Cilnb29nbGUubWFwcy5wbGFjZXMudjEuUGxhY2VzLlNlYXJjaE5lYXJieRACGAQgAA,coffee_shop;cafe;food_store;store;food;point_of_interest;establishment,coffee_shop,Kbal Chhay waterfall
ChIJg5lT3pN1CDERXKTpwD5U_zs,ហ៊ាអូន ខរគោនិងលក់ម៉ីហិល,coffee,coffee_shop,Coffee Shop,coffee,coffee,10.7435279,103.6246362,"PJVF+CV6, Unnamed Road, Stueng Hav District, Cambodia",,,,OPERATIONAL,,https://maps.google.com/?cid=4323266795800208476&g_mp=Cilnb29nbGUubWFwcy5wbGFjZXMudjEuUGxhY2VzLlNlYXJjaE5lYXJieRACGAQgAA,coffee_shop;cafe;food_store;store;food;point_of_interest;establishment,coffee_shop,Kbal Chhay waterfall
ChIJXbIp5Gh1CDERCgw9x9Khiqo,ហាងកាហ្វេម៉ាក់ឡៃឡា,coffee,coffee_shop,Coffee Shop,coffee,coffee,10.7396417,103.6296888,"PJQH+JX7, Stueng Hav District, Cambodia",,,,OPERATIONAL,,https://maps.google.com/?cid=12288812459891690506&g_mp=Cilnb29nbGUubWFwcy5wbGFjZXMudjEuUGxhY2VzLlNlYXJjaE5lYXJieRACGAQgAA,coffee_shop;cafe;food_store;store;food;point_of_interest;establishment,coffee_shop,Kbal Chhay waterfall
ChIJHZ3iOABzCDERKQbGLWazgAw,ផ្ទះ រស្មី,coffee,coffee_shop,Coffee Shop,coffee,coffee,10.7032574,103.6612884,"PM36+8G3, វិថីសុវត្ថិភាព ទេព វង្ស, ព្រៃនប់, Cambodia",3,1,,OPERATIONAL,,https://maps.google.com/?cid=900917176910087721&g_mp=Cilnb29nbGUubWFwcy5wbGFjZXMudjEuUGxhY2VzLlNlYXJjaE5lYXJieRACGAQgAA,coffee_shop;cafe;food_store;store;food;point_of_interest;establishment,coffee_shop,Kbal Chhay waterfall
ChIJwa6EZ8dzCDER4cIWSBJrqSE,តូបលក់បបរ,coffee,coffee_shop,Coffee Shop,coffee,coffee,10.7013847,103.709881,"ផ្ទះ60ខ្នង, ក្រុងព្រះសីហនុ, Cambodia",,,,OPERATIONAL,,https://maps.google.com/?cid=2425587600578757345&g_mp=Cilnb29nbGUubWFwcy5wbGFjZXMudjEuUGxhY2VzLlNlYXJjaE5lYXJieRACGAQgAA,coffee_shop;cafe;food_store;store;food;point_of_interest;establishment,coffee_shop,Kbal Chhay waterfall
ChIJgfLEawB1CDERnx0syZg3akk,The Time Coffee,coffee,coffee_shop,Coffee Shop,coffee,coffee,10.7387202,103.6252962,"PJQG+M9M, Stueng Hav District, Cambodia",5,1,,OPERATIONAL,,https://maps.google.com/?cid=5290101841649737119&g_mp=Cilnb29nbGUubWFwcy5wbGFjZXMudjEuUGxhY2VzLlNlYXJjaE5lYXJieRACGAQgAA,coffee_shop;cafe;food_store;store;food;point_of_interest;establishment,coffee_shop,Kbal Chhay waterfall
ChIJJxxsagB1CDER_pS5XPM3vw0,MoMo Cafe,coffee,coffee_shop,Coffee Shop,coffee,coffee,10.723160000000002,103.62443830000001,"Stueng Hav District, Cambodia",5,1,,OPERATIONAL,https://momocafelove.blogspot.com/,https://maps.google.com/?cid=990571961417045246&g_mp=Cilnb29nbGUubWFwcy5wbGFjZXMudjEuUGxhY2VzLlNlYXJjaE5lYXJieRACGAQgAA,coffee_shop;cafe;food_store;store;food;point_of_interest;establishment,coffee_shop,Kbal Chhay waterfall
ChIJwR03LgB1CDERQGM3oqEFh0M,កាហ្វេ អុក,coffee,coffee_shop,Coffee Shop,coffee,coffee,10.7282298,103.62593509999999,"PJHG+79V, Stueng Hav District, Cambodia",,,,OPERATIONAL,,https://maps.google.com/?cid=4865864114166522688&g_mp=Cilnb29nbGUubWFwcy5wbGFjZXMudjEuUGxhY2VzLlNlYXJjaE5lYXJieRACGAQgAA,coffee_shop;cafe;food_store;store;food;point_of_interest;establishment,coffee_shop,Kbal Chhay waterfall
ChIJA6HuMAB1CDER8CcrPZFVbmM,Coffee Takhanh Makyoukhe,coffee,coffee_stand,Coffee Stand,coffee,coffee,10.7232524,103.6235617,"Stueng Hav District, Cambodia",5,1,,OPERATIONAL,,https://maps.google.com/?cid=7164758139477895152&g_mp=Cilnb29nbGUubWFwcy5wbGFjZXMudjEuUGxhY2VzLlNlYXJjaE5lYXJieRACGAQgAA,coffee_stand;coffee_shop;cafe;food_store;store;food;point_of_interest;establishment,coffee_shop,Kbal Chhay waterfall
ChIJJU5OeQB1CDERPStZwgk1-nk,កាហ្វេហ្វីនផ្លូវលំ,coffee,coffee_shop,Coffee Shop,coffee,coffee,10.722822899999999,103.62298960000001,"PJFF+45, Stueng Hav District, Cambodia",,,,OPERATIONAL,,https://maps.google.com/?cid=8789395938798545725&g_mp=Cilnb29nbGUubWFwcy5wbGFjZXMudjEuUGxhY2VzLlNlYXJjaE5lYXJieRACGAQgAA,coffee_shop;cafe;food_store;store;food;point_of_interest;establishment,coffee_shop,Kbal Chhay waterfall
ChIJG8o8FwBtCDERDdbILq8Opc0,អិនភី កាហ្វេ (កាហ្វេម៉ាសុីន),coffee,coffee_shop,Coffee Shop,coffee,coffee,10.7394649,103.7294481,"PPQH+QQ, Cambodia",4.5,2,,OPERATIONAL,,https://maps.google.com/?cid=14818266294499464717&g_mp=Cilnb29nbGUubWFwcy5wbGFjZXMudjEuUGxhY2VzLlNlYXJjaE5lYXJieRACGAQgAA,coffee_shop;cafe;food_store;store;food;point_of_interest;establishment,coffee_shop,Kbal Chhay waterfall
ChIJsb1aGwB1CDERw4U4eoEGKx0,នៅពីក្រោយហាងមីហឹរ,coffee,coffee_shop,Coffee Shop,coffee,coffee,10.7252178,103.6205976,"PJGC+36Q, Stueng Hav District, Cambodia",,,,OPERATIONAL,,https://maps.google.com/?cid=2101780804269540803&g_mp=Cilnb29nbGUubWFwcy5wbGFjZXMudjEuUGxhY2VzLlNlYXJjaE5lYXJieRACGAQgAA,coffee_shop;cafe;food_store;store;food;point_of_interest;establishment,coffee_shop,Kbal Chhay waterfall
ChIJncmAvkh1CDER2fPg7qWmyQw,កាហ្វេអុក,coffee,coffee_shop,Coffee Shop,coffee,coffee,10.723670499999999,103.61984729999999,"PJF9+FWG, Stueng Hav District, Cambodia",,,,OPERATIONAL,,https://maps.google.com/?cid=921450830381511641&g_mp=Cilnb29nbGUubWFwcy5wbGFjZXMudjEuUGxhY2VzLlNlYXJjaE5lYXJieRACGAQgAA,coffee_shop;cafe;food_store;store;food;point_of_interest;establishment,coffee_shop,Kbal Chhay waterfall
ChIJ9z7rmV11CDERAE6VJQMpags,Mangrove Café,coffee,cafe,Cafe,coffee,coffee,10.7395126,103.63105639999999,"PJQJ+RC3, Stueng Hav District, Cambodia",5,7,,OPERATIONAL,,https://maps.google.com/?cid=822514975440719360&g_mp=Cilnb29nbGUubWFwcy5wbGFjZXMudjEuUGxhY2VzLlNlYXJjaE5lYXJieRACGAQgAA,cafe;food;point_of_interest;establishment,cafe,Kbal Chhay waterfall
ChIJ0x86i3J0CDER0USe3CIfjaw,កាហ្វេរ តាកៅ,coffee,cafe,Cafe,coffee,coffee,10.7423836,103.62618839999999,"PJRG+XF4, Stueng Hav District, Cambodia",4.1,13,PRICE_LEVEL_INEXPENSIVE,OPERATIONAL,,https://maps.google.com/?cid=12433628380830516433&g_mp=Cilnb29nbGUubWFwcy5wbGFjZXMudjEuUGxhY2VzLlNlYXJjaE5lYXJieRACGAQgAA,cafe;food;point_of_interest;establishment,cafe,Kbal Chhay waterfall
ChIJk2JZCHR0CDERR1sT7D69Tgg,ហាងកាហ្វេមីងសឿន,coffee,cafe,Cafe,coffee,coffee,10.7398378,103.6308538,"PJQJ+W8Q, Stueng Hav District, Cambodia",4.4,8,,OPERATIONAL,,https://maps.google.com/?cid=598623878433168199&g_mp=Cilnb29nbGUubWFwcy5wbGFjZXMudjEuUGxhY2VzLlNlYXJjaE5lYXJieRACGAQgAA,cafe;food;point_of_interest;establishment,cafe,Kbal Chhay waterfall
ChIJCWQaxnR1CDERrIaqa-nH51I,TVS café,coffee,cafe,Cafe,coffee,coffee,10.7366117,103.62687249999999,"Stenghav Tomnop rolok, Stueng Hav District, Cambodia",5,1,,OPERATIONAL,,https://maps.google.com/?cid=5973963236077897388&g_mp=Cilnb29nbGUubWFwcy5wbGFjZXMudjEuUGxhY2VzLlNlYXJjaE5lYXJieRACGAQgAA,cafe;food;point_of_interest;establishment,cafe,Kbal Chhay waterfall
ChIJ1YcDCnR0CDER1ShB5i-ZN0Y,Kong putheara,coffee,cafe,Cafe,coffee,coffee,10.7402883,103.6305144,"PJRJ+466, Unnamed Road, Stueng Hav District, Cambodia",4.6,5,,OPERATIONAL,,https://maps.google.com/?cid=5059681137379584213&g_mp=Cilnb29nbGUubWFwcy5wbGFjZXMudjEuUGxhY2VzLlNlYXJjaE5lYXJieRACGAQgAA,cafe;food;point_of_interest;establishment,cafe,Kbal Chhay waterfall
ChIJ3UVO9HF0CDERS8qqa0aWeA0,Tim Yoeun,coffee,cafe,Cafe,coffee,coffee,10.739214299999999,103.62590910000002,"PJQG+M9M, Stueng Hav District, Cambodia",4.1,9,,OPERATIONAL,,https://maps.google.com/?cid=970690948896574027&g_mp=Cilnb29nbGUubWFwcy5wbGFjZXMudjEuUGxhY2VzLlNlYXJjaE5lYXJieRACGAQgAA,cafe;food;point_of_interest;establishment,cafe,Kbal Chhay waterfall
ChIJLXUg1xV1CDERkwdRXCYMFyQ,ចែ ហួយ លក់មីកំប៉ុង-កាហ្វេ-និងភេសជ្ជះគ្រប់ប្រភេទ,coffee,cafe,Cafe,coffee,coffee,10.7282298,103.62593509999999,"ភូម៤, Stueng Hav District, Cambodia",,,,OPERATIONAL,,https://maps.google.com/?cid=2600560668726855571&g_mp=Cilnb29nbGUubWFwcy5wbGFjZXMudjEuUGxhY2VzLlNlYXJjaE5lYXJieRACGAQgAA,cafe;food;point_of_interest;establishment,cafe,Kbal Chhay waterfall
