google_place_id,name,category,primary_type,primary_type_name,activities,lat,lon,address,rating,rating_count,price_level,business_status,website,google_maps_url,all_types,found_via_category,found_via_cell
ChIJfab4gggJCDERuZmK6wjaZQU,Statue of Preah Thong Neang Neak,cultural,historical_landmark,Historical Landmark,,10.565126099999999,103.585625,"HH8P+365, Unnamed Road, Moat Peam, Cambodia",4.6,721,,OPERATIONAL,,https://maps.google.com/?cid=388956674683738553&g_mp=Cilnb29nbGUubWFwcy5wbGFjZXMudjEuUGxhY2VzLlNlYXJjaE5lYXJieRACGAQgAA,historical_landmark;historical_place;point_of_interest;establishment,historical_landmark,Sihanoukville
ChIJj_O5bKLpBzERYFVkiQsL3Rk,Ocean Breeze,attraction,tourist_attraction,Tourist Attraction,,10.683070299999999,103.2878252,"Longset Beach, Preah Sihanouk, Cambodia",4.7,196,,OPERATIONAL,,https://maps.google.com/?cid=1863657964978853216&g_mp=Cilnb29nbGUubWFwcy5wbGFjZXMudjEuUGxhY2VzLlNlYXJjaE5lYXJieRACGAQgAA,tourist_attraction;point_of_interest;establishment,tourist_attraction,Koh Rong
ChIJ986P4p7vBzER1OOY-qmQtO4,Sunset Beach,nature,nature_preserve,Nature Preserve,walking,10.576045899999999,103.2962112,"H7GW+CF8, Preah Sihanouk, Cambodia",4.7,166,,OPERATIONAL,,https://maps.google.com/?cid=17200531936562963412&g_mp=Cilnb29nbGUubWFwcy5wbGFjZXMudjEuUGxhY2VzLlNlYXJjaE5lYXJieRACGAQgAA,nature_preserve;park;point_of_interest;establishment,park,Koh Rong
ChIJy_GQQIPhBzER108OJBx2sVA,Two Lions Roundabout(SHV),cultural,historical_landmark,Historical Landmark,,10.610643099999999,103.5236851,"Sihanoukville, Preah Sihanouk, Cambodia",4.6,187,,OPERATIONAL,,https://maps.google.com/?cid=5814558457148100567&g_mp=Cilnb29nbGUubWFwcy5wbGFjZXMudjEuUGxhY2VzLlNlYXJjaE5lYXJieRACGAQgAA,historical_landmark;historical_place;point_of_interest;establishment,historical_landmark,Sihanoukville
ChIJ4ZJMCePhBzERNXf4CMEVJZY,St. Michael Catholic Church,cultural,church,Church,sightseeing,10.6364225,103.5165799,"JGP8+9MH, Village 2, Preah Sihanouk, Cambodia",4.9,50,,OPERATIONAL,,https://maps.google.com/?cid=10819077598650857269&g_mp=Cilnb29nbGUubWFwcy5wbGFjZXMudjEuUGxhY2VzLlNlYXJjaE5lYXJieRACGAQgAA,church;place_of_worship;association_or_organization;point_of_interest;establishment,church,Sihanoukville
ChIJubOlxU7hBzERvGCx1lN7kEo,Masjid kampung som,cultural,mosque,Mosque,sightseeing,10.623482300000001,103.5149373,"18 ផ្លូវលេខ ១២១, Kâmpóng Saôm, Cambodia",4.8,64,,OPERATIONAL,,https://maps.google.com/?cid=5372929955467452604&g_mp=Cilnb29nbGUubWFwcy5wbGFjZXMudjEuUGxhY2VzLlNlYXJjaE5lYXJieRACGAQgAA,mosque;place_of_worship;association_or_organization;point_of_interest;establishment,mosque,Sihanoukville
ChIJs3H-Ni7rBzEReCHiTBozpts,5 mile Beach,attraction,tourist_attraction,Tourist Attraction,,10.6757315,103.25885079999999,"M7H5+37, Preah Sihanouk, Cambodia",4.8,63,,OPERATIONAL,,https://maps.google.com/?cid=15827394128492241272&g_mp=Cilnb29nbGUubWFwcy5wbGFjZXMudjEuUGxhY2VzLlNlYXJjaE5lYXJieRACGAQgAA,tourist_attraction;point_of_interest;establishment,tourist_attraction,Koh Rong
ChIJfTrg3b4ICDERj52UBchdUkg,Udom Vinhean Ream Pagoda វត្តឧត្ដមវិញ្ញាណរាម,attraction,place_of_worship,Place of Worship,,10.516323199999999,103.618195,"GJ89+G7G, Cambodia",4.7,58,,OPERATIONAL,,https://maps.google.com/?cid=5211330832489553295&g_mp=Cilnb29nbGUubWFwcy5wbGFjZXMudjEuUGxhY2VzLlNlYXJjaE5lYXJieRACGAQgAA,tourist_attraction;place_of_worship;association_or_organization;point_of_interest;establishment,tourist_attraction,Sihanoukville
ChIJZUZTwZwJCDER_IW_YljVZwQ,ខ្មែរធ្វើបាន Cambodian Can Do It,attraction,tourist_attraction,Tourist Attraction,,10.5573622,103.5797352,"Poy Lok Yey Jom Teav Mav, Jom Teav Mav Boulevard, Cambodia",4.5,359,,OPERATIONAL,,https://maps.google.com/?cid=317456874343466492&g_mp=Cilnb29nbGUubWFwcy5wbGFjZXMudjEuUGxhY2VzLlNlYXJjaE5lYXJieRACGAQgAA,tourist_attraction;point_of_interest;establishment,tourist_attraction,Sihanoukville
ChIJITiujDrpBzERkd9T0PlGcPI,M'Pai Bay,attraction,scenic_spot,Scenic Spot,,10.622611899999999,103.2948181,"Cambodia, Mpai bay, Preah Sihanouk 18000, Cambodia",4.5,354,,OPERATIONAL,,https://maps.google.com/?cid=17469540993326112657&g_mp=Cilnb29nbGUubWFwcy5wbGFjZXMudjEuUGxhY2VzLlNlYXJjaE5lYXJieRACGAQgAA,scenic_spot;tourist_attraction;point_of_interest;establishment,tourist_attraction,Sihanoukville
ChIJ8fvnCiXBBzERb_Hv5nNovYk,Golden Beach Resort,attraction,resort_hotel,Resort hotel,,10.7093054,103.23304069999999,"Sok San Beach Village Sok San, District Ream, Preah Sihanouk, Cambodia",4.5,327,,OPERATIONAL,http://www.goldenbeachsoksan.com/,https://maps.google.com/?cid=9925204000799453551&g_mp=Cilnb29nbGUubWFwcy5wbGFjZXMudjEuUGxhY2VzLlNlYXJjaE5lYXJieRACGAQgAA,resort_hotel;tourist_attraction;hotel;event_venue;lodging;spa;restaurant;food;point_of_interest;establishment,tourist_attraction,Koh Rong
ChIJt9bSjWDpBzERyR4UTWb_Qn0,Koh Rong Beach - ឆ្នេរកោះរ៉ុង,attraction,tourist_attraction,Tourist Attraction,,10.6826446,103.28623429999999,"Preah Sihanouk, Cambodia",4.7,35,,OPERATIONAL,https://tesjorcambodia.com/,https://maps.google.com/?cid=9026057418048806601&g_mp=Cilnb29nbGUubWFwcy5wbGFjZXMudjEuUGxhY2VzLlNlYXJjaE5lYXJieRACGAQgAA,tourist_attraction;scenic_spot;point_of_interest;establishment,tourist_attraction,Koh Rong
ChIJA5XXWMXhBzERFvNaeJQfoVM,សហគមន៍អេកូទេសចរណ៍ ព្រែកកោងកាងកោះរ៉ុង Prek Kongkang Koh Rong Ecotourism Community PKKREC,attraction,tourist_attraction,Tourist Attraction,,10.7130798,103.26284199999999,"Ta Sok River, Preah Sihanouk, Cambodia",4.7,34,,OPERATIONAL,https://pkkrec.my.canva.site/,https://maps.google.com/?cid=6026132498933281558&g_mp=Cilnb29nbGUubWFwcy5wbGFjZXMudjEuUGxhY2VzLlNlYXJjaE5lYXJieRACGAQgAA,tourist_attraction;tourist_information_center;tour_agency;travel_agency;service;point_of_interest;establishment,tourist_attraction,Koh Rong
ChIJpX-8cQDDBzER4fLVL3IsU8E,Coconut Beach,attraction,tourist_attraction,Tourist Attraction,,10.703334,103.313408,"P827+R8, Preah Sihanouk, Cambodia",4.5,127,,OPERATIONAL,,https://maps.google.com/?cid=13930526941327520481&g_mp=Cilnb29nbGUubWFwcy5wbGFjZXMudjEuUGxhY2VzLlNlYXJjaE5lYXJieRACGAQgAA,tourist_attraction;point_of_interest;establishment,tourist_attraction,Sihanoukville
ChIJ0SjA-6bhBzERinXTalftz_M,Gobo East,urban,night_club,Night Club,nightlife,10.608894099999999,103.5242909,"JG5F+HP3, 23 Tola St, Preah Sihanouk, Cambodia",4.7,25,,OPERATIONAL,,https://maps.google.com/?cid=17568521631105774986&g_mp=Cilnb29nbGUubWFwcy5wbGFjZXMudjEuUGxhY2VzLlNlYXJjaE5lYXJieRACGAQgAA,night_club;point_of_interest;establishment,night_club,Sihanoukville
ChIJ7f8LbwDhBzER5v9reXhc3pU,N1 Taxi lounge,urban,night_club,Night Club,nightlife,10.6012091,103.5299893,"phum 04 Songkat 04, Preah Sihanouk, Cambodia",4.5,121,,OPERATIONAL,,https://maps.google.com/?cid=10799170628983980006&g_mp=Cilnb29nbGUubWFwcy5wbGFjZXMudjEuUGxhY2VzLlNlYXJjaE5lYXJieRACGAQgAA,night_club;point_of_interest;establishment,night_club,Sihanoukville
ChIJ8XaY6pETCDERA7bCfpyCbL0,O Ta Pang Waterfall,attraction,tourist_attraction,Tourist Attraction,,10.6294515,103.73509449999999,"JPHP+Q2Q, Cambodia",4.6,40,,OPERATIONAL,,https://maps.google.com/?cid=13649428179306329603&g_mp=Cilnb29nbGUubWFwcy5wbGFjZXMudjEuUGxhY2VzLlNlYXJjaE5lYXJieRACGAQgAA,tourist_attraction;point_of_interest;establishment,tourist_attraction,Sihanoukville
ChIJXTAD5K3hBzERufgY4sxLgng,St. Panteleimon Orthodox Christian Church,cultural,church,Church,sightseeing,10.6348646,103.5079157,"JGM5+W5V, វិថី ឯករាជ្យ, Kâmpóng Saôm, Cambodia",4.6,37,,OPERATIONAL,http://orthodoxchurchcambodia.org/,https://maps.google.com/?cid=8683586374862436537&g_mp=Cilnb29nbGUubWFwcy5wbGFjZXMudjEuUGxhY2VzLlNlYXJjaE5lYXJieRACGAQgAA,church;place_of_worship;association_or_organization;point_of_interest;establishment,church,Sihanoukville
ChIJfdkzbADpBzERJ1PX9HfiHL8,Koh Rong Beach - Long Set Pier,attraction,tourist_attraction,Tourist Attraction,,10.6844445,103.285902,"M7MP+Q9C, Preah Sihanouk, Cambodia",4.7,22,,OPERATIONAL,,https://maps.google.com/?cid=13771130765428871975&g_mp=Cilnb29nbGUubWFwcy5wbGFjZXMudjEuUGxhY2VzLlNlYXJjaE5lYXJieRACGAQgAA,tourist_attraction;point_of_interest;establishment,tourist_attraction,Koh Rong
ChIJkRRVZU7hBzERqlW7ye3BtYM,Westport Wanda Plaza,urban,shopping_mall,Shopping Mall,shopping,10.6100209,103.5207823,"JG6C+283, Preah Sihanouk, Cambodia",4.5,88,,OPERATIONAL,,https://maps.google.com/?cid=9490705016789095850&g_mp=Cilnb29nbGUubWFwcy5wbGFjZXMudjEuUGxhY2VzLlNlYXJjaE5lYXJieRACGAQgAA,shopping_mall;point_of_interest;establishment,shopping_mall,Sihanoukville
ChIJTcWjVQDhBzERYs8LOPJB910,BIG BOSS KTV,urban,night_club,Night Club,nightlife,10.609207699999999,103.53834669999999,"Preah Sihanouk, Cambodia",4.6,29,,OPERATIONAL,,https://maps.google.com/?cid=6770953073353019234&g_mp=Cilnb29nbGUubWFwcy5wbGFjZXMudjEuUGxhY2VzLlNlYXJjaE5lYXJieRACGAQgAA,night_club;point_of_interest;establishment,night_club,Sihanoukville
ChIJkylQ8hLhBzERcjMBMvjK_ic,ATM Lounge and Restaurant,urban,night_club,Night Club,nightlife,10.6131444,103.5295778,"7 Makara Street 200, Preah Sihanouk, Cambodia",4.5,74,PRICE_LEVEL_INEXPENSIVE,OPERATIONAL,,https://maps.google.com/?cid=2881963978903335794&g_mp=Cilnb29nbGUubWFwcy5wbGFjZXMudjEuUGxhY2VzLlNlYXJjaE5lYXJieRACGAQgAA,night_club;point_of_interest;establishment,night_club,Sihanoukville
ChIJKfMDRzgJCDERcN2YgEMIBvU,Roundabout of Lord Shiva and Princess Parvati,cultural,historical_landmark,Historical Landmark,,10.5326875,103.61518749999999,"GJM8+33F Boulevards + Ream Beach, Boulevards, Cambodia",4.5,73,,OPERATIONAL,,https://maps.google.com/?cid=17655808475165941104&g_mp=Cilnb29nbGUubWFwcy5wbGFjZXMudjEuUGxhY2VzLlNlYXJjaE5lYXJieRACGAQgAA,historical_landmark;historical_place;point_of_interest;establishment,historical_landmark,Sihanoukville
ChIJbWCqjqoJCDERIA-wmpKTBnE,Love Waiting Rock,attraction,tourist_attraction,Tourist Attraction,,10.5459838,103.56522179999999,"GHW8+93X, Cambodia",4.5,71,,OPERATIONAL,,https://maps.google.com/?cid=8144359234015858464&g_mp=Cilnb29nbGUubWFwcy5wbGFjZXMudjEuUGxhY2VzLlNlYXJjaE5lYXJieRACGAQgAA,tourist_attraction;point_of_interest;establishment,tourist_attraction,Sihanoukville
ChIJ83f6KEsJCDERGOhWVHkYNQM,Sihanoukville Poy Machov,nature,park,Park,walking,10.5405033,103.5657933,"GHR8+683, Otress, Cambodia",4.5,58,,OPERATIONAL,,https://maps.google.com/?cid=231117865264539672&g_mp=Cilnb29nbGUubWFwcy5wbGFjZXMudjEuUGxhY2VzLlNlYXJjaE5lYXJieRACGAQgAA,park;point_of_interest;establishment,park,Sihanoukville
ChIJ85hXNUEFCDERQ_enIF4r6-E,កោះសំពោច,attraction,tourist_attraction,Tourist Attraction,,10.4992178,103.674374,"FMXF+MPQ, Preah Sihanouk, Cambodia",4.5,50,,OPERATIONAL,,https://maps.google.com/?cid=16279152961335588675&g_mp=Cilnb29nbGUubWFwcy5wbGFjZXMudjEuUGxhY2VzLlNlYXJjaE5lYXJieRACGAQgAA,tourist_attraction;point_of_interest;establishment,tourist_attraction,Sihanoukville
ChIJq9XPZovhBzER7_fhqtENXdE,Life Stadium,urban,stadium,Stadium,,10.6320733,103.5218173,"JGJC+RPG, Preah Sihanouk, Cambodia",4.5,22,,OPERATIONAL,,https://maps.google.com/?cid=15086229520927291375&g_mp=Cilnb29nbGUubWFwcy5wbGFjZXMudjEuUGxhY2VzLlNlYXJjaE5lYXJieRACGAQgAA,stadium;sports_complex;event_venue;sports_activity_location;point_of_interest;establishment,stadium,Sihanoukville
ChIJHc1430_hBzERU3gx7VDcY5M,Water Park Sihanouk,urban,water_park,Water Park,rides,10.6080515,103.53818090000001,"St,301 Sangkat4 Sihanouk Province, Preah Sihanouk 180404, Cambodia",4.4,54,,OPERATIONAL,,https://maps.google.com/?cid=10620574586404698195&g_mp=Cilnb29nbGUubWFwcy5wbGFjZXMudjEuUGxhY2VzLlNlYXJjaE5lYXJieRACGAQgAA,water_park;amusement_park;point_of_interest;establishment,amusement_park,Sihanoukville
ChIJQ1RnIfLhBzER8_Fc8oXFSRI,Beautiful Bays Statue,nature,park,Park,walking,10.6045099,103.5259894,"JG3G+R95, វិថីអូរឈើទាល ៥០០, Kâmpóng Saôm, Cambodia",4.3,35,,OPERATIONAL,,https://maps.google.com/?cid=1317801545070080499&g_mp=Cilnb29nbGUubWFwcy5wbGFjZXMudjEuUGxhY2VzLlNlYXJjaE5lYXJieRACGAQgAA,park;point_of_interest;establishment,park,Sihanoukville
ChIJxYa4QK3jBzER7Z1uMkyzyG0,Point View Sihanoukville City,attraction,tourist_attraction,Tourist Attraction,,10.5847195,103.5424109,"HGMR+VXM, Ochheuteal Beach Path, Preah Sihanouk, Cambodia",4.2,24,,OPERATIONAL,,https://maps.google.com/?cid=7910769885321272813&g_mp=Cilnb29nbGUubWFwcy5wbGFjZXMudjEuUGxhY2VzLlNlYXJjaE5lYXJieRACGAQgAA,tourist_attraction;point_of_interest;establishment,tourist_attraction,Otres / Ream
ChIJdXqaZ3J0CDERubo0pf5kPkY,LY VENG CONSTRUCTION ELECTRIC,urban,shopping_mall,Shopping Mall,shopping,10.741021,103.6260045,"PJRG+CC2, Stueng Hav District, Cambodia",4.2,25,,OPERATIONAL,,https://maps.google.com/?cid=5061594076067183289&g_mp=Cilnb29nbGUubWFwcy5wbGFjZXMudjEuUGxhY2VzLlNlYXJjaE5lYXJieRACGAQgAA,shopping_mall;point_of_interest;establishment,shopping_mall,Kbal Chhay waterfall
ChIJy10mkKjhBzERhPOSt-tNObU,Sihanoukville Royal Residence,cultural,historical_landmark,Historical Landmark,,10.6300937,103.50105599999999,"JGJ2+2CM, Preah Sihanouk, Cambodia",4.3,63,,OPERATIONAL,,https://maps.google.com/?cid=13058554269329978244&g_mp=Cilnb29nbGUubWFwcy5wbGFjZXMudjEuUGxhY2VzLlNlYXJjaE5lYXJieRACGAQgAA,historical_landmark;historical_place;point_of_interest;establishment,historical_landmark,Sihanoukville
ChIJWTyygbvhBzERgyri_qy_FtQ,Temple Club KPS,urban,night_club,Night Club,nightlife,10.6112127,103.52439319999999,"JG6F+HQ, Preah Sihanouk, Cambodia",4.2,43,,OPERATIONAL,http://www.templegroup.asia/,https://maps.google.com/?cid=15282613135259871875&g_mp=Cilnb29nbGUubWFwcy5wbGFjZXMudjEuUGxhY2VzLlNlYXJjaE5lYXJieRACGAQgAA,night_club;point_of_interest;establishment,night_club,Sihanoukville
ChIJ0xWPT1cNCDER24zsxV2VKSw,ទឹកធ្លាក់ព្រៃនប់,nature,nature_preserve,Nature Preserve,walking,10.633816999999999,103.7627596,"JQM7+G4C, Cambodia",4.3,83,,OPERATIONAL,,https://maps.google.com/?cid=3182238841699077339&g_mp=Cilnb29nbGUubWFwcy5wbGFjZXMudjEuUGxhY2VzLlNlYXJjaE5lYXJieRACGAQgAA,nature_preserve;park;point_of_interest;establishment,park,Otres / Ream
ChIJ3WbgBHHvBzERrjD4RJK-IZI,Lucky Sun Hostel,urban,hostel,Hostel,nightlife,10.5788186,103.3085835,"Saracen Bay, Preah Sihanouk, Cambodia",4.3,111,,OPERATIONAL,,https://maps.google.com/?cid=10529906939200549038&g_mp=Cilnb29nbGUubWFwcy5wbGFjZXMudjEuUGxhY2VzLlNlYXJjaE5lYXJieRACGAQgAA,hostel;general_store;tourist_information_center;cafe;hotel;tour_agency;travel_agency;food_store;night_club;bar;restaurant;food;lodging;point_of_interest;service;store;establishment,night_club,Koh Rong
ChIJj6ggZ8HhBzER-yIKwufzneY,Total Shopping Mall,urban,shopping_mall,Shopping Mall,shopping,10.6211475,103.526091,"JGCG+FC4, Preah Sihanouk, Cambodia",4.1,42,,OPERATIONAL,,https://maps.google.com/?cid=16617706376785437435&g_mp=Cilnb29nbGUubWFwcy5wbGFjZXMudjEuUGxhY2VzLlNlYXJjaE5lYXJieRACGAQgAA,shopping_mall;point_of_interest;establishment,shopping_mall,Sihanoukville
ChIJVZcSelPgBzERMXyreXjGcqU,One Lion Roundabout,cultural,historical_landmark,Historical Landmark,,10.6424462,103.50387219999999,"Preah Sihanouk, Cambodia",4.2,84,,OPERATIONAL,,https://maps.google.com/?cid=11921809384342780977&g_mp=Cilnb29nbGUubWFwcy5wbGFjZXMudjEuUGxhY2VzLlNlYXJjaE5lYXJieRACGAQgAA,historical_landmark;historical_place;point_of_interest;establishment,historical_landmark,Sihanoukville
ChIJJ1zGX6HhBzERLQ8cA9Z0fTg,Wat IntNhean Called Wat Krom,cultural,buddhist_temple,Buddhist Temple,sightseeing,10.6216454,103.5032423,"JGC3+M75, Preah Sihanouk, Cambodia",4.3,186,,OPERATIONAL,https://www.facebook.com/pages/Wat-Krom/131874043609397,https://maps.google.com/?cid=4070538100736790317&g_mp=Cilnb29nbGUubWFwcy5wbGFjZXMudjEuUGxhY2VzLlNlYXJjaE5lYXJieRACGAQgAA,buddhist_temple;place_of_worship;association_or_organization;point_of_interest;establishment,buddhist_temple,Sihanoukville
ChIJgX7guq_hBzER6VZ97QaIkVs,Independence Park,nature,park,Park,walking,10.630871899999999,103.50671179999999,"JGJ4+8MW, Preah Sihanouk, Cambodia",4.3,372,,OPERATIONAL,,https://maps.google.com/?cid=6598204492410083049&g_mp=Cilnb29nbGUubWFwcy5wbGFjZXMudjEuUGxhY2VzLlNlYXJjaE5lYXJieRACGAQgAA,park;point_of_interest;establishment,park,Sihanoukville
ChIJbeCW1gXvBzERNxlrkdC4QhQ,Saracen Bay Beach,cultural,scenic_spot,Scenic Spot,,10.571981899999999,103.32234969999999,"H8CC+QWX, Kaoh Rong Sanloem Khnong, Cambodia",4,90,,OPERATIONAL,,https://maps.google.com/?cid=1459932435153885495&g_mp=Cilnb29nbGUubWFwcy5wbGFjZXMudjEuUGxhY2VzLlNlYXJjaE5lYXJieRACGAQgAA,scenic_spot;historical_landmark;tourist_attraction;historical_place;point_of_interest;establishment,tourist_attraction,Sihanoukville
ChIJ35eGxcnhBzERD9oGnQRaCBs,U Mall Sihanoukville,urban,shopping_mall,Shopping Mall,shopping,10.6122723,103.5164515,"2 Thnou St, Preah Sihanouk, Cambodia",4.3,812,,OPERATIONAL,https://www.facebook.com/umallshv,https://maps.google.com/?cid=1947905814698580495&g_mp=Cilnb29nbGUubWFwcy5wbGFjZXMudjEuUGxhY2VzLlNlYXJjaE5lYXJieRACGAQgAA,shopping_mall;point_of_interest;establishment,shopping_mall,Sihanoukville
ChIJ0at5IaLBBzERN4ssXbumkX8,សហគមន៍អេកូទេសចរណ៍ “ព្រែកតាសុខ” Prek Ta Sok Eco-Tourism Community,attraction,tourist_attraction,Tourist Attraction,,10.713058,103.26274199999999,"Ta Sok River, Unnamed Road, P777+63H, Preah Sihanouk, Cambodia",4.1,173,,OPERATIONAL,,https://maps.google.com/?cid=9192311638092188471&g_mp=Cilnb29nbGUubWFwcy5wbGFjZXMudjEuUGxhY2VzLlNlYXJjaE5lYXJieRACGAQgAA,tourist_attraction;point_of_interest;establishment,tourist_attraction,Koh Rong
ChIJ7c7qFcrhBzEReRpO9rAY5zA,Wat Leu Pagoda,cultural,buddhist_temple,Buddhist Temple,sightseeing,10.6350619,103.5219078,"JGPC+2QF, Preah Sihanouk, Cambodia",4.1,272,,OPERATIONAL,,https://maps.google.com/?cid=3523812381766326905&g_mp=Cilnb29nbGUubWFwcy5wbGFjZXMudjEuUGxhY2VzLlNlYXJjaE5lYXJieRACGAQgAA,buddhist_temple;tourist_attraction;place_of_worship;association_or_organization;point_of_interest;establishment,tourist_attraction,Sihanoukville
ChIJ4x10HDQLCDERsmU-9N2AqYM,Kbal Chhay Waterfalls,nature,national_park,National Park,walking,10.674459299999999,103.60859800000001,"286 Ekareach Street, Preah Sihanouk, Cambodia",4.2,724,,OPERATIONAL,,https://maps.google.com/?cid=9487255780806518194&g_mp=Cilnb29nbGUubWFwcy5wbGFjZXMudjEuUGxhY2VzLlNlYXJjaE5lYXJieRACGAQgAA,national_park;park;point_of_interest;establishment,park,Sihanoukville
ChIJZxQkSEfgBzERd4yISUvIE34,Pier 52,attraction,ferry_service,Ferry Service,,10.6556351,103.5189412,"MG49+7H4, Preah Sihanouk, Cambodia",4,320,,OPERATIONAL,,https://maps.google.com/?cid=9084825099018210423&g_mp=Cilnb29nbGUubWFwcy5wbGFjZXMudjEuUGxhY2VzLlNlYXJjaE5lYXJieRACGAQgAA,ferry_service;tourist_attraction;tour_agency;travel_agency;transportation_service;point_of_interest;service;establishment,tourist_attraction,Sihanoukville
ChIJ5xIHWMoPCDERCSWVpgawuQE,Ream National Park,nature,national_park,National Park,walking,10.532876499999999,103.69416729999999,"GMMV+5M3, ក្រុងព្រះសីហនុ, Cambodia",4.1,783,,OPERATIONAL,,https://maps.google.com/?cid=124324007340483849&g_mp=Cilnb29nbGUubWFwcy5wbGFjZXMudjEuUGxhY2VzLlNlYXJjaE5lYXJieRACGAQgAA,national_park;tourist_attraction;park;point_of_interest;establishment,tourist_attraction,Sihanoukville
ChIJfcE4hsThBzERVuDXLiKe88k,Phsar Leu Market,attraction,market,Market,,10.6228155,103.5300292,"JGFJ+42C, 7 Makara St, Preah Sihanouk, Cambodia",4.2,5074,,OPERATIONAL,,https://maps.google.com/?cid=14552148690616180822&g_mp=Cilnb29nbGUubWFwcy5wbGFjZXMudjEuUGxhY2VzLlNlYXJjaE5lYXJieRACGAQgAA,market;tourist_attraction;point_of_interest;establishment,tourist_attraction,Sihanoukville
