google_place_id,name,category,primary_type,primary_type_name,activities,lat,lon,address,rating,rating_count,price_level,business_status,website,google_maps_url,all_types,found_via_category,found_via_cell
ChIJKQmn6jpRCTERkh40s4x4vQ8,LOVE - Phnom Penh,urban,night_club,Night Club,nightlife,11.555517499999999,104.92570649999999,"Wat Langka, 3 ផ្លូវលេខ ២៧៨, ភ្នំពេញ 12320, Cambodia",4.8,1137,PRICE_LEVEL_MODERATE,OPERATIONAL,http://clublovephnompenh.com/,https://maps.google.com/?cid=1134195226864524946&g_mp=Cilnb29nbGUubWFwcy5wbGFjZXMudjEuUGxhY2VzLlNlYXJjaE5lYXJieRACGAQgAA,night_club;point_of_interest;establishment,night_club,Prey Veng town
ChIJY5eeV9BRCTERSyRHYDO2qHw,SOSORO - Preah Srey Içanavarman Museum,cultural,museum,Museum,sightseeing,11.574356,104.92542259999999,"Phnom Penh, Cambodia",4.8,848,,OPERATIONAL,http://sosoro.nbc.gov.kh/,https://maps.google.com/?cid=8982629788565316683&g_mp=Cilnb29nbGUubWFwcy5wbGFjZXMudjEuUGxhY2VzLlNlYXJjaE5lYXJieRACGAQgAA,museum;point_of_interest;establishment,museum,Prey Veng town
ChIJe1cjmWdRCTERJiq4EKHaw9Y,Al-Serkal Mosque,cultural,mosque,Mosque,sightseeing,11.579416799999999,104.9138325,"1 St 86, Phnom Penh 12201, Cambodia",4.7,1097,,OPERATIONAL,,https://maps.google.com/?cid=15475453129880250918&g_mp=Cilnb29nbGUubWFwcy5wbGFjZXMudjEuUGxhY2VzLlNlYXJjaE5lYXJieRACGAQgAA,mosque;tourist_attraction;place_of_worship;association_or_organization;point_of_interest;establishment,mosque,Prey Veng town
ChIJw8jeJSJRCTERp9gvbl8l0hM,Tuol Sleng Genocide Museum,cultural,museum,Museum,sightseeing,11.548850999999999,104.9176751,"Street 113, 3, Phnom Penh, Cambodia",4.6,11984,,OPERATIONAL,https://tuolsleng.gov.kh/,https://maps.google.com/?cid=1428245123630618791&g_mp=Cilnb29nbGUubWFwcy5wbGFjZXMudjEuUGxhY2VzLlNlYXJjaE5lYXJieRACGAQgAA,museum;tourist_attraction;point_of_interest;establishment,tourist_attraction,Prey Veng town
ChIJQcGDw0ZXCTERe81u_9ugw18,PH Euro Park,nature,park,Park,walking,11.516330499999999,104.955341,"NR1, Phnom Penh 12357, Cambodia",4.6,2232,,OPERATIONAL,https://penghuothgroup.com/,https://maps.google.com/?cid=6900535920805465467&g_mp=Cilnb29nbGUubWFwcy5wbGFjZXMudjEuUGxhY2VzLlNlYXJjaE5lYXJieRACGAQgAA,park;tourist_attraction;point_of_interest;establishment,tourist_attraction,Prey Veng town
ChIJyZ59w2VaCTER07FCdaW0gMc,Choeung Ek Genocidal Center,cultural,history_museum,History Museum,sightseeing,11.484245099999999,104.9013585,"FVMW+QX8, ផ្លូវជើងឯក, Phnom Penh, Cambodia",4.6,2060,,OPERATIONAL,,https://maps.google.com/?cid=14375688633296531923&g_mp=Cilnb29nbGUubWFwcy5wbGFjZXMudjEuUGxhY2VzLlNlYXJjaE5lYXJieRACGAQgAA,history_museum;tourist_attraction;museum;point_of_interest;establishment,tourist_attraction,Prey Veng town
ChIJgybaVDBRCTERxlRrWou-GSg,Statue of His Majesty Preah Bat Samdech Preah Norodom Sihanouk,cultural,historical_landmark,Historical Landmark,walking,11.5564834,104.9301457,"HW4J+H3R, Phnom Penh, Cambodia",4.6,1917,,OPERATIONAL,,https://maps.google.com/?cid=2889550141661598918&g_mp=Cilnb29nbGUubWFwcy5wbGFjZXMudjEuUGxhY2VzLlNlYXJjaE5lYXJieRACGAQgAA,historical_landmark;tourist_attraction;historical_place;park;point_of_interest;establishment,historical_landmark,Prey Veng town
ChIJYzhMPMhZCTERU2G7fcSImSM,Kol Tor Teung Pagoda,cultural,buddhist_temple,Buddhist Temple,sightseeing,11.475031,104.9777498,"FXGH+239, Phnom Penh, Cambodia",4.6,458,,OPERATIONAL,,https://maps.google.com/?cid=2565231840268607827&g_mp=Cilnb29nbGUubWFwcy5wbGFjZXMudjEuUGxhY2VzLlNlYXJjaE5lYXJieRACGAQgAA,buddhist_temple;place_of_worship;association_or_organization;point_of_interest;establishment,buddhist_temple,Prey Veng town
ChIJg_bbGi5SCTERF5bsNc2VQz8,AEON Mall Sen Sok City,urban,shopping_mall,Shopping Mall,shopping,11.5996639,104.8853702,"St No. 1003, ភ្នំពេញ, Cambodia",4.5,9883,,OPERATIONAL,https://amssc.aeonmallcambodia.com/,https://maps.google.com/?cid=4558651956434605591&g_mp=Cilnb29nbGUubWFwcy5wbGFjZXMudjEuUGxhY2VzLlNlYXJjaE5lYXJieRACGAQgAA,shopping_mall;point_of_interest;establishment,shopping_mall,Prey Veng town
ChIJqUiG40lRCTERO91s5YjVEoY,Royal Palace Park,nature,park,Park,walking,11.56523,104.932222,"HW8J+3VX, Samdach Sothearos Blvd (3), Phnom Penh, Cambodia",4.5,5496,,OPERATIONAL,,https://maps.google.com/?cid=9661018934604520763&g_mp=Cilnb29nbGUubWFwcy5wbGFjZXMudjEuUGxhY2VzLlNlYXJjaE5lYXJieRACGAQgAA,park;garden;tourist_attraction;point_of_interest;establishment,tourist_attraction,Prey Veng town
ChIJ42tqxz1RCTERsG1wcg9Cxeo,Independence Monument,attraction,monument,Monument,,11.556434399999999,104.9282037,"Norodom Blvd, 41, Phnom Penh, Cambodia",4.5,5210,,OPERATIONAL,,https://maps.google.com/?cid=16917000209399049648&g_mp=Cilnb29nbGUubWFwcy5wbGFjZXMudjEuUGxhY2VzLlNlYXJjaE5lYXJieRACGAQgAA,monument;tourist_attraction;point_of_interest;establishment,tourist_attraction,Prey Veng town
ChIJYQtTlzdbCTER2iJvPoU1GtU,AEON MALL Mean Chey,urban,shopping_mall,Shopping Mall,shopping,11.484175599999999,104.9178161,"1st Floor, Mean Chey, Aeon Mall, Phnom Penh 120001, Cambodia",4.5,1658,,OPERATIONAL,,https://maps.google.com/?cid=15355644725867520730&g_mp=Cilnb29nbGUubWFwcy5wbGFjZXMudjEuUGxhY2VzLlNlYXJjaE5lYXJieRACGAQgAA,shopping_mall;point_of_interest;establishment,shopping_mall,Prey Veng town
ChIJo_7O_UhRCTERP2j7y4km8O4,Wat Ounalom Monastery,cultural,buddhist_temple,Buddhist Temple,sightseeing,11.568381599999999,104.9298647,"Phnom Penh 12206, Cambodia",4.5,1042,,OPERATIONAL,,https://maps.google.com/?cid=17217303748712032319&g_mp=Cilnb29nbGUubWFwcy5wbGFjZXMudjEuUGxhY2VzLlNlYXJjaE5lYXJieRACGAQgAA,buddhist_temple;tourist_attraction;place_of_worship;association_or_organization;point_of_interest;establishment,tourist_attraction,Prey Veng town
ChIJxSyGoLZXCTERLn9MiMSLtXA,"Chew & Bash, Phnom Penh Island Club",urban,restaurant,Restaurant,nightlife,11.5484379,104.9438845,"Coconut Park, Phnom Penh, Cambodia",4.6,190,,OPERATIONAL,https://www.chewandbash.com/,https://maps.google.com/?cid=8121551179249123118&g_mp=Cilnb29nbGUubWFwcy5wbGFjZXMudjEuUGxhY2VzLlNlYXJjaE5lYXJieRACGAQgAA,restaurant;lounge_bar;night_club;bar;association_or_organization;food;point_of_interest;establishment,night_club,Prey Veng town
ChIJVynVSExXCTERG4PgjpjbwS4,Masjid al aala Prek Pra,cultural,mosque,Mosque,sightseeing,11.5124354,104.9430186,"Tablighi Markaz, Phnom Penh, Cambodia",4.8,70,,OPERATIONAL,,https://maps.google.com/?cid=3369215444528431899&g_mp=Cilnb29nbGUubWFwcy5wbGFjZXMudjEuUGxhY2VzLlNlYXJjaE5lYXJieRACGAQgAA,mosque;place_of_worship;association_or_organization;point_of_interest;establishment,mosque,Prey Veng town
ChIJIfphyvlRCTERTERq6TjuHGQ,Sra'Art Gallery,cultural,,,,11.567400899999999,104.9306106,"7E0 Street Sothearos, Chumneas, Cambodia",4.8,69,,OPERATIONAL,http://www.sraartstudios.com/,https://maps.google.com/?cid=7213902631342326860&g_mp=Cilnb29nbGUubWFwcy5wbGFjZXMudjEuUGxhY2VzLlNlYXJjaE5lYXJieRACGAQgAA,art_gallery;cultural_center;point_of_interest;establishment,art_gallery,Prey Veng town
ChIJnRzTwGtRCTERwRib2VCAETk,"SUN & MOON, Riverside Hotel",urban,hotel,Hotel,nightlife,11.5313383,104.93126249999999,"Waterfront, Norodom Blvd. (Near Phreak Monivong Bridge), Village 10 Sangkat Tonle Bassac, 12204, Phnom Penh, Cambodia",4.5,791,,OPERATIONAL,https://www.sunandmoonhotelgroup.com/hotels/riverside-hotel/,https://maps.google.com/?cid=4112209019502532801&g_mp=Cilnb29nbGUubWFwcy5wbGFjZXMudjEuUGxhY2VzLlNlYXJjaE5lYXJieRACGAQgAA,hotel;laundry;movie_theater;lounge_bar;night_club;gym;beauty_salon;spa;bar;lodging;restaurant;sports_activity_location;food;health;service;point_of_interest;establishment,night_club,Prey Veng town
ChIJlSF0zj5RCTEREBBwmFV3THg,Institut français du Cambodge (IFC),cultural,cultural_center,Cultural Center,,11.5621865,104.9208616,"218 Keo Chea, ភ្នំពេញ 12211, Cambodia",4.6,165,,OPERATIONAL,http://www.ifcambodge.com/,https://maps.google.com/?cid=8668434592294768656&g_mp=Cilnb29nbGUubWFwcy5wbGFjZXMudjEuUGxhY2VzLlNlYXJjaE5lYXJieRACGAQgAA,cultural_center;art_gallery;movie_theater;library;educational_institution;restaurant;food;point_of_interest;service;establishment,art_gallery,Prey Veng town
ChIJCWiZEDRTCTERhE2gOzfA-cw,BAZA.Ink Tattoo Studio,cultural,store,Store,,11.555228999999999,104.93068319999999,"Street 21, Phnom Penh 121001, Cambodia",5,36,,OPERATIONAL,https://baza.ink/,https://maps.google.com/?cid=14770047796394347908&g_mp=Cilnb29nbGUubWFwcy5wbGFjZXMudjEuUGxhY2VzLlNlYXJjaE5lYXJieRACGAQgAA,art_gallery;body_art_service;art_studio;point_of_interest;service;store;establishment,art_gallery,Prey Veng town
ChIJ506LdwBfCTERY9vVn_m8urk,Techo Cultural Park,nature,park,Park,walking,11.363784400000002,104.93906229999999,"9W7Q+GJ7, Cambodia",4.7,77,,OPERATIONAL,,https://maps.google.com/?cid=13383217022999321443&g_mp=Cilnb29nbGUubWFwcy5wbGFjZXMudjEuUGxhY2VzLlNlYXJjaE5lYXJieRACGAQgAA,park;point_of_interest;establishment,park,Prey Veng town
ChIJdR62wTlRCTERujUkdE41grQ,MARA,urban,restaurant,Restaurant,nightlife,11.5611072,104.92582139999999,"House 16 AB, Maline Apartment (St. 214 Phnom Penh, Phnom Penh 12211, Cambodia",4.5,517,PRICE_LEVEL_EXPENSIVE,OPERATIONAL,https://eatapp.co/reserve/mara-restaurant-16-ab-street-214,https://maps.google.com/?cid=13007017284871665082&g_mp=Cilnb29nbGUubWFwcy5wbGFjZXMudjEuUGxhY2VzLlNlYXJjaE5lYXJieRACGAQgAA,restaurant;steak_house;lounge_bar;night_club;asian_fusion_restaurant;fusion_restaurant;asian_restaurant;bar;food;point_of_interest;establishment,night_club,Prey Veng town
ChIJeUqR_7hWCTERSIaZni5Mxl4,Queen of Peace Church,cultural,church,Church,sightseeing,11.5664433,104.95355800000002,"HX83+HCF, Areyksat, Cambodia",4.6,130,,OPERATIONAL,https://www.facebook.com/AreyksatSanctuary,https://maps.google.com/?cid=6829229648067003976&g_mp=Cilnb29nbGUubWFwcy5wbGFjZXMudjEuUGxhY2VzLlNlYXJjaE5lYXJieRACGAQgAA,church;place_of_worship;point_of_interest;association_or_organization;establishment,church,Prey Veng town
ChIJa2sD0xXjCzERYCt2HX24yHM,Cambodian Buddhist Center,cultural,buddhist_temple,Buddhist Temple,sightseeing,11.471312399999999,105.1098159,"F4C5+GWG, Kien Svay, Cambodia",4.6,122,,OPERATIONAL,,https://maps.google.com/?cid=8343121157208550240&g_mp=Cilnb29nbGUubWFwcy5wbGFjZXMudjEuUGxhY2VzLlNlYXJjaE5lYXJieRACGAQgAA,buddhist_temple;place_of_worship;association_or_organization;point_of_interest;establishment,buddhist_temple,Prey Veng town
ChIJKWWTok1RCTEROg23jQnCrnI,Kingdom Hall of Jehovah's Witnesses,cultural,church,Church,sightseeing,11.5492457,104.9163535,"GWX8+MGX, St 348, Phnom Penh, Cambodia",5,28,,OPERATIONAL,http://jw.org/,https://maps.google.com/?cid=8263755712559516986&g_mp=Cilnb29nbGUubWFwcy5wbGFjZXMudjEuUGxhY2VzLlNlYXJjaE5lYXJieRACGAQgAA,church;place_of_worship;point_of_interest;association_or_organization;establishment,church,Prey Veng town
ChIJ95nUxa9RCTERIcx_7Rq5CkA,九号国际商务会所,urban,bar,Bar,nightlife,11.5588602,104.9334987,"92 Samdach Sothearos Blvd (3), Phnom Penh, Cambodia",5,28,,OPERATIONAL,,https://maps.google.com/?cid=4614704293499358241&g_mp=Cilnb29nbGUubWFwcy5wbGFjZXMudjEuUGxhY2VzLlNlYXJjaE5lYXJieRACGAQgAA,karaoke;night_club;bar;point_of_interest;establishment,night_club,Prey Veng town
ChIJp4V4FuVQCTERwHxl7l276mc,Nations Church Phnom Penh ក្រុមជំនុំណេសិន,cultural,church,Church,sightseeing,11.5360189,104.9022293,"#9 St 79BT រាជធានី​ភ្នំពេញ, Phnom Penh 12351, Cambodia",5,27,,OPERATIONAL,http://nationschurch.com/kh,https://maps.google.com/?cid=7488003342562852032&g_mp=Cilnb29nbGUubWFwcy5wbGFjZXMudjEuUGxhY2VzLlNlYXJjaE5lYXJieRACGAQgAA,church;place_of_worship;point_of_interest;association_or_organization;establishment,church,Prey Veng town
ChIJNStPzlZQCTERnkDbcznbo9I,New Life Fellowship​ Cambodia,cultural,church,Church,sightseeing,11.5369019,104.8870852,"#523 St. Veng Srey, Phnom Penh, Cambodia",4.6,98,,OPERATIONAL,http://www.facebook.com/NLF.Cambodia,https://maps.google.com/?cid=15178216208972071070&g_mp=Cilnb29nbGUubWFwcy5wbGFjZXMudjEuUGxhY2VzLlNlYXJjaE5lYXJieRACGAQgAA,church;place_of_worship;point_of_interest;association_or_organization;establishment,church,Prey Veng town
ChIJJ0AoS7ZXCTERujP1XK--sYY,Riverside,nature,park,Park,walking,11.571451399999999,104.9294345,"HW5R+4M7, 12204 Angkor St. (5), Phnom Penh, Cambodia",4.6,96,,OPERATIONAL,,https://maps.google.com/?cid=9705748332348257210&g_mp=Cilnb29nbGUubWFwcy5wbGFjZXMudjEuUGxhY2VzLlNlYXJjaE5lYXJieRACGAQgAA,park;point_of_interest;establishment,park,Prey Veng town
ChIJl8b3JepZCTERY8exDVRgJbY,Wat Monisovann,cultural,buddhist_temple,Buddhist Temple,sightseeing,11.480171799999999,104.9604243,"Phnom Penh, Cambodia",4.5,313,,OPERATIONAL,,https://maps.google.com/?cid=13125002603164452707&g_mp=Cilnb29nbGUubWFwcy5wbGFjZXMudjEuUGxhY2VzLlNlYXJjaE5lYXJieRACGAQgAA,buddhist_temple;place_of_worship;association_or_organization;point_of_interest;establishment,buddhist_temple,Prey Veng town
ChIJwV3psuhRCTER1XbLgHZcesE,The Gallerist - Contemporary Art Gallery,cultural,art_gallery,Art Gallery,,11.5605564,104.9293466,"15-17 Street 240, Phnom Penh, Cambodia",4.6,81,,OPERATIONAL,https://www.thegallerist.asia/,https://maps.google.com/?cid=13941557260515505877&g_mp=Cilnb29nbGUubWFwcy5wbGFjZXMudjEuUGxhY2VzLlNlYXJjaE5lYXJieRACGAQgAA,art_gallery;point_of_interest;establishment,art_gallery,Prey Veng town
ChIJD9WUz_xQCTER8029hHUvzNU,Apsara Art Gallery,cultural,store,Store,,11.5403313,104.9023813,"119 Street 73BT, Phnom Penh 12351, Cambodia",4.7,48,,OPERATIONAL,,https://maps.google.com/?cid=15405740607112302067&g_mp=Cilnb29nbGUubWFwcy5wbGFjZXMudjEuUGxhY2VzLlNlYXJjaE5lYXJieRACGAQgAA,art_gallery;point_of_interest;service;store;establishment,art_gallery,Prey Veng town
ChIJvxPWmJBRCTERw-H_CWNi4fI,FT Gallery,cultural,art_gallery,Art Gallery,,11.5230525,104.93105159999999,"1159 NR2, Phnom Penh, Cambodia",4.8,33,,OPERATIONAL,http://www.ftgallery.com/,https://maps.google.com/?cid=17501377804447506883&g_mp=Cilnb29nbGUubWFwcy5wbGFjZXMudjEuUGxhY2VzLlNlYXJjaE5lYXJieRACGAQgAA,art_gallery;point_of_interest;establishment,art_gallery,Prey Veng town
ChIJLdM0_txRCTERL1cM3XqJTNw,一号公馆KTV,urban,bar,Bar,nightlife,11.5386037,104.92063139999999,"GWQC+C7R, Phnom Penh, Cambodia",4.6,75,,OPERATIONAL,,https://maps.google.com/?cid=15874213947361744687&g_mp=Cilnb29nbGUubWFwcy5wbGFjZXMudjEuUGxhY2VzLlNlYXJjaE5lYXJieRACGAQgAA,karaoke;night_club;bar;point_of_interest;establishment,night_club,Prey Veng town
ChIJUwR1lphRCTERpydaZsBEc44,THE FIRST METHODIST CHURCH IN PHNOM PENH(KOREAN CHURCH),cultural,church,Church,sightseeing,11.535478,104.90895890000002,"115 17BT, Phnom Penh, Cambodia",5,20,,OPERATIONAL,,https://maps.google.com/?cid=10264623568849086375&g_mp=Cilnb29nbGUubWFwcy5wbGFjZXMudjEuUGxhY2VzLlNlYXJjaE5lYXJieRACGAQgAA,church;place_of_worship;point_of_interest;association_or_organization;establishment,church,Prey Veng town
ChIJT5LOxplbCTER-KoJaU-I8Bc,AEON MALL Mean Chey,urban,shopping_mall,Shopping Mall,shopping,11.484093099999999,104.9181828,"Samdach Hun Sen Blvd, Phnom Penh 120602, Cambodia",4.5,220,,OPERATIONAL,https://www.aeonmallcambodia.com/aeon-mall-mean-chey/,https://maps.google.com/?cid=1725028531928935160&g_mp=Cilnb29nbGUubWFwcy5wbGFjZXMudjEuUGxhY2VzLlNlYXJjaE5lYXJieRACGAQgAA,shopping_mall;point_of_interest;establishment,shopping_mall,Prey Veng town
ChIJWUQzpypRCTERnKaSH66KMfQ,Pakistani mosque,cultural,mosque,Mosque,sightseeing,11.5463034,104.9106094,"12308 St 384, Phnom Penh, Cambodia",4.7,41,,OPERATIONAL,,https://maps.google.com/?cid=17595997699571885724&g_mp=Cilnb29nbGUubWFwcy5wbGFjZXMudjEuUGxhY2VzLlNlYXJjaE5lYXJieRACGAQgAA,mosque;place_of_worship;association_or_organization;point_of_interest;establishment,mosque,Prey Veng town
ChIJh_j-3OBTCTERR7vDF9bg0ik,Saint Joseph Catholic Church,cultural,church,Church,sightseeing,11.5920467,104.91749039999999,"No. 1788B, ផ្លូវ ជាតិលេខ 5, Phnom Penh 12105, Cambodia",4.6,67,,OPERATIONAL,https://stjosephcatholicchurchppn.org/,https://maps.google.com/?cid=3013718310790609735&g_mp=Cilnb29nbGUubWFwcy5wbGFjZXMudjEuUGxhY2VzLlNlYXJjaE5lYXJieRACGAQgAA,church;place_of_worship;point_of_interest;association_or_organization;establishment,church,Prey Veng town
ChIJNXm51YJRCTERfm46BzGcBAQ,Masjid Arrahman Malaysia Cambodia,cultural,mosque,Mosque,sightseeing,11.5853509,104.93807290000001,"HWPQ+46W, The Bay Rd, Phnom Penh, Cambodia",4.8,28,,OPERATIONAL,,https://maps.google.com/?cid=289528010447154814&g_mp=Cilnb29nbGUubWFwcy5wbGFjZXMudjEuUGxhY2VzLlNlYXJjaE5lYXJieRACGAQgAA,mosque;place_of_worship;association_or_organization;point_of_interest;establishment,mosque,Prey Veng town
ChIJX8b-XO9QCTERiWh6bTGhTKM,Child Jesus Catholic Church Buoeng Tompun,cultural,church,Church,sightseeing,11.5324744,104.9084925,"GWJ5+X9Q, Phnom Penh, Cambodia",4.8,27,,OPERATIONAL,,https://maps.google.com/?cid=11766957160074471561&g_mp=Cilnb29nbGUubWFwcy5wbGFjZXMudjEuUGxhY2VzLlNlYXJjaE5lYXJieRACGAQgAA,church;place_of_worship;point_of_interest;association_or_organization;establishment,church,Prey Veng town
ChIJYeUf6EdRCTER0rz9Dal327c,YES KTV,urban,bar,Bar,nightlife,11.567458499999999,104.91437239999999,"102, 18 St 139, Phnom Penh, Cambodia",4.6,59,,OPERATIONAL,,https://maps.google.com/?cid=13248314296808357074&g_mp=Cilnb29nbGUubWFwcy5wbGFjZXMudjEuUGxhY2VzLlNlYXJjaE5lYXJieRACGAQgAA,karaoke;night_club;bar;point_of_interest;establishment,night_club,Prey Veng town
ChIJ__-vH1JRCTER8TLpKwcMNyQ,Masjid Darussalam,cultural,mosque,Mosque,sightseeing,11.5771613,104.93318169999999,"HWGM+V77, Chroy Changvar, Cambodia",4.8,25,,OPERATIONAL,,https://maps.google.com/?cid=2609567734025499377&g_mp=Cilnb29nbGUubWFwcy5wbGFjZXMudjEuUGxhY2VzLlNlYXJjaE5lYXJieRACGAQgAA,mosque;place_of_worship;association_or_organization;point_of_interest;establishment,mosque,Prey Veng town
ChIJAz5JTUNRCTERi-xppekFprE,Ministry of Economy and Finance of Cambodia,attraction,government_office,Government Office,,11.576646600000002,104.9206136,"Street 92, Phnom Penh 120211, Cambodia",4.5,164,,OPERATIONAL,,https://maps.google.com/?cid=12800925491907914891&g_mp=Cilnb29nbGUubWFwcy5wbGFjZXMudjEuUGxhY2VzLlNlYXJjaE5lYXJieRACGAQgAA,tourist_attraction;government_office;point_of_interest;establishment,tourist_attraction,Prey Veng town
ChIJcUA0fTtRCTERDAchppuU2B4,Korean Church of Phnom Penh,cultural,church,Church,sightseeing,11.5553545,104.9189461,"No.1 St 276, Phnom Penh, Cambodia",4.6,55,,OPERATIONAL,,https://maps.google.com/?cid=2222689812335363852&g_mp=Cilnb29nbGUubWFwcy5wbGFjZXMudjEuUGxhY2VzLlNlYXJjaE5lYXJieRACGAQgAA,church;place_of_worship;point_of_interest;association_or_organization;establishment,church,Prey Veng town
ChIJB6m_NkRbCTER_gJdJnHcdrk,Komsan Park Aeon Mall Mean Chey,urban,amusement_park,Amusement Park,rides,11.484249,104.91728239999999,"FWM8+MWV, Phnom Penh, Cambodia",4.7,32,,OPERATIONAL,,https://maps.google.com/?cid=13364111322801570558&g_mp=Cilnb29nbGUubWFwcy5wbGFjZXMudjEuUGxhY2VzLlNlYXJjaE5lYXJieRACGAQgAA,amusement_park;point_of_interest;establishment,amusement_park,Prey Veng town
ChIJxy_LxxBRCTERn0CdSHN2KMc,TŌKIO CLUB,urban,night_club,Night Club,nightlife,11.5808404,104.91055449999999,"12201 K5 St, Phnom Penh, Cambodia",4.5,149,,OPERATIONAL,https://www.facebook.com/tokio.tko,https://maps.google.com/?cid=14350850450127667359&g_mp=Cilnb29nbGUubWFwcy5wbGFjZXMudjEuUGxhY2VzLlNlYXJjaE5lYXJieRACGAQgAA,night_club;pub;bar;point_of_interest;establishment,night_club,Prey Veng town
ChIJSY8XmKpRCTERvGKkeTIirFA,Ponlea Chey Pavilion,cultural,historical_landmark,Historical Landmark,,11.565205299999999,104.9331471,"HW8M+37J, Riverside Path, Phnom Penh, Cambodia",4.7,30,,OPERATIONAL,,https://maps.google.com/?cid=5813058819212993212&g_mp=Cilnb29nbGUubWFwcy5wbGFjZXMudjEuUGxhY2VzLlNlYXJjaE5lYXJieRACGAQgAA,historical_landmark;historical_place;point_of_interest;establishment,historical_landmark,Prey Veng town
ChIJH2QjBcdTCTERGbbTIaQxNx8,Smart RSN Stadium,urban,stadium,Stadium,,11.604748299999999,104.8943778,"31 1800, Phnom Penh, Cambodia",4.5,115,,OPERATIONAL,https://web.facebook.com/smartrsnstadium/,https://maps.google.com/?cid=2249321119906772505&g_mp=Cilnb29nbGUubWFwcy5wbGFjZXMudjEuUGxhY2VzLlNlYXJjaE5lYXJieRACGAQgAA,stadium;sports_complex;sports_activity_location;event_venue;point_of_interest;establishment,stadium,Prey Veng town
ChIJ6ckhfJxRCTERJpnuGKjJfgg,Cambodian Constitution Monument,cultural,historical_landmark,Historical Landmark,,11.5563027,104.9272123,"Phnom Penh, Cambodia",4.6,39,,OPERATIONAL,,https://maps.google.com/?cid=612148323178944806&g_mp=Cilnb29nbGUubWFwcy5wbGFjZXMudjEuUGxhY2VzLlNlYXJjaE5lYXJieRACGAQgAA,historical_landmark;historical_place;point_of_interest;establishment,historical_landmark,Prey Veng town
ChIJ6VAgyfBQCTERQhK-rmkDLyM,Kingdomcity Cambodia,cultural,church,Church,sightseeing,11.531782999999999,104.89855039999999,"863 St 77BT, Chamreoun Phal, 3 1, Phnom Penh, Cambodia",4.7,23,,OPERATIONAL,,https://maps.google.com/?cid=2535248867671020098&g_mp=Cilnb29nbGUubWFwcy5wbGFjZXMudjEuUGxhY2VzLlNlYXJjaE5lYXJieRACGAQgAA,church;place_of_worship;point_of_interest;association_or_organization;establishment,church,Prey Veng town
ChIJEamTuABTCTER2-kI9MHC8pk,Km 8 Mosque مسجد النورالنعيم,cultural,mosque,Mosque,sightseeing,11.634438399999999,104.89703449999999,"JVMW+QRF, NR5, Phnom Penh, Cambodia",4.5,92,,OPERATIONAL,,https://maps.google.com/?cid=11093142970445654491&g_mp=Cilnb29nbGUubWFwcy5wbGFjZXMudjEuUGxhY2VzLlNlYXJjaE5lYXJieRACGAQgAA,mosque;place_of_worship;association_or_organization;point_of_interest;establishment,mosque,Prey Veng town
