google_place_id,name,category,primary_type,primary_type_name,activities,lat,lon,address,rating,rating_count,price_level,business_status,website,google_maps_url,all_types,found_via_category,found_via_cell
ChIJJaEGwOkbDzER9kZIGCRqgN8,Chrok La Eang Waterfall,attraction,tourist_attraction,Tourist Attraction,,12.1753283,104.17127710000001,"55GC+4GJ, Cambodia",4.4,599,,OPERATIONAL,,https://maps.google.com/?cid=16104988970735650550&g_mp=Cilnb29nbGUubWFwcy5wbGFjZXMudjEuUGxhY2VzLlNlYXJjaE5lYXJieRACGAQgAA,tourist_attraction;point_of_interest;establishment,tourist_attraction,Pursat town
ChIJz-jQBpmhDzERK_QXrTfl_5Q,Phtel Khat Roundabout (Pursat Circle Statue),attraction,tourist_attraction,Tourist Attraction,,12.527994999999999,103.9629387,"GXH7+55W, NR5, Krong Pursat, Cambodia",4.3,280,,OPERATIONAL,,https://maps.google.com/?cid=10736552063964541995&g_mp=Cilnb29nbGUubWFwcy5wbGFjZXMudjEuUGxhY2VzLlNlYXJjaE5lYXJieRACGAQgAA,tourist_attraction;point_of_interest;establishment,tourist_attraction,Pursat town
ChIJ1bxf2A6iDzERWacpJabIzPQ,Sampov Meas,nature,park,Park,walking,12.5449995,103.9211058,"GWVC+XCX, Krong Pursat, Cambodia",4.3,502,,OPERATIONAL,,https://maps.google.com/?cid=17639694456417003353&g_mp=Cilnb29nbGUubWFwcy5wbGFjZXMudjEuUGxhY2VzLlNlYXJjaE5lYXJieRACGAQgAA,park;tourist_attraction;point_of_interest;establishment,tourist_attraction,Pursat town
ChIJL3fk2F1nDzERuWhLOW-jkWc,រមណីយដ្ឋាន ទឹកធ្លាក់ អូរដា​,attraction,tourist_attraction,Tourist Attraction,,12.165794499999999,103.70188809999999,"5P82+8Q6, Phumi Khsang, Cambodia",5,3,,OPERATIONAL,,https://maps.google.com/?cid=7462925755627563193&g_mp=Cilnb29nbGUubWFwcy5wbGFjZXMudjEuUGxhY2VzLlNlYXJjaE5lYXJieRACGAQgAA,tourist_attraction;point_of_interest;establishment,tourist_attraction,Pursat town
ChIJr1ZyjEdvDzERkTZCkdNbDW0,ទំនប់ទឹកទី៥,attraction,tourist_attraction,Tourist Attraction,,12.230872399999999,103.75063019999999,"6QJ2+87R, Cambodia",5,9,,OPERATIONAL,,https://maps.google.com/?cid=7858037889064646289&g_mp=Cilnb29nbGUubWFwcy5wbGFjZXMudjEuUGxhY2VzLlNlYXJjaE5lYXJieRACGAQgAA,tourist_attraction;point_of_interest;establishment,tourist_attraction,Pursat town
ChIJJwKc89NxDzERbUMr_94zsdk,ទំនប់ស្ទាក់ទឹក ឈើតោក,attraction,tourist_attraction,Tourist Attraction,,12.3258046,103.7715156,"Cher Tork River, Cambodia",4.5,13,,OPERATIONAL,,https://maps.google.com/?cid=15686376009964929901&g_mp=Cilnb29nbGUubWFwcy5wbGFjZXMudjEuUGxhY2VzLlNlYXJjaE5lYXJieRACGAQgAA,tourist_attraction;point_of_interest;establishment,tourist_attraction,Pursat town
ChIJJ7g2NwDrDzERy6WCA5kGbQY,( ទឹកពុះ ) រដូវប្រាំង,attraction,tourist_attraction,Tourist Attraction,,12.873493100000001,103.8238049,"VRFF+9G, Chuor Kom, Cambodia",3.5,2,,OPERATIONAL,,https://maps.google.com/?cid=463033590947685835&g_mp=Cilnb29nbGUubWFwcy5wbGFjZXMudjEuUGxhY2VzLlNlYXJjaE5lYXJieRACGAQgAA,tourist_attraction;point_of_interest;establishment,tourist_attraction,Pursat town
ChIJOT1STXG5DzERvn-iajD81og,Roniem Forest,nature,park,Park,walking,12.7268069,104.0304535,"P2GJ+P5G, Phumi Phat Sândaông, Cambodia",3.8,32,,OPERATIONAL,,https://maps.google.com/?cid=9860345719051943870&g_mp=Cilnb29nbGUubWFwcy5wbGFjZXMudjEuUGxhY2VzLlNlYXJjaE5lYXJieRACGAQgAA,park;tourist_attraction;point_of_interest;establishment,tourist_attraction,Pursat town
ChIJh0TDfAC_DzERRusaEs45bUo,Port ReangTil,attraction,tourist_attraction,Tourist Attraction,,12.7814268,103.99920859999999,"QXJX+HM, Chros, Cambodia",4.5,12,,OPERATIONAL,,https://maps.google.com/?cid=5363006288497929030&g_mp=Cilnb29nbGUubWFwcy5wbGFjZXMudjEuUGxhY2VzLlNlYXJjaE5lYXJieRACGAQgAA,tourist_attraction;point_of_interest;establishment,tourist_attraction,Pursat town
ChIJxUovoCWtDzERaJLq2kS_CFc,Kompong Luong Floating Village,attraction,tourist_attraction,Tourist Attraction,,12.5630663,104.2089549,"H675+38R, Krakor, Cambodia",4.7,31,,OPERATIONAL,https://web.facebook.com/profile.php?id=61555004172891,https://maps.google.com/?cid=6271472783564903016&g_mp=Cilnb29nbGUubWFwcy5wbGFjZXMudjEuUGxhY2VzLlNlYXJjaE5lYXJieRACGAQgAA,tourist_attraction;point_of_interest;establishment,tourist_attraction,Pursat town
ChIJgYxuTuQbDzERZkmadvQU0RM,Chrok La Eang Waterfall,attraction,tourist_attraction,Tourist Attraction,,12.167641999999999,104.177718,"559H+334, Cambodia",4.6,34,,OPERATIONAL,,https://maps.google.com/?cid=1427945597047556454&g_mp=Cilnb29nbGUubWFwcy5wbGFjZXMudjEuUGxhY2VzLlNlYXJjaE5lYXJieRACGAQgAA,tourist_attraction;point_of_interest;establishment,tourist_attraction,Pursat town
ChIJTysvDBcVDzERe2Ui7n2EK1A,Chhay Sontor,attraction,tourist_attraction,Tourist Attraction,,12.1713506,103.9231051,"5WCF+G6X, Cambodia",4.7,12,,OPERATIONAL,,https://maps.google.com/?cid=5776856623433803131&g_mp=Cilnb29nbGUubWFwcy5wbGFjZXMudjEuUGxhY2VzLlNlYXJjaE5lYXJieRACGAQgAA,tourist_attraction;point_of_interest;establishment,tourist_attraction,Pursat town
ChIJ29QxDh6jDzER6mhlorbAU4w,Hong Chareck Dam,attraction,tourist_attraction,Tourist Attraction,,12.6086381,103.9918474,"JX5R+FP5, Krong Pursat, Cambodia",4,7,,OPERATIONAL,,https://maps.google.com/?cid=10111637479018031338&g_mp=Cilnb29nbGUubWFwcy5wbGFjZXMudjEuUGxhY2VzLlNlYXJjaE5lYXJieRACGAQgAA,tourist_attraction;point_of_interest;establishment,tourist_attraction,Pursat town
ChIJMeq_oox5DzERZxyo3muHQY4,រមណីយដ្ឋាន ជម្រកសត្វបឹងព្រះពន្លៃ,attraction,tourist_attraction,Tourist Attraction,,12.3903124,103.7220109,"9PRC+4R, Bort Rom Doul, Cambodia",5,4,,OPERATIONAL,,https://maps.google.com/?cid=10250623124238769255&g_mp=Cilnb29nbGUubWFwcy5wbGFjZXMudjEuUGxhY2VzLlNlYXJjaE5lYXJieRACGAQgAA,tourist_attraction;point_of_interest;establishment,tourist_attraction,Pursat town
ChIJL__Xik_9DjERKXggJu8N0ag,Lum Hach Dam,attraction,tourist_attraction,Tourist Attraction,,12.3252724,104.3144229,"88G7+4Q3, Unnamed Road, ឃុំ ក្រាំងស្គារ, Cambodia",4,11,,OPERATIONAL,,https://maps.google.com/?cid=12164519389292427305&g_mp=Cilnb29nbGUubWFwcy5wbGFjZXMudjEuUGxhY2VzLlNlYXJjaE5lYXJieRACGAQgAA,tourist_attraction;point_of_interest;establishment,tourist_attraction,Pursat town
ChIJCR4ykjKHDzERS8Gr5GypRj8,ទំនប់បង្ហៀររំលេច,attraction,tourist_attraction,Tourist Attraction,,12.565724999999999,103.6341417,"HJ8M+7MR, Phumi Prey Chheutéal, Cambodia",4.2,6,,OPERATIONAL,,https://maps.google.com/?cid=4559517957917229387&g_mp=Cilnb29nbGUubWFwcy5wbGFjZXMudjEuUGxhY2VzLlNlYXJjaE5lYXJieRACGAQgAA,tourist_attraction;point_of_interest;establishment,tourist_attraction,Pursat town
ChIJ73ssNwB5DzER5zDb-NqSsjw,បឹងព្រះពន្លៃ,attraction,tourist_attraction,Tourist Attraction,,12.3940527,103.70626639999999,"9PV4+JG, Bort Rom Doul, Cambodia",4.3,3,,OPERATIONAL,,https://maps.google.com/?cid=4373719657305813223&g_mp=Cilnb29nbGUubWFwcy5wbGFjZXMudjEuUGxhY2VzLlNlYXJjaE5lYXJieRACGAQgAA,tourist_attraction;point_of_interest;establishment,tourist_attraction,Pursat town
ChIJBdouCQBxDzERhHEWty1baGk,ស្ពាន អូសោម,attraction,tourist_attraction,Tourist Attraction,,12.2720956,103.7289167,"7PCH+RHM, Phnom Kravanh, Cambodia",5,1,,OPERATIONAL,,https://maps.google.com/?cid=7595421023463698820&g_mp=Cilnb29nbGUubWFwcy5wbGFjZXMudjEuUGxhY2VzLlNlYXJjaE5lYXJieRACGAQgAA,tourist_attraction;point_of_interest;establishment,tourist_attraction,Pursat town
ChIJ8-nWbsqjDzERURiG4bZ0O0w,Pursat Railway Bridge,attraction,tourist_attraction,Tourist Attraction,,12.531211299999999,103.91735650000001,"GWJ8+FWQ, Krong Pursat, Cambodia",4.2,6,,OPERATIONAL,,https://maps.google.com/?cid=5493112499324983377&g_mp=Cilnb29nbGUubWFwcy5wbGFjZXMudjEuUGxhY2VzLlNlYXJjaE5lYXJieRACGAQgAA,tourist_attraction;point_of_interest;establishment,tourist_attraction,Pursat town
ChIJeYUWL_afDzER3wwTjPVDdW4,ប្រវ៉ាស,attraction,tourist_attraction,Tourist Attraction,,12.5117994,103.8532068,"GV63+P78, Krong Pursat, Cambodia",4,3,,OPERATIONAL,,https://maps.google.com/?cid=7959342638343326943&g_mp=Cilnb29nbGUubWFwcy5wbGFjZXMudjEuUGxhY2VzLlNlYXJjaE5lYXJieRACGAQgAA,tourist_attraction;point_of_interest;establishment,tourist_attraction,Pursat town
ChIJhzdyoQGiDzERzYbuN2M0dFw,Pursat Museum,cultural,art_museum,Art museum,sightseeing,12.533529,103.9184021,"GWM9+C96, NR5, Krong Pursat, Cambodia",3.8,16,,OPERATIONAL,,https://maps.google.com/?cid=6662007349532591821&g_mp=Cilnb29nbGUubWFwcy5wbGFjZXMudjEuUGxhY2VzLlNlYXJjaE5lYXJieRACGAQgAA,art_museum;museum;educational_institution;service;point_of_interest;establishment,museum,Pursat town
ChIJk9O4dQCjDzERAgPmNpYYFoQ,ម៉ុងកុងទូច,cultural,museum,Museum,sightseeing,12.606187499999999,103.9173125,"JW48+FW, Krong Pursat, Cambodia",,,,OPERATIONAL,,https://maps.google.com/?cid=9517821895939326722&g_mp=Cilnb29nbGUubWFwcy5wbGFjZXMudjEuUGxhY2VzLlNlYXJjaE5lYXJieRACGAQgAA,museum;point_of_interest;establishment,museum,Pursat town
ChIJ4f3XJwCjDzERBaEpn-Vyoyg,ជំរុំទូកង តេជោកែវវិជ័យបារមីចៅសែន,cultural,museum,Museum,sightseeing,12.5913401,103.9476224,"HWRX+G2Q, Kandieng, Cambodia",,,,OPERATIONAL,,https://maps.google.com/?cid=2928310513264337157&g_mp=Cilnb29nbGUubWFwcy5wbGFjZXMudjEuUGxhY2VzLlNlYXJjaE5lYXJieRACGAQgAA,museum;point_of_interest;establishment,museum,Pursat town
ChIJUWfofwC7DzERJuhnQjAmdBg,ជំរុំទូកង រាំងទិលសាគរសែនមានជ័យបារមីវត្តកញ្ជរខាងត្បូង,cultural,museum,Museum,sightseeing,12.6190023,104.0579221,"J395+J53, Cambodia",,,,OPERATIONAL,,https://maps.google.com/?cid=1762075342923098150&g_mp=Cilnb29nbGUubWFwcy5wbGFjZXMudjEuUGxhY2VzLlNlYXJjaE5lYXJieRACGAQgAA,museum;point_of_interest;establishment,museum,Pursat town
ChIJU40iBgBxDzERD_uOiq41XQE,រង្វង់មូលក្រូច,cultural,historical_landmark,Historical Landmark,,12.352198399999999,103.7370729,"9P2P+VRG, Krong Pursat, Cambodia",4.5,19,,OPERATIONAL,,https://maps.google.com/?cid=98293790637226767&g_mp=Cilnb29nbGUubWFwcy5wbGFjZXMudjEuUGxhY2VzLlNlYXJjaE5lYXJieRACGAQgAA,historical_landmark;historical_place;point_of_interest;establishment,historical_landmark,Pursat town
ChIJ4eAOSbVxDzERKi9eQ7W99lM,ភ្នំក្រវ៉ាញ់ភូមិស្រុកត្នោត,cultural,historical_landmark,Historical Landmark,,12.355192599999999,103.76423869999999,"9Q47+3MH, Phnom Kravanh, Cambodia",3.7,3,,OPERATIONAL,,https://maps.google.com/?cid=6050231735635816234&g_mp=Cilnb29nbGUubWFwcy5wbGFjZXMudjEuUGxhY2VzLlNlYXJjaE5lYXJieRACGAQgAA,historical_landmark;historical_place;point_of_interest;establishment,historical_landmark,Pursat town
ChIJId42_gKtDzERHSrkWpVbinc,ផ្លូវបត់ទៅភូមិចាមថ្មី,cultural,historical_landmark,Historical Landmark,,12.519558,104.255449,"G794+R5, Krakor, Cambodia",5,2,,OPERATIONAL,,https://maps.google.com/?cid=8613797934332652061&g_mp=Cilnb29nbGUubWFwcy5wbGFjZXMudjEuUGxhY2VzLlNlYXJjaE5lYXJieRACGAQgAA,historical_landmark;historical_place;point_of_interest;establishment,historical_landmark,Pursat town
ChIJw30eVPatDzERiHhPrS07wIQ,ផ្លូវទៅវិហារចាមថ្មី(ភូមិចាមថ្មី),cultural,historical_landmark,Historical Landmark,,12.520763899999999,104.2503636,"G7C2+84, Krakor, Cambodia",3,4,,OPERATIONAL,,https://maps.google.com/?cid=9565710675902167176&g_mp=Cilnb29nbGUubWFwcy5wbGFjZXMudjEuUGxhY2VzLlNlYXJjaE5lYXJieRACGAQgAA,historical_landmark;historical_place;point_of_interest;establishment,historical_landmark,Pursat town
ChIJFw6fJAABDzERR7rJNqiDyDQ,Phnom Preas,cultural,historical_landmark,Historical Landmark,,12.418888899999999,104.25999999999999,"C795+HX5, Phnom Preas, Cambodia",,,,OPERATIONAL,,https://maps.google.com/?cid=3803434643811318343&g_mp=Cilnb29nbGUubWFwcy5wbGFjZXMudjEuUGxhY2VzLlNlYXJjaE5lYXJieRACGAQgAA,historical_landmark;historical_place;point_of_interest;establishment,historical_landmark,Pursat town
ChIJZxMlL3OdDzER-NtaGz94--M,ស្ទឹងបាក់ចិញ្ចៀន Bong Toy Pursat,cultural,historical_landmark,Historical Landmark,,12.460458899999999,103.79506429999999,"FQ6W+52, Krong Pursat, Cambodia",5,1,,OPERATIONAL,,https://maps.google.com/?cid=16427856278201228280&g_mp=Cilnb29nbGUubWFwcy5wbGFjZXMudjEuUGxhY2VzLlNlYXJjaE5lYXJieRACGAQgAA,historical_landmark;historical_place;point_of_interest;establishment,historical_landmark,Pursat town
ChIJLUTgDsOlDzER-jJXHGlKNRg,យាយ,cultural,historical_landmark,Historical Landmark,,12.525931,104.01597299999999,"G2G8+99, Krong Pursat, Cambodia",,,,OPERATIONAL,,https://maps.google.com/?cid=1744382245983433466&g_mp=Cilnb29nbGUubWFwcy5wbGFjZXMudjEuUGxhY2VzLlNlYXJjaE5lYXJieRACGAQgAA,historical_landmark;historical_place;point_of_interest;establishment,historical_landmark,Pursat town
ChIJFSQ2wfuPDzER-ofDzC2o4sI,ផ្ទះ តាសល់,cultural,historical_landmark,Historical Landmark,,12.714013,103.67444499999999,"PM7F+JQ, Svay Don Kev, Cambodia",3,2,,OPERATIONAL,,https://maps.google.com/?cid=14042971502756988922&g_mp=Cilnb29nbGUubWFwcy5wbGFjZXMudjEuUGxhY2VzLlNlYXJjaE5lYXJieRACGAQgAA,historical_landmark;historical_place;point_of_interest;establishment,historical_landmark,Pursat town
ChIJ4_z2llqFDzERAsLtc2JwSNU,បារាយណ៍ដូនអន,cultural,historical_landmark,Historical Landmark,,12.6294603,103.6959523,"JMHW+Q9P, Unnamed Road, Beong Khna, Cambodia",,,,OPERATIONAL,,https://maps.google.com/?cid=15368657296555885058&g_mp=Cilnb29nbGUubWFwcy5wbGFjZXMudjEuUGxhY2VzLlNlYXJjaE5lYXJieRACGAQgAA,historical_landmark;historical_place;point_of_interest;establishment,historical_landmark,Pursat town
ChIJJSMsTQC7DzERjMUdyYQV6kU,ទួលមេកា,cultural,historical_landmark,Historical Landmark,,12.6479699,104.0473485,"J2XW+5W, Kanchhor, Cambodia",,,,OPERATIONAL,,https://maps.google.com/?cid=5037862793221358988&g_mp=Cilnb29nbGUubWFwcy5wbGFjZXMudjEuUGxhY2VzLlNlYXJjaE5lYXJieRACGAQgAA,historical_landmark;historical_place;point_of_interest;establishment,historical_landmark,Pursat town
ChIJzUX2DgCbDzER5MzwNE-ML7k,ស្រែថ្លុកគ្រូណាង,cultural,historical_landmark,Historical Landmark,,12.571673899999999,103.7494428,"HPCX+MQ8, Cambodia",,,,OPERATIONAL,,https://maps.google.com/?cid=13344038492740570340&g_mp=Cilnb29nbGUubWFwcy5wbGFjZXMudjEuUGxhY2VzLlNlYXJjaE5lYXJieRACGAQgAA,historical_landmark;historical_place;point_of_interest;establishment,historical_landmark,Pursat town
ChIJXxMbMwCbDzERRjqcXp55SB0,ស្រែថ្លុកគ្រូណាង ផល្លា,cultural,historical_landmark,Historical Landmark,,12.5717684,103.7494492,"HPCX+PQ4, Cambodia",,,,OPERATIONAL,,https://maps.google.com/?cid=2110070146522167878&g_mp=Cilnb29nbGUubWFwcy5wbGFjZXMudjEuUGxhY2VzLlNlYXJjaE5lYXJieRACGAQgAA,historical_landmark;historical_place;point_of_interest;establishment,historical_landmark,Pursat town
ChIJWxJBdACvDzERVKZbw_RiMlA,ពហុកីឡដ្ឋានសម្ដេចតេជោក្រគរ Samdech Techo Kroko Sports Center,cultural,historical_landmark,Historical Landmark,,12.537533999999999,104.1502481,"G5Q2+23, Krakor, Cambodia",5,1,,OPERATIONAL,,https://maps.google.com/?cid=5778790075258873428&g_mp=Cilnb29nbGUubWFwcy5wbGFjZXMudjEuUGxhY2VzLlNlYXJjaE5lYXJieRACGAQgAA,historical_landmark;historical_place;point_of_interest;establishment,historical_landmark,Pursat town
ChIJp1g_LgCvDzER3alLDS3ieRQ,ផ្ទះលោក យ៉ើ មានិត,cultural,historical_landmark,Historical Landmark,,12.536342699999999,104.1637293,"G5P7+GF, Krakor, Cambodia",,,,OPERATIONAL,,https://maps.google.com/?cid=1475459036065016285&g_mp=Cilnb29nbGUubWFwcy5wbGFjZXMudjEuUGxhY2VzLlNlYXJjaE5lYXJieRACGAQgAA,historical_landmark;historical_place;point_of_interest;establishment,historical_landmark,Pursat town
ChIJ7weBUgCDDzERg8ENnqQyPFM,មេភូមិតាលោ,cultural,historical_landmark,Historical Landmark,,12.488196,103.65415499999999,"FMQ3+783, Ta Lou, Cambodia",,,,OPERATIONAL,,https://maps.google.com/?cid=5997724486358385027&g_mp=Cilnb29nbGUubWFwcy5wbGFjZXMudjEuUGxhY2VzLlNlYXJjaE5lYXJieRACGAQgAA,historical_landmark;historical_place;point_of_interest;establishment,historical_landmark,Pursat town
ChIJ1fYk_AWBDzERPN0LbzrwhX4,NAT House,cultural,historical_landmark,Historical Landmark,,12.465325,103.56572,"FH88+47, Prasal, Cambodia",5,1,,OPERATIONAL,,https://maps.google.com/?cid=9116957154443255100&g_mp=Cilnb29nbGUubWFwcy5wbGFjZXMudjEuUGxhY2VzLlNlYXJjaE5lYXJieRACGAQgAA,historical_landmark;historical_place;point_of_interest;establishment,historical_landmark,Pursat town
ChIJUXd9ZQADDzERK11a-dSf_sg,Farm’s Ma,cultural,historical_landmark,Historical Landmark,,12.284344599999999,104.2120472,"76M6+PRM, Bamnak, Cambodia",,,,OPERATIONAL,,https://maps.google.com/?cid=14483189188735425835&g_mp=Cilnb29nbGUubWFwcy5wbGFjZXMudjEuUGxhY2VzLlNlYXJjaE5lYXJieRACGAQgAA,historical_landmark;historical_place;point_of_interest;establishment,historical_landmark,Pursat town
ChIJu_UKXAADDzER4m_lMgbWZFs,ដី បងគីមសាន,cultural,historical_landmark,Historical Landmark,,12.325476499999999,104.2591485,"87G5+5M, ភូមិ ចាមចាស់, Cambodia",,,,OPERATIONAL,,https://maps.google.com/?cid=6585623877234552802&g_mp=Cilnb29nbGUubWFwcy5wbGFjZXMudjEuUGxhY2VzLlNlYXJjaE5lYXJieRACGAQgAA,historical_landmark;historical_place;point_of_interest;establishment,historical_landmark,Pursat town
ChIJScxq8lUbDzER7aBkuhTYAWU,ទឹកធ្លាក់ច្រកល្អៀង ដំណាក់ទឹកធ្លាក់,nature,state_park,State Park,walking,12.1713563,104.17944000000001,"Unnamed Road, 55CH+GQW, Phumi Kroch, Cambodia",4.4,15,,OPERATIONAL,,https://maps.google.com/?cid=7278336056345534701&g_mp=Cilnb29nbGUubWFwcy5wbGFjZXMudjEuUGxhY2VzLlNlYXJjaE5lYXJieRACGAQgAA,state_park;park;point_of_interest;establishment,park,Pursat town
ChIJ6dvUcDJnDzERVpFJ2J7okng,Oda natural site,nature,park,Park,walking,12.1665288,103.7029381,"5P83+J58, Cambodia",4.8,10,,OPERATIONAL,,https://maps.google.com/?cid=8688262400082284886&g_mp=Cilnb29nbGUubWFwcy5wbGFjZXMudjEuUGxhY2VzLlNlYXJjaE5lYXJieRACGAQgAA,park;point_of_interest;establishment,park,Pursat town
ChIJV95aUx1lDzERqxmQxI1V1os,ទំនប់ទឹកទី២,nature,park,Park,walking,12.219335899999999,103.6803704,"6M9J+P4Q, Cambodia",3.3,4,,OPERATIONAL,,https://maps.google.com/?cid=10076335283664591275&g_mp=Cilnb29nbGUubWFwcy5wbGFjZXMudjEuUGxhY2VzLlNlYXJjaE5lYXJieRACGAQgAA,park;point_of_interest;establishment,park,Pursat town
ChIJPXLverapDzERSb4Vfs_sr-c,អាងដំណាក់ក្រាញ់,nature,park,Park,walking,12.480042599999999,104.1406327,"F4JR+27, Krakor, Cambodia",3.6,9,,OPERATIONAL,,https://maps.google.com/?cid=16694822719603457609&g_mp=Cilnb29nbGUubWFwcy5wbGFjZXMudjEuUGxhY2VzLlNlYXJjaE5lYXJieRACGAQgAA,park;point_of_interest;establishment,park,Pursat town
ChIJDXaeI_x5DzERyyQuyrryVWY,Pu Resort,nature,park,Park,walking,12.432504699999999,103.709248,"CPM5+2M5, Unnamed Road, Bort Rom Doul, Cambodia",4.1,13,,OPERATIONAL,,https://maps.google.com/?cid=7374066848958915787&g_mp=Cilnb29nbGUubWFwcy5wbGFjZXMudjEuUGxhY2VzLlNlYXJjaE5lYXJieRACGAQgAA,park;point_of_interest;establishment,park,Pursat town
ChIJbdQmFgCvDzERtn0lk8KmuoA,ទួលខ្ពស់,nature,park,Park,walking,12.523807999999999,104.18811000000001,"G5FQ+G6, Krakor, Cambodia",5,1,,OPERATIONAL,,https://maps.google.com/?cid=9275909737145531830&g_mp=Cilnb29nbGUubWFwcy5wbGFjZXMudjEuUGxhY2VzLlNlYXJjaE5lYXJieRACGAQgAA,park;point_of_interest;establishment,park,Pursat town
ChIJL0vnMgAbDzER7SihrH-z5O4,ចម្ការក្រូច,nature,park,Park,walking,12.221608699999999,104.15007609999999,"65C2+J2, Phumi Kroch, Cambodia",,,,OPERATIONAL,,https://maps.google.com/?cid=17214081036655339757&g_mp=Cilnb29nbGUubWFwcy5wbGFjZXMudjEuUGxhY2VzLlNlYXJjaE5lYXJieRACGAQgAA,park;point_of_interest;establishment,park,Pursat town
ChIJu6fFOACjDzERbIxmCLQIM6E,ចំណតឡាន វីរៈប៊ុនថាំ - Resting Area of Vireak Buntham,nature,park,Park,walking,12.5288707,103.9680111,"GXH9+C5J, Krong Pursat, Cambodia",4.7,9,,OPERATIONAL,,https://maps.google.com/?cid=11615637433246714988&g_mp=Cilnb29nbGUubWFwcy5wbGFjZXMudjEuUGxhY2VzLlNlYXJjaE5lYXJieRACGAQgAA,park;point_of_interest;establishment,park,Pursat town
ChIJe1pUZACPDzERkaGPYPswgGU,កន្លែងលក់ដូង,nature,park,Park,walking,12.6633304,103.6655512,"MM78+86, Ou Ta Paong, Cambodia",4.2,13,,OPERATIONAL,,https://maps.google.com/?cid=7313899651064635793&g_mp=Cilnb29nbGUubWFwcy5wbGFjZXMudjEuUGxhY2VzLlNlYXJjaE5lYXJieRACGAQgAA,park;point_of_interest;establishment,park,Pursat town
ChIJHUcfZwCpDzERKaXleju6cTY,SNTB - 150MW,nature,park,Park,walking,12.4738355,104.15771219999999,"F5F5+G3, Krakor, Cambodia",,,,OPERATIONAL,,https://maps.google.com/?cid=3923121515044119849&g_mp=Cilnb29nbGUubWFwcy5wbGFjZXMudjEuUGxhY2VzLlNlYXJjaE5lYXJieRACGAQgAA,park;point_of_interest;establishment,park,Pursat town
ChIJ_-wgK1gFDzER4qkmVtI7qzA,KAPAS LER Agritourism Resort,nature,park,Park,walking,12.2816162,104.1708718,"75JC+J8X, Unnamed Road, Bamnak, Cambodia",5,7,,OPERATIONAL,,https://maps.google.com/?cid=3506962509412608482&g_mp=Cilnb29nbGUubWFwcy5wbGFjZXMudjEuUGxhY2VzLlNlYXJjaE5lYXJieRACGAQgAA,park;restaurant;food;point_of_interest;establishment,park,Pursat town
ChIJSaCnX3qUDzERxssBSuTcyms,Tonlé Sap Biosphere Reserve,nature,nature_preserve,Nature Preserve,walking,12.750285799999999,103.8301958,"QR2J+438, Phumi Kouk Khsach, Cambodia",5,2,,OPERATIONAL,,https://maps.google.com/?cid=7767263380406127558&g_mp=Cilnb29nbGUubWFwcy5wbGFjZXMudjEuUGxhY2VzLlNlYXJjaE5lYXJieRACGAQgAA,nature_preserve;park;point_of_interest;establishment,park,Pursat town
ChIJh3uPHwB3DzERYAjrRcN5v14,កោះទឹកឱប,nature,park,Park,walking,12.4057976,103.79311899999999,"CQ4V+86, Krong Pursat, Cambodia",5,1,,OPERATIONAL,,https://maps.google.com/?cid=6827309439715575904&g_mp=Cilnb29nbGUubWFwcy5wbGFjZXMudjEuUGxhY2VzLlNlYXJjaE5lYXJieRACGAQgAA,park;point_of_interest;establishment,park,Pursat town
ChIJMSw4WWejDzERFwqmgT4usKM,Pursat Boat Racing Platform,nature,park,Park,walking,12.5401248,103.92074389999999,"GWRC+27X, 101, Krong Pursat, Cambodia",4.4,26,,OPERATIONAL,,https://maps.google.com/?cid=11794978270081321495&g_mp=Cilnb29nbGUubWFwcy5wbGFjZXMudjEuUGxhY2VzLlNlYXJjaE5lYXJieRACGAQgAA,park;point_of_interest;establishment,park,Pursat town
ChIJZXPOzYNVDjERmpfF4MRpBtI,ចំណតឈប់សម្រាកRH,nature,park,Park,walking,12.4753631,104.3636336,"F9G7+4FR, ក្រុងពោធិ៍សាត់, Cambodia",4.1,34,,OPERATIONAL,,https://maps.google.com/?cid=15133899892130682778&g_mp=Cilnb29nbGUubWFwcy5wbGFjZXMudjEuUGxhY2VzLlNlYXJjaE5lYXJieRACGAQgAA,park;point_of_interest;establishment,park,Pursat town
ChIJY81-ZciDDzERjtv0mZLX_sI,កសិកម្មសមយ័ថ្មីលក់កូនឈេី,nature,park,Park,walking,12.489588,103.643059,"FJQV+R6M, Unnamed Road, Ta Lou, Cambodia",4.7,3,,OPERATIONAL,,https://maps.google.com/?cid=14050904912090684302&g_mp=Cilnb29nbGUubWFwcy5wbGFjZXMudjEuUGxhY2VzLlNlYXJjaE5lYXJieRACGAQgAA,park;point_of_interest;establishment,park,Pursat town
ChIJy800GQCnDzERrWT9MKLcf1M,Chhouk Meas residence,nature,park,Park,walking,12.520143299999999,104.0081886,"G2C5+37, Krong Pursat, Cambodia",,,,OPERATIONAL,,https://maps.google.com/?cid=6016770216354997421&g_mp=Cilnb29nbGUubWFwcy5wbGFjZXMudjEuUGxhY2VzLlNlYXJjaE5lYXJieRACGAQgAA,park;point_of_interest;establishment,park,Pursat town
ChIJYZVVcbR3DzERPZdXEEHqSKs,លោកគ្រូ ក្រវ៉ាញ់,nature,park,Park,walking,12.369377,103.76394099999999,"9Q97+QH, Phnom Kravanh, Cambodia",5,1,,OPERATIONAL,,https://maps.google.com/?cid=12342372343976793917&g_mp=Cilnb29nbGUubWFwcy5wbGFjZXMudjEuUGxhY2VzLlNlYXJjaE5lYXJieRACGAQgAA,park;point_of_interest;establishment,park,Pursat town
ChIJJRDgFACtDzERcPrtiTqt5X0,ត្បាញក្រម៉ា,cultural,art_gallery,Art Gallery,,12.5289101,104.2003505,"G6H2+H4, Krakor, Cambodia",,,,OPERATIONAL,,https://maps.google.com/?cid=9071847491341515376&g_mp=Cilnb29nbGUubWFwcy5wbGFjZXMudjEuUGxhY2VzLlNlYXJjaE5lYXJieRACGAQgAA,art_gallery;point_of_interest;establishment,art_gallery,Pursat town
ChIJ-ZbFlg-bDzERI7jDeVhmnGw,ប្រាសាទវត្តបាកាន,cultural,hindu_temple,Hindu Temple,sightseeing,12.5756012,103.7667228,"HQG8+6MX, Unnamed Road, Bakan, Cambodia",5,7,,OPERATIONAL,,https://maps.google.com/?cid=7826242782649104419&g_mp=Cilnb29nbGUubWFwcy5wbGFjZXMudjEuUGxhY2VzLlNlYXJjaE5lYXJieRACGAQgAA,hindu_temple;place_of_worship;point_of_interest;association_or_organization;establishment,hindu_temple,Pursat town
ChIJ_7Vp3CChDzERLUBbZ4InffQ,Phnom Trob Monastery,cultural,buddhist_temple,Buddhist Temple,sightseeing,12.454085099999999,103.97828469999999,"FX3G+PW, Krong Pursat, Cambodia",4.6,50,,OPERATIONAL,,https://maps.google.com/?cid=17617280758376513581&g_mp=Cilnb29nbGUubWFwcy5wbGFjZXMudjEuUGxhY2VzLlNlYXJjaE5lYXJieRACGAQgAA,buddhist_temple;place_of_worship;association_or_organization;point_of_interest;establishment,buddhist_temple,Pursat town
ChIJoZfnIQD_DjERt6m8HUHQt30,Kachongkot​ Borey Mountain,cultural,buddhist_temple,Buddhist Temple,sightseeing,12.3579391,104.29691229999999,"975W+5Q, Cambodia",3.8,18,,OPERATIONAL,,https://maps.google.com/?cid=9058938153569397175&g_mp=Cilnb29nbGUubWFwcy5wbGFjZXMudjEuUGxhY2VzLlNlYXJjaE5lYXJieRACGAQgAA,buddhist_temple;place_of_worship;association_or_organization;point_of_interest;establishment,buddhist_temple,Pursat town
ChIJid3TA52nDzER9xah308sRJg,Wat Phnom He Phka,cultural,buddhist_temple,Buddhist Temple,sightseeing,12.4712341,104.0712688,"F3CC+FGR, Cambodia",4,4,,OPERATIONAL,,https://maps.google.com/?cid=10971943313747285751&g_mp=Cilnb29nbGUubWFwcy5wbGFjZXMudjEuUGxhY2VzLlNlYXJjaE5lYXJieRACGAQgAA,buddhist_temple;place_of_worship;association_or_organization;point_of_interest;establishment,buddhist_temple,Pursat town
ChIJxbCdqPahDzERbY0n5P9Xs3U,Wat Moniratanaram,cultural,buddhist_temple,Buddhist Temple,sightseeing,12.5254744,103.9316893,"GWGJ+5MP, NR5, Krong Pursat, Cambodia",4.7,68,,OPERATIONAL,http://www.sansochea.org/,https://maps.google.com/?cid=8481219279824850285&g_mp=Cilnb29nbGUubWFwcy5wbGFjZXMudjEuUGxhY2VzLlNlYXJjaE5lYXJieRACGAQgAA,buddhist_temple;place_of_worship;association_or_organization;point_of_interest;establishment,buddhist_temple,Pursat town
ChIJGU16J7unDzERErlLFaYieL8,Wat Chhouk Meas,cultural,buddhist_temple,Buddhist Temple,sightseeing,12.4737718,104.01950079999999,"F2FC+M3, Krong Pursat, Cambodia",3.9,7,,OPERATIONAL,,https://maps.google.com/?cid=13796815555166714130&g_mp=Cilnb29nbGUubWFwcy5wbGFjZXMudjEuUGxhY2VzLlNlYXJjaE5lYXJieRACGAQgAA,buddhist_temple;place_of_worship;association_or_organization;point_of_interest;establishment,buddhist_temple,Pursat town
ChIJIcT3YgD_DjERjvET62p51jY,ដំណាក់​ទី​ 1​ ភ្នំ​កាច់​ចង្កូត​បូរី​,cultural,buddhist_temple,Buddhist Temple,sightseeing,12.3626794,104.3090637,"9875+3J, Cambodia",4.8,10,,OPERATIONAL,,https://maps.google.com/?cid=3951479223181635982&g_mp=Cilnb29nbGUubWFwcy5wbGFjZXMudjEuUGxhY2VzLlNlYXJjaE5lYXJieRACGAQgAA,buddhist_temple;place_of_worship;association_or_organization;point_of_interest;establishment,buddhist_temple,Pursat town
ChIJwajES3KZDzERzhPxns-gTFE,Snam Preah Pagoda,cultural,buddhist_temple,Buddhist Temple,sightseeing,12.5711506,103.8407354,"AH1, Cambodia",3.9,10,,OPERATIONAL,,https://maps.google.com/?cid=5858234028887446478&g_mp=Cilnb29nbGUubWFwcy5wbGFjZXMudjEuUGxhY2VzLlNlYXJjaE5lYXJieRACGAQgAA,buddhist_temple;place_of_worship;association_or_organization;point_of_interest;establishment,buddhist_temple,Pursat town
ChIJrTkzxOiiDzERWV7I_Q2WTUU,Keo Vichey Pagoda,cultural,buddhist_temple,Buddhist Temple,sightseeing,12.5921118,103.9473896,"HWRW+RXR, Kandieng, Cambodia",4.6,20,,OPERATIONAL,,https://maps.google.com/?cid=4993812548660256345&g_mp=Cilnb29nbGUubWFwcy5wbGFjZXMudjEuUGxhY2VzLlNlYXJjaE5lYXJieRACGAQgAA,buddhist_temple;place_of_worship;association_or_organization;point_of_interest;establishment,buddhist_temple,Pursat town
ChIJeYn9RtKrDzERnZnWd86LUlg,Wat Kralanh,cultural,buddhist_temple,Buddhist Temple,sightseeing,12.477649500000002,104.22590849999999,"F6HG+393, Krakor, Cambodia",3.2,6,,OPERATIONAL,,https://maps.google.com/?cid=6364302942318008733&g_mp=Cilnb29nbGUubWFwcy5wbGFjZXMudjEuUGxhY2VzLlNlYXJjaE5lYXJieRACGAQgAA,buddhist_temple;place_of_worship;association_or_organization;point_of_interest;establishment,buddhist_temple,Pursat town
ChIJH2_zCK5VDjERPmdR6bJFvLY,Wat Koh Rumdoul,cultural,buddhist_temple,Buddhist Temple,sightseeing,12.5001499,104.32083999999999,"G82C+384, Ansa Chambak, Cambodia",4.3,6,,OPERATIONAL,,https://maps.google.com/?cid=13167476045245409086&g_mp=Cilnb29nbGUubWFwcy5wbGFjZXMudjEuUGxhY2VzLlNlYXJjaE5lYXJieRACGAQgAA,buddhist_temple;place_of_worship;association_or_organization;point_of_interest;establishment,buddhist_temple,Pursat town
ChIJXdDg-qGaDzER7-5SfjQB3GU,Prey Domrei Pagoda,cultural,buddhist_temple,Buddhist Temple,sightseeing,12.6242178,103.7518271,"AH1, Cambodia",4.1,20,,OPERATIONAL,,https://maps.google.com/?cid=7339742817676357359&g_mp=Cilnb29nbGUubWFwcy5wbGFjZXMudjEuUGxhY2VzLlNlYXJjaE5lYXJieRACGAQgAA,buddhist_temple;place_of_worship;association_or_organization;point_of_interest;establishment,buddhist_temple,Pursat town
ChIJVXBzBI-fDzERTgfxOFBxmzk,Loung Pagoda,cultural,buddhist_temple,Buddhist Temple,sightseeing,12.506689999999999,103.85338680000001,"Street 148, Krong Pursat 150602, Cambodia",4.5,11,,OPERATIONAL,,https://maps.google.com/?cid=4151036070918686542&g_mp=Cilnb29nbGUubWFwcy5wbGFjZXMudjEuUGxhY2VzLlNlYXJjaE5lYXJieRACGAQgAA,buddhist_temple;place_of_worship;association_or_organization;point_of_interest;establishment,buddhist_temple,Pursat town
ChIJuZjfUBCFDzER0UeQiCZtZMA,វត្តចន្ទរង្សី រំលេច,cultural,buddhist_temple,Buddhist Temple,sightseeing,12.6008626,103.6966199,"JM2W+8JX, Phumi Prey Chheutéal, Cambodia",3.9,10,,OPERATIONAL,,https://maps.google.com/?cid=13863325565220571089&g_mp=Cilnb29nbGUubWFwcy5wbGFjZXMudjEuUGxhY2VzLlNlYXJjaE5lYXJieRACGAQgAA,buddhist_temple;place_of_worship;association_or_organization;point_of_interest;establishment,buddhist_temple,Pursat town
ChIJ____m7RnCTERELD8dhFt1zM,វត្តត្រកៀត,cultural,buddhist_temple,Buddhist Temple,sightseeing,12.524257799999999,104.23693809999999,"7VJF+XPV, Svay Kham, Cambodia",5,2,,OPERATIONAL,https://www.facebook.com/share/1BtWtijyZD/?mibextid=wwXIfr,https://maps.google.com/?cid=3735574337705259024&g_mp=Cilnb29nbGUubWFwcy5wbGFjZXMudjEuUGxhY2VzLlNlYXJjaE5lYXJieRACGAQgAA,buddhist_temple;place_of_worship;association_or_organization;point_of_interest;establishment,buddhist_temple,Pursat town
ChIJA_uLeA2iDzERXEiwyCUqVTU,Keo Sovann Pagoda,cultural,buddhist_temple,Buddhist Temple,sightseeing,12.5503234,103.9254859,"HW2G+45H, Pursat Rd, Krong Pursat, Cambodia",2.8,14,,OPERATIONAL,,https://maps.google.com/?cid=3843024198799738972&g_mp=Cilnb29nbGUubWFwcy5wbGFjZXMudjEuUGxhY2VzLlNlYXJjaE5lYXJieRACGAQgAA,buddhist_temple;place_of_worship;association_or_organization;point_of_interest;establishment,buddhist_temple,Pursat town
ChIJ____RlafDzERisWzc3aC2yI,Prek Sdey Pagoda,cultural,buddhist_temple,Buddhist Temple,sightseeing,12.523730299999999,103.9127677,"GWF7+F4R, Krong Pursat, Cambodia",5,11,,OPERATIONAL,,https://maps.google.com/?cid=2511744662448096650&g_mp=Cilnb29nbGUubWFwcy5wbGFjZXMudjEuUGxhY2VzLlNlYXJjaE5lYXJieRACGAQgAA,buddhist_temple;place_of_worship;association_or_organization;point_of_interest;establishment,buddhist_temple,Pursat town
ChIJrVXw2UK9DzER8Qpesr-k9Bc,Wat Nati Setha,cultural,buddhist_temple,Buddhist Temple,sightseeing,12.622435,104.004695,"J2C3+XV, Krong Pursat, Cambodia",4.2,5,,OPERATIONAL,https://www.facebook.com/profile.php?id=100067911144755,https://maps.google.com/?cid=1726185700427959025&g_mp=Cilnb29nbGUubWFwcy5wbGFjZXMudjEuUGxhY2VzLlNlYXJjaE5lYXJieRACGAQgAA,buddhist_temple;place_of_worship;association_or_organization;point_of_interest;establishment,buddhist_temple,Pursat town
ChIJFykN5melDzERVvGfN0Yl8z4,Wat Sovan Sla Ket (Wat Jas),cultural,buddhist_temple,Buddhist Temple,sightseeing,12.536275499999999,104.07502699999999,"G3PG+G26, Unnamed Road, Krong Pursat, Cambodia",5,2,,OPERATIONAL,,https://maps.google.com/?cid=4536010233203388758&g_mp=Cilnb29nbGUubWFwcy5wbGFjZXMudjEuUGxhY2VzLlNlYXJjaE5lYXJieRACGAQgAA,buddhist_temple;place_of_worship;association_or_organization;point_of_interest;establishment,buddhist_temple,Pursat town
ChIJ96kuew-iDzERRNJS4kn9Jfc,Banteay Dei Pagoda,cultural,buddhist_temple,Buddhist Temple,sightseeing,12.542457299999999,103.92239749999999,"GWRC+XXJ, Pursat Rd, Krong Pursat, Cambodia",4.3,26,,OPERATIONAL,,https://maps.google.com/?cid=17808918795278012996&g_mp=Cilnb29nbGUubWFwcy5wbGFjZXMudjEuUGxhY2VzLlNlYXJjaE5lYXJieRACGAQgAA,buddhist_temple;place_of_worship;association_or_organization;point_of_interest;establishment,buddhist_temple,Pursat town
ChIJ2Y7ihSWFDzERc8Poq4WQlo0,Wat Damnak Thnung,cultural,buddhist_temple,Buddhist Temple,sightseeing,12.559975,103.71388320000001,"HP57+XHJ, Cambodia",4.6,9,,OPERATIONAL,,https://maps.google.com/?cid=10202500909643645811&g_mp=Cilnb29nbGUubWFwcy5wbGFjZXMudjEuUGxhY2VzLlNlYXJjaE5lYXJieRACGAQgAA,buddhist_temple;place_of_worship;association_or_organization;point_of_interest;establishment,buddhist_temple,Pursat town
ChIJRSKUVAB5DzERed0UIERoZIs,វត្តបឹងស្ដុក,cultural,church,Church,sightseeing,12.4316529,103.6392427,"CJJQ+MM, Ta Lou, Cambodia",3,1,,OPERATIONAL,,https://maps.google.com/?cid=10044267710748351865&g_mp=Cilnb29nbGUubWFwcy5wbGFjZXMudjEuUGxhY2VzLlNlYXJjaE5lYXJieRACGAQgAA,church;place_of_worship;association_or_organization;point_of_interest;establishment,church,Pursat town
ChIJMaFXXIR_DzER8pHHNaCsc3g,Holy Mountain Church 聖山教会 ភូមិព្រៃកន្ទួត,cultural,church,Church,sightseeing,12.4245769,103.6360959,"CJFP+RCQ, Cambodia",4.5,8,,OPERATIONAL,,https://maps.google.com/?cid=8679470710970094066&g_mp=Cilnb29nbGUubWFwcy5wbGFjZXMudjEuUGxhY2VzLlNlYXJjaE5lYXJieRACGAQgAA,church;place_of_worship;association_or_organization;point_of_interest;establishment,church,Pursat town
ChIJtfYVpgKiDzERwBKywp8npA8,Catholic church of Pursat,cultural,church,Church,sightseeing,12.5312434,103.9251159,"GWJG+F2X, Krong Pursat, Cambodia",4.7,13,,OPERATIONAL,,https://maps.google.com/?cid=1127069373869200064&g_mp=Cilnb29nbGUubWFwcy5wbGFjZXMudjEuUGxhY2VzLlNlYXJjaE5lYXJieRACGAQgAA,church;place_of_worship;association_or_organization;point_of_interest;establishment,church,Pursat town
ChIJGZSUKQCjDzERypKxZyojEKk,Pursat Sunshine Presbyterian Church,cultural,church,Church,sightseeing,12.5352486,103.9293739,"GWW8+538, Krong Pursat, Cambodia",4.3,3,,OPERATIONAL,,https://maps.google.com/?cid=12182275657072480970&g_mp=Cilnb29nbGUubWFwcy5wbGFjZXMudjEuUGxhY2VzLlNlYXJjaE5lYXJieRACGAQgAA,church;place_of_worship;association_or_organization;point_of_interest;establishment,church,Pursat town
ChIJ2ddEuRsDDzERz67LYhKMxJE,វិហារគ្រិស្ត,cultural,church,Church,sightseeing,12.2770631,104.20974059999999,"76G5+RV, ឃុំ ក្រាំងស្គារ, Cambodia",5,2,,OPERATIONAL,,https://maps.google.com/?cid=10503674241529654991&g_mp=Cilnb29nbGUubWFwcy5wbGFjZXMudjEuUGxhY2VzLlNlYXJjaE5lYXJieRACGAQgAA,church;place_of_worship;association_or_organization;point_of_interest;establishment,church,Pursat town
ChIJcR6GMwCZDzERErtqX-_m4os,Light of Cambodia Worship and Education Center,cultural,church,Church,sightseeing,12.5330453,103.8923829,"GVMR+6X, Krong Pursat, Cambodia",5,2,,OPERATIONAL,http://www.lightofcambodia.org/,https://maps.google.com/?cid=10079872831780993810&g_mp=Cilnb29nbGUubWFwcy5wbGFjZXMudjEuUGxhY2VzLlNlYXJjaE5lYXJieRACGAQgAA,church;place_of_worship;association_or_organization;point_of_interest;establishment,church,Pursat town
ChIJyf9IP0qjDzERWgf5T0D4Ojk,Seventh Day Adventist Church Kaew Moni,cultural,church,Church,sightseeing,12.538353899999999,103.9885279,"GXQQ+8CR, Krong Pursat, Cambodia",5,2,,OPERATIONAL,,https://maps.google.com/?cid=4123881363914426202&g_mp=Cilnb29nbGUubWFwcy5wbGFjZXMudjEuUGxhY2VzLlNlYXJjaE5lYXJieRACGAQgAA,church;place_of_worship;association_or_organization;point_of_interest;establishment,church,Pursat town
ChIJBW2dDS2bDzERxdi5OLZUtqo,ភូមិថ្មី ឃុំត្រពាំងជង ស្រុកបាកាន​ ខេត្តពោធិ៍សាត់,cultural,church,Church,sightseeing,12.622948,103.75279139999999,"AH1, Cambodia",,,,OPERATIONAL,,https://maps.google.com/?cid=12301112573821573317&g_mp=Cilnb29nbGUubWFwcy5wbGFjZXMudjEuUGxhY2VzLlNlYXJjaE5lYXJieRACGAQgAA,church;place_of_worship;association_or_organization;point_of_interest;establishment,church,Pursat town
ChIJzY6VH26vDzERbIx1sKpq1cQ,វត្តយាកា,cultural,church,Church,sightseeing,12.5289629,104.14455099999999,"NR5, Cambodia",3.7,3,,CLOSED_TEMPORARILY,,https://maps.google.com/?cid=14183359882810723436&g_mp=Cilnb29nbGUubWFwcy5wbGFjZXMudjEuUGxhY2VzLlNlYXJjaE5lYXJieRACGAQgAA,church;place_of_worship;association_or_organization;point_of_interest;establishment,church,Pursat town
ChIJ4wPSebabDzERQ4NiSIfcoW8,ព្រះវិហារដំណឹងល្អទាំងបួនបាកាន,cultural,church,Church,sightseeing,12.619019699999999,103.75827869999999,"JQ95+H8, Bakan, Cambodia",,,,OPERATIONAL,,https://maps.google.com/?cid=8043952883053527875&g_mp=Cilnb29nbGUubWFwcy5wbGFjZXMudjEuUGxhY2VzLlNlYXJjaE5lYXJieRACGAQgAA,church;place_of_worship;association_or_organization;point_of_interest;establishment,church,Pursat town
ChIJHTlMjv6ZDzERH8bApMedvUs,ព្រះវិហារដំណឹងល្អទាំងបួនចំការចេកខាងជើហ,cultural,church,Church,sightseeing,12.5470104,103.9105469,"GWW6+R63, Krong Pursat, Cambodia",1,1,,OPERATIONAL,,https://maps.google.com/?cid=5457691804231058975&g_mp=Cilnb29nbGUubWFwcy5wbGFjZXMudjEuUGxhY2VzLlNlYXJjaE5lYXJieRACGAQgAA,church;place_of_worship;association_or_organization;point_of_interest;establishment,church,Pursat town
ChIJnWtvOembDzERyZxDCdYJTpA,Bakan New Life Church,cultural,church,Church,sightseeing,12.6027351,103.7852534,"JQ3P+435, Bakan, Cambodia",5,2,,OPERATIONAL,,https://maps.google.com/?cid=10398259404528131273&g_mp=Cilnb29nbGUubWFwcy5wbGFjZXMudjEuUGxhY2VzLlNlYXJjaE5lYXJieRACGAQgAA,church;place_of_worship;association_or_organization;point_of_interest;establishment,church,Pursat town
ChIJXT1wHgCbDzER5IC2r66VucE,ព្រះវិហារជីវិតថ្មីបាកាន,cultural,church,Church,sightseeing,12.6022336,103.7853326,"JQ3P+435, Bakan, Cambodia",,,,OPERATIONAL,,https://maps.google.com/?cid=13959353097516384484&g_mp=Cilnb29nbGUubWFwcy5wbGFjZXMudjEuUGxhY2VzLlNlYXJjaE5lYXJieRACGAQgAA,church;place_of_worship;association_or_organization;point_of_interest;establishment,church,Pursat town
ChIJH0AuNgCBDzERrWS3qwgd3Io,ព្រះវិហារក្ដីនិម្មិតរហាលទិល,cultural,church,Church,sightseeing,12.479715299999999,103.5886019,"FHHQ+VCQ, Ta Lou, Cambodia",,,,OPERATIONAL,,https://maps.google.com/?cid=10005904395188266157&g_mp=Cilnb29nbGUubWFwcy5wbGFjZXMudjEuUGxhY2VzLlNlYXJjaE5lYXJieRACGAQgAA,church;place_of_worship;association_or_organization;point_of_interest;establishment,church,Pursat town
ChIJH6oBcwCfDzERST83ypXShUM,"Sunshine Church, Pursat,",cultural,church,Church,sightseeing,12.4651824,103.89119989999999,"FV8R+3FG, Krong Pursat, Cambodia",,,,OPERATIONAL,,https://maps.google.com/?cid=4865526513228267337&g_mp=Cilnb29nbGUubWFwcy5wbGFjZXMudjEuUGxhY2VzLlNlYXJjaE5lYXJieRACGAQgAA,church;place_of_worship;association_or_organization;point_of_interest;establishment,church,Pursat town
ChIJExmwMRejDzER40_tqJyTSlw,Kbal Hong Alliance Church of KEC CMA,cultural,church,Church,sightseeing,12.549263999999999,103.917774,"GWX9+P42, Unnamed Road, Krong Pursat, Cambodia",4,3,,OPERATIONAL,,https://maps.google.com/?cid=6650290100824264675&g_mp=Cilnb29nbGUubWFwcy5wbGFjZXMudjEuUGxhY2VzLlNlYXJjaE5lYXJieRACGAQgAA,church;place_of_worship;association_or_organization;point_of_interest;establishment,church,Pursat town
ChIJw3sHsRtxDzERUUjPKkMWNto,ព្រះវិហារព្រែកបី FCOP PreakBey Church (អង្គការកុមារកំព្រានៃសេចក្តីសន្យាដំណឹងល្អទាំងបួន),cultural,church,Church,sightseeing,12.350309600000001,103.7483694,"Street 146, Krong Pursat 150301, Cambodia",5,1,,OPERATIONAL,,https://maps.google.com/?cid=15723779626747512913&g_mp=Cilnb29nbGUubWFwcy5wbGFjZXMudjEuUGxhY2VzLlNlYXJjaE5lYXJieRACGAQgAA,church;place_of_worship;association_or_organization;point_of_interest;establishment,church,Pursat town
ChIJoy2SSACXDzER9c_FLrwA2ZI,Damrey Sor SDA church,cultural,church,Church,sightseeing,12.629871699999999,103.8965467,"JVHW+WJ, Krong Pursat, Cambodia",5,2,,OPERATIONAL,,https://maps.google.com/?cid=10581489607722258421&g_mp=Cilnb29nbGUubWFwcy5wbGFjZXMudjEuUGxhY2VzLlNlYXJjaE5lYXJieRACGAQgAA,church;place_of_worship;association_or_organization;point_of_interest;establishment,church,Pursat town
ChIJD4nCbwBxDzERq5NKz7qdwvw,"Sunshine church , Pursat",cultural,church,Church,sightseeing,12.2720956,103.7289167,"7PCH+RHM, Cambodia",,,,OPERATIONAL,,https://maps.google.com/?cid=18213293268706956203&g_mp=Cilnb29nbGUubWFwcy5wbGFjZXMudjEuUGxhY2VzLlNlYXJjaE5lYXJieRACGAQgAA,church;place_of_worship;association_or_organization;point_of_interest;establishment,church,Pursat town
ChIJnwFyOQCjDzERX27Lp6ZFnOo,The church of Jesus Christ of Latter-day Saints,cultural,church,Church,sightseeing,12.547078299999999,103.9159461,"GWQ8+QCP, Krong Pursat, Cambodia",,,,OPERATIONAL,,https://maps.google.com/?cid=16905463683324014175&g_mp=Cilnb29nbGUubWFwcy5wbGFjZXMudjEuUGxhY2VzLlNlYXJjaE5lYXJieRACGAQgAA,church;place_of_worship;association_or_organization;point_of_interest;establishment,church,Pursat town
ChIJT-NgA6eFDzERySo8_Ia9boQ,Kon Thnot,cultural,mosque,Mosque,sightseeing,12.6028726,103.6800401,"JM3J+42V, Phumi Prey Chheutéal, Cambodia",2,6,,OPERATIONAL,,https://maps.google.com/?cid=9542773047899728585&g_mp=Cilnb29nbGUubWFwcy5wbGFjZXMudjEuUGxhY2VzLlNlYXJjaE5lYXJieRACGAQgAA,mosque;place_of_worship;association_or_organization;point_of_interest;establishment,mosque,Pursat town
ChIJSfCj5Q6iDzERO5y-c-stCcI,Al Mo Ber Rek Mosque مسجد,cultural,mosque,Mosque,sightseeing,12.5453618,103.9221673,"GWWC+4VV, Krong Pursat, Cambodia",4.7,6,,OPERATIONAL,,https://maps.google.com/?cid=13981757007430851643&g_mp=Cilnb29nbGUubWFwcy5wbGFjZXMudjEuUGxhY2VzLlNlYXJjaE5lYXJieRACGAQgAA,mosque;place_of_worship;association_or_organization;point_of_interest;establishment,mosque,Pursat town
ChIJ7wIF6quhDzERQaYcI_zwdso,ភូមិអ្វី,cultural,mosque,Mosque,sightseeing,12.516340099999999,103.9617777,"GX86+VX, Krong Pursat, Cambodia",,,,OPERATIONAL,,https://maps.google.com/?cid=14589113008624805441&g_mp=Cilnb29nbGUubWFwcy5wbGFjZXMudjEuUGxhY2VzLlNlYXJjaE5lYXJieRACGAQgAA,mosque;place_of_worship;association_or_organization;point_of_interest;establishment,mosque,Pursat town
ChIJSwypiLWpDzERkXYlFqWtquY,Masjid,cultural,mosque,Mosque,sightseeing,12.4705395,104.1773458,"F5CG+6W9, Cambodia",5,1,,OPERATIONAL,,https://maps.google.com/?cid=16621288299316999825&g_mp=Cilnb29nbGUubWFwcy5wbGFjZXMudjEuUGxhY2VzLlNlYXJjaE5lYXJieRACGAQgAA,mosque;place_of_worship;association_or_organization;point_of_interest;establishment,mosque,Pursat town
ChIJB_S-vBOrDzER5vvDiX6uwyk,New Cham​​ Mosque,cultural,mosque,Mosque,sightseeing,12.4871235,104.25529449999999,"F7P4+R4V, National Hwy 5, New Cham, Cambodia",4.4,5,,OPERATIONAL,,https://maps.google.com/?cid=3009440834514058214&g_mp=Cilnb29nbGUubWFwcy5wbGFjZXMudjEuUGxhY2VzLlNlYXJjaE5lYXJieRACGAQgAA,mosque;place_of_worship;association_or_organization;point_of_interest;establishment,mosque,Pursat town
ChIJmZw7eLGjDzERP6aWuQmLEuA,Phume Veal Masjid,cultural,mosque,Mosque,sightseeing,12.551249199999999,103.9212364,"HW2C+FFX, Krong Pursat, Cambodia",3.4,5,,OPERATIONAL,,https://maps.google.com/?cid=16146120487961273919&g_mp=Cilnb29nbGUubWFwcy5wbGFjZXMudjEuUGxhY2VzLlNlYXJjaE5lYXJieRACGAQgAA,mosque;place_of_worship;association_or_organization;point_of_interest;establishment,mosque,Pursat town
ChIJVUENi5BxDzER2tFMrQS6Ero,ស៊ូរ៉ាវភូមិបោះពួយ,cultural,mosque,Mosque,sightseeing,12.358064800000001,103.7630921,"9Q57+66G, Phnom Kravanh, Cambodia",,,,OPERATIONAL,,https://maps.google.com/?cid=13407983569885516250&g_mp=Cilnb29nbGUubWFwcy5wbGFjZXMudjEuUGxhY2VzLlNlYXJjaE5lYXJieRACGAQgAA,mosque;place_of_worship;association_or_organization;point_of_interest;establishment,mosque,Pursat town
ChIJqR3cKQChDzERfUGGyvrNxlU,ម៉ាស្ជិឌ នូរុល ហ៊ីដាយ៉ះ អូរត្រាវ Masjid Nurul Hidayah,cultural,mosque,Mosque,sightseeing,12.478048099999999,103.9332561,"FWHM+58, Krong Pursat, Cambodia",1,1,,OPERATIONAL,,https://maps.google.com/?cid=6180854015635898749&g_mp=Cilnb29nbGUubWFwcy5wbGFjZXMudjEuUGxhY2VzLlNlYXJjaE5lYXJieRACGAQgAA,mosque;place_of_worship;association_or_organization;point_of_interest;establishment,mosque,Pursat town
ChIJvYgKVxmbDzEREAnwJhk3l4o,Masjid Abu Bakr (Tropang Chorng),cultural,mosque,Mosque,sightseeing,12.6049917,103.7824121,"JQ3J+XXV KSO Bus Stop, NR5, Bakan, Cambodia",5,1,,OPERATIONAL,,https://maps.google.com/?cid=9986511279884339472&g_mp=Cilnb29nbGUubWFwcy5wbGFjZXMudjEuUGxhY2VzLlNlYXJjaE5lYXJieRACGAQgAA,mosque;place_of_worship;association_or_organization;point_of_interest;establishment,mosque,Pursat town
ChIJDzyeTgCtDzERPUCVIiXnjcg,Masjit Al Jamiek,cultural,mosque,Mosque,sightseeing,12.5290667,104.2200532,"G6HC+J2F, Krakor, Cambodia",5,3,,OPERATIONAL,,https://maps.google.com/?cid=14451460925981802557&g_mp=Cilnb29nbGUubWFwcy5wbGFjZXMudjEuUGxhY2VzLlNlYXJjaE5lYXJieRACGAQgAA,mosque;place_of_worship;association_or_organization;point_of_interest;establishment,mosque,Pursat town
ChIJXQHnJU6hDzERnFCjKg05f3w,Masjid Roleap,cultural,mosque,Mosque,sightseeing,12.4852603,103.91690059999999,"FWP8+4Q2, Roleap, Cambodia",5,3,,OPERATIONAL,,https://maps.google.com/?cid=8970951711458021532&g_mp=Cilnb29nbGUubWFwcy5wbGFjZXMudjEuUGxhY2VzLlNlYXJjaE5lYXJieRACGAQgAA,mosque;place_of_worship;association_or_organization;point_of_interest;establishment,mosque,Pursat town
ChIJAVgPcwALDzERWWKBUStWlnM,ម៉ាស្ជិតនូរុលជីពើលអណ្តូងស្វាយ (ភូមិថ្មី ត្នោតជុំ ក្រគរ ពោឬិ៍សាត់),cultural,mosque,Mosque,sightseeing,12.415925699999999,103.9919499,"CX8R+9Q, Krong Pursat, Cambodia",5,1,,OPERATIONAL,,https://maps.google.com/?cid=8328939304919327321&g_mp=Cilnb29nbGUubWFwcy5wbGFjZXMudjEuUGxhY2VzLlNlYXJjaE5lYXJieRACGAQgAA,mosque;place_of_worship;association_or_organization;point_of_interest;establishment,mosque,Pursat town
ChIJz4QE-q2tDzEROYCM5aaPRIU,អារ៉ាហ្វាត់,cultural,mosque,Mosque,sightseeing,12.5496153,104.20458599999999,"G6X3+RRW, Krakor, Cambodia",,,,OPERATIONAL,,https://maps.google.com/?cid=9602958252439273529&g_mp=Cilnb29nbGUubWFwcy5wbGFjZXMudjEuUGxhY2VzLlNlYXJjaE5lYXJieRACGAQgAA,mosque;place_of_worship;association_or_organization;point_of_interest;establishment,mosque,Pursat town
ChIJ9_IIvVmBDzEReNqR3QoXbh0,ម៉ាស្យិតប៉ាតីរីយ៉ាស់មុខរាហ៍2,cultural,mosque,Mosque,sightseeing,12.5292367,103.56840799999999,"GHH9+MC, Phumi Pên, Cambodia",,,,OPERATIONAL,,https://maps.google.com/?cid=2120657809972517496&g_mp=Cilnb29nbGUubWFwcy5wbGFjZXMudjEuUGxhY2VzLlNlYXJjaE5lYXJieRACGAQgAA,mosque;place_of_worship;association_or_organization;point_of_interest;establishment,mosque,Pursat town
ChIJi9GSlt-hDzERJzcw_ouLEPs,យាយចាប់សសរៃ,cultural,mosque,Mosque,sightseeing,12.5171981,103.9624717,"GX86+VX, Krong Pursat, Cambodia",,,,OPERATIONAL,,https://maps.google.com/?cid=18091113136528570151&g_mp=Cilnb29nbGUubWFwcy5wbGFjZXMudjEuUGxhY2VzLlNlYXJjaE5lYXJieRACGAQgAA,mosque;place_of_worship;association_or_organization;point_of_interest;establishment,mosque,Pursat town
ChIJpccK8aEFDzERC6-WP_WKckU,Masjid Raudotul Jannah,cultural,mosque,Mosque,sightseeing,12.2991203,104.17955359999999,"75XH+JRV, ភូមិ ចាមចាស់, Cambodia",,,,OPERATIONAL,,https://maps.google.com/?cid=5004214921900502795&g_mp=Cilnb29nbGUubWFwcy5wbGFjZXMudjEuUGxhY2VzLlNlYXJjaE5lYXJieRACGAQgAA,mosque;place_of_worship;association_or_organization;point_of_interest;establishment,mosque,Pursat town
ChIJVWyCO0WvDzERbvEe3Jrnoc8,Mesjid,cultural,mosque,Mosque,sightseeing,12.526069999999999,104.11851659999999,"G4G9+C9, Krakor, Cambodia",,,,OPERATIONAL,,https://maps.google.com/?cid=14961494089405493614&g_mp=Cilnb29nbGUubWFwcy5wbGFjZXMudjEuUGxhY2VzLlNlYXJjaE5lYXJieRACGAQgAA,mosque;place_of_worship;association_or_organization;point_of_interest;establishment,mosque,Pursat town
ChIJNcFeiCeEDzERfzgwtnP2bwU,Beng Prei,cultural,mosque,Mosque,sightseeing,12.577266499999999,103.63643650000002,"HJGP+WH3, Phum Srah Chineang, Cambodia",3,2,,OPERATIONAL,,https://maps.google.com/?cid=391802669442807935&g_mp=Cilnb29nbGUubWFwcy5wbGFjZXMudjEuUGxhY2VzLlNlYXJjaE5lYXJieRACGAQgAA,mosque;place_of_worship;association_or_organization;point_of_interest;establishment,mosque,Pursat town
ChIJG48BDfWFDzERg5cTStIgwv8,វិហារបឹងប្រិយ៍,cultural,mosque,Mosque,sightseeing,12.580694399999999,103.6366389,"HJJP+7M, Phum Srah Chineang, Cambodia",,,,OPERATIONAL,,https://maps.google.com/?cid=18429328712711509891&g_mp=Cilnb29nbGUubWFwcy5wbGFjZXMudjEuUGxhY2VzLlNlYXJjaE5lYXJieRACGAQgAA,mosque;place_of_worship;association_or_organization;point_of_interest;establishment,mosque,Pursat town
ChIJE3LAyHiVDzERVuQjqR0tDQU,Ruessei Taman Mosque,cultural,mosque,Mosque,sightseeing,12.7190499,103.8443671,"PR9V+JP9, Cambodia",5,2,,OPERATIONAL,,https://maps.google.com/?cid=363996750301881430&g_mp=Cilnb29nbGUubWFwcy5wbGFjZXMudjEuUGxhY2VzLlNlYXJjaE5lYXJieRACGAQgAA,mosque;place_of_worship;association_or_organization;point_of_interest;establishment,mosque,Pursat town
ChIJxxCFtgKZDzERqDDg44Wr2dw,Pursat Stadium,urban,stadium,Stadium,,12.5422096,103.91340989999999,"GWR7+V9M, Krong Pursat, Cambodia",4.7,6,,OPERATIONAL,,https://maps.google.com/?cid=15913939349832478888&g_mp=Cilnb29nbGUubWFwcy5wbGFjZXMudjEuUGxhY2VzLlNlYXJjaE5lYXJieRACGAQgAA,stadium;sports_complex;sports_activity_location;event_venue;point_of_interest;establishment,stadium,Pursat town
ChIJldx_MbFxDzERUeKdQHKKtRY,ពហុកីឡដ្ឋានស្រុកភ្នំក្រវាញ,urban,stadium,Stadium,,12.352129999999999,103.7588538,"9Q25+VG5, Phnom Kravanh, Cambodia",,,,OPERATIONAL,,https://maps.google.com/?cid=1636366262934037073&g_mp=Cilnb29nbGUubWFwcy5wbGFjZXMudjEuUGxhY2VzLlNlYXJjaE5lYXJieRACGAQgAA,stadium;sports_complex;sports_activity_location;event_venue;point_of_interest;establishment,stadium,Pursat town
ChIJfwza2FGjDzERNQ8z0xVdXyU,Sla Meas Skybar,urban,lounge_bar,Lounge bar,nightlife,12.5341025,103.9186613,"GWM9+JFV, Rd Number 102, Krong Pursat, Cambodia",4,18,,OPERATIONAL,,https://maps.google.com/?cid=2692973450509881141&g_mp=Cilnb29nbGUubWFwcy5wbGFjZXMudjEuUGxhY2VzLlNlYXJjaE5lYXJieRACGAQgAA,lounge_bar;night_club;bar;point_of_interest;establishment,night_club,Pursat town
ChIJpdvUZyatDzERhNfee7Ca8qY,ស្រីពេជ្រ KTV,urban,bar,Bar,nightlife,12.5273746,104.2266677,"G6GG+X8M, AH1, Krakor, Cambodia",5,1,,OPERATIONAL,,https://maps.google.com/?cid=12029847637443139460&g_mp=Cilnb29nbGUubWFwcy5wbGFjZXMudjEuUGxhY2VzLlNlYXJjaE5lYXJieRACGAQgAA,karaoke;night_club;bar;point_of_interest;establishment,night_club,Pursat town
ChIJ5y4ZYKuZDzERKRYtb9VmRZU,ដាលីន,urban,bar,Bar,nightlife,12.5397936,103.9125041,"GWR7+324, Krong Pursat, Cambodia",,,,OPERATIONAL,,https://maps.google.com/?cid=10756116351923590697&g_mp=Cilnb29nbGUubWFwcy5wbGFjZXMudjEuUGxhY2VzLlNlYXJjaE5lYXJieRACGAQgAA,karaoke;night_club;bar;point_of_interest;establishment,night_club,Pursat town
ChIJJaoMZmgDDzERpQ1rTlxhkTI,ពេជ្រជោរKTV,urban,bar,Bar,nightlife,12.2739388,104.2107032,"Unnamed Road, ភូមិពេជ្រជោេ, ឃុំ ក្រាំងស្គារ, Cambodia",4.3,3,,OPERATIONAL,,https://maps.google.com/?cid=3643800622599966117&g_mp=Cilnb29nbGUubWFwcy5wbGFjZXMudjEuUGxhY2VzLlNlYXJjaE5lYXJieRACGAQgAA,karaoke;night_club;bar;point_of_interest;establishment,night_club,Pursat town
ChIJJbMVHP-PDzERZORpy-KgmnE,ROSA KTV,urban,bar,Bar,nightlife,12.6333042,103.72494479999999,"Bakan, Cambodia",3.9,64,,OPERATIONAL,,https://maps.google.com/?cid=8186032168635065444&g_mp=Cilnb29nbGUubWFwcy5wbGFjZXMudjEuUGxhY2VzLlNlYXJjaE5lYXJieRACGAQgAA,karaoke;night_club;bar;point_of_interest;establishment,night_club,Pursat town
ChIJQVM4enqjDzERzHbASZPnE5Y,PUB,urban,night_club,Night Club,nightlife,12.5344356,103.9187199,"GWM9+PCV, Krong Pursat, Cambodia",5,1,,OPERATIONAL,,https://maps.google.com/?cid=10814241750030251724&g_mp=Cilnb29nbGUubWFwcy5wbGFjZXMudjEuUGxhY2VzLlNlYXJjaE5lYXJieRACGAQgAA,night_club;point_of_interest;establishment,night_club,Pursat town
ChIJa1v5VACjDzERM6qzS6zOppE,តំបន់កាត់សេដត្រើយម្ខាង,urban,night_club,Night Club,nightlife,12.5343469,103.921571,"GWMC+FFP, Krong Pursat, Cambodia",,,,OPERATIONAL,,https://maps.google.com/?cid=10495303221033282099&g_mp=Cilnb29nbGUubWFwcy5wbGFjZXMudjEuUGxhY2VzLlNlYXJjaE5lYXJieRACGAQgAA,night_club;point_of_interest;establishment,night_club,Pursat town
ChIJvbQEcgCbDzER6LaqDO2_exY,ឧកញ្ញា បង់ បញ្ញា,urban,night_club,Night Club,nightlife,12.5976412,103.79455120000002,"HQWV+VGF, NR5, Bakan, Cambodia",5,1,,OPERATIONAL,,https://maps.google.com/?cid=1620099515810494184&g_mp=Cilnb29nbGUubWFwcy5wbGFjZXMudjEuUGxhY2VzLlNlYXJjaE5lYXJieRACGAQgAA,night_club;point_of_interest;establishment,night_club,Pursat town
ChIJ8xstDwCtDzERMflTOXQ0w-0,Home Ly Roth,urban,night_club,Night Club,nightlife,12.5352421,104.1988105,"G5PX+3GV ភូមិ​កណ្ដាល​ ឃុំអន្លង់ត្នោត, Krakor, Cambodia",4,1,,OPERATIONAL,,https://maps.google.com/?cid=17132595081230154033&g_mp=Cilnb29nbGUubWFwcy5wbGFjZXMudjEuUGxhY2VzLlNlYXJjaE5lYXJieRACGAQgAA,night_club;point_of_interest;establishment,night_club,Pursat town
ChIJ4332KgChDzERMnUB1Hm9LbM,ឧកញ្ញា គុណ,urban,night_club,Night Club,nightlife,12.5302483,103.9246888,"GWJF+4W2, Krong Pursat, Cambodia",5,1,,OPERATIONAL,,https://maps.google.com/?cid=12911184037686637874&g_mp=Cilnb29nbGUubWFwcy5wbGFjZXMudjEuUGxhY2VzLlNlYXJjaE5lYXJieRACGAQgAA,night_club;point_of_interest;establishment,night_club,Pursat town
ChIJuRa_WwCVDzER0d2UrlVEikk,ប្រូខេង,urban,night_club,Night Club,nightlife,12.7204375,103.9069375,"PWC4+5Q, Phumi Dâmnaki Sânakê, Cambodia",,,,OPERATIONAL,,https://maps.google.com/?cid=5299123046346710481&g_mp=Cilnb29nbGUubWFwcy5wbGFjZXMudjEuUGxhY2VzLlNlYXJjaE5lYXJieRACGAQgAA,night_club;point_of_interest;establishment,night_club,Pursat town
ChIJSQ4XRABxDzER7x50fDdCHOA,ឧកញ្ញា គុណ,urban,night_club,Night Club,nightlife,12.2720956,103.7289167,"7PCH+RHM, Phnom Kravanh, Cambodia",,,,OPERATIONAL,,https://maps.google.com/?cid=16148855169922375407&g_mp=Cilnb29nbGUubWFwcy5wbGFjZXMudjEuUGxhY2VzLlNlYXJjaE5lYXJieRACGAQgAA,night_club;point_of_interest;establishment,night_club,Pursat town
ChIJL0dFQQAFDzER7skUkceXKoU,KTV,urban,night_club,Night Club,nightlife,12.291902,104.1753717,"75RG+P4, Bamnak, Cambodia",,,,OPERATIONAL,,https://maps.google.com/?cid=9595648839454607854&g_mp=Cilnb29nbGUubWFwcy5wbGFjZXMudjEuUGxhY2VzLlNlYXJjaE5lYXJieRACGAQgAA,night_club;point_of_interest;establishment,night_club,Pursat town
ChIJxd8NdgAFDzERm00HI9XK9_M,បំឬ,urban,night_club,Night Club,nightlife,12.2979665,104.1850971,"75XP+3C, ភូមិ ចាមចាស់, Cambodia",,,,OPERATIONAL,,https://maps.google.com/?cid=17579742687228546459&g_mp=Cilnb29nbGUubWFwcy5wbGFjZXMudjEuUGxhY2VzLlNlYXJjaE5lYXJieRACGAQgAA,night_club;point_of_interest;establishment,night_club,Pursat town
ChIJY8OC7mefDzERgZmZmdwyd2w,PURSAT MALL,urban,shopping_mall,Shopping Mall,shopping,12.536530899999999,103.920157,"Peal Nheaek 1 VillageKrong, Krong Pursat 150601, Cambodia",3.6,10,,OPERATIONAL,,https://maps.google.com/?cid=7815771601375959425&g_mp=Cilnb29nbGUubWFwcy5wbGFjZXMudjEuUGxhY2VzLlNlYXJjaE5lYXJieRACGAQgAA,shopping_mall;point_of_interest;establishment,shopping_mall,Pursat town
ChIJ-Qz3MeKjDzERHgAc1cRw7YY,ស្នាដៃនារីខ្មែរខេត្តពោធិ៍សាត់,urban,shopping_mall,Shopping Mall,shopping,12.5380109,103.91459959999999,"GWQ7+6R5, Krong Pursat, Cambodia",,,,OPERATIONAL,,https://maps.google.com/?cid=9722551161254051870&g_mp=Cilnb29nbGUubWFwcy5wbGFjZXMudjEuUGxhY2VzLlNlYXJjaE5lYXJieRACGAQgAA,shopping_mall;point_of_interest;establishment,shopping_mall,Pursat town
ChIJhQkOBa9wDzERtgz3vYO6qik,"Deum Kor Market, Kravanh District, Pursat",urban,shopping_mall,Shopping Mall,shopping,12.352226499999999,103.737104,"9P2P+VRX, 148, Krong Pursat, Cambodia",4.4,32,,OPERATIONAL,,https://maps.google.com/?cid=3002417176586423478&g_mp=Cilnb29nbGUubWFwcy5wbGFjZXMudjEuUGxhY2VzLlNlYXJjaE5lYXJieRACGAQgAA,shopping_mall;point_of_interest;establishment,shopping_mall,Pursat town
ChIJiceccQCjDzERPmIEK-3uZVc,Micro Cafe & Mart - Parking ( ចំណត ),urban,shopping_mall,Shopping Mall,shopping,12.5285852,103.9678912,"GXH9+C5J, Krong Pursat, Cambodia",4.3,4,,OPERATIONAL,,https://maps.google.com/?cid=6297702356343874110&g_mp=Cilnb29nbGUubWFwcy5wbGFjZXMudjEuUGxhY2VzLlNlYXJjaE5lYXJieRACGAQgAA,shopping_mall;point_of_interest;establishment,shopping_mall,Pursat town
ChIJyfRypE-jDzER6ESXo6KkYHc,ផ្កាយមាសពោធិ៍សាត់ តំឡើងកាមេរ៉ាសុវត្ថិភាព,urban,shopping_mall,Shopping Mall,shopping,12.5387642,103.9182096,"GWQ9+G74, Rd Number 103, Krong Pursat, Cambodia",5,2,,OPERATIONAL,,https://maps.google.com/?cid=8602056306713904360&g_mp=Cilnb29nbGUubWFwcy5wbGFjZXMudjEuUGxhY2VzLlNlYXJjaE5lYXJieRACGAQgAA,shopping_mall;point_of_interest;establishment,shopping_mall,Pursat town
ChIJVxwPKwCjDzERJs9h0xVotfE,ហាង 2500,urban,shopping_mall,Shopping Mall,shopping,12.5331835,103.9179676,"GWM9+75H, AH1, Krong Pursat, Cambodia",,,,OPERATIONAL,,https://maps.google.com/?cid=17416941576875265830&g_mp=Cilnb29nbGUubWFwcy5wbGFjZXMudjEuUGxhY2VzLlNlYXJjaE5lYXJieRACGAQgAA,shopping_mall;point_of_interest;establishment,shopping_mall,Pursat town
ChIJq79lmQmtDzER3d9l5LwFDMY,ស្រីខួុចលក់ចាប់ហួុយនឹងភេសជ្ជ:គ្រប់មុខ,urban,shopping_mall,Shopping Mall,shopping,12.533023199999999,104.19831839999999,"AH1, Krakor, Cambodia",3.9,12,,OPERATIONAL,,https://maps.google.com/?cid=14270787628074131421&g_mp=Cilnb29nbGUubWFwcy5wbGFjZXMudjEuUGxhY2VzLlNlYXJjaE5lYXJieRACGAQgAA,shopping_mall;point_of_interest;establishment,shopping_mall,Pursat town
ChIJ8fuA4KuYDzERnr4g7Xfcp6c,Pet Tha,urban,shopping_mall,Shopping Mall,shopping,12.536818,103.91003590000001,"GWP6+P2F, AH1, Krong Pursat, Cambodia",4.7,3,,OPERATIONAL,,https://maps.google.com/?cid=12080866933082209950&g_mp=Cilnb29nbGUubWFwcy5wbGFjZXMudjEuUGxhY2VzLlNlYXJjaE5lYXJieRACGAQgAA,shopping_mall;point_of_interest;establishment,shopping_mall,Pursat town
ChIJcXdpPsSFDzER5k1dnDXj8pE,ធ្យូងអនាម័យ អេកូ-ក្រសាំងគ្រួស,urban,shopping_mall,Shopping Mall,shopping,12.625039200000002,103.7231205,"JPGF+26, Beong Khna, Cambodia",5,1,,OPERATIONAL,,https://maps.google.com/?cid=10516717899259661798&g_mp=Cilnb29nbGUubWFwcy5wbGFjZXMudjEuUGxhY2VzLlNlYXJjaE5lYXJieRACGAQgAA,shopping_mall;point_of_interest;establishment,shopping_mall,Pursat town
ChIJ8VdQGQSiDzER7CP436ZcnHs,Lymey Pursat,urban,shopping_mall,Shopping Mall,shopping,12.5375319,103.9206702,"GWQC+277, Krong Pursat, Cambodia",4.3,7,,OPERATIONAL,,https://maps.google.com/?cid=8907096034823906284&g_mp=Cilnb29nbGUubWFwcy5wbGFjZXMudjEuUGxhY2VzLlNlYXJjaE5lYXJieRACGAQgAA,shopping_mall;point_of_interest;establishment,shopping_mall,Pursat town
ChIJjw-6U3evDzERSPCiCD34mZA,Dalis Mart Pursat,urban,shopping_mall,Shopping Mall,shopping,12.519488599999999,104.1582164,"Krong Pursat, Cambodia",,,,OPERATIONAL,http://dalismart.com/,https://maps.google.com/?cid=10419632153919942728&g_mp=Cilnb29nbGUubWFwcy5wbGFjZXMudjEuUGxhY2VzLlNlYXJjaE5lYXJieRACGAQgAA,shopping_mall;point_of_interest;establishment,shopping_mall,Pursat town
ChIJ0Y58z8OFDzERCz2uOU5TNgs,១០វិច្ឆិកាលក់ទូរស័ព្ទដៃ{ជាងអេម},urban,shopping_mall,Shopping Mall,shopping,12.6291675,103.72394519999999,"JPJF+2G, Unnamed Road, Beong Khna, Cambodia",4,14,,OPERATIONAL,,https://maps.google.com/?cid=807924778599857419&g_mp=Cilnb29nbGUubWFwcy5wbGFjZXMudjEuUGxhY2VzLlNlYXJjaE5lYXJieRACGAQgAA,shopping_mall;point_of_interest;establishment,shopping_mall,Pursat town
ChIJtVeONsejDzERYORYhKAGZCI,Y Sa (Lantern & Firework),urban,shopping_mall,Shopping Mall,shopping,12.5360231,103.9182735,"GWP9+98P, Krong Pursat, Cambodia",,,,OPERATIONAL,,https://maps.google.com/?cid=2478112981445567584&g_mp=Cilnb29nbGUubWFwcy5wbGFjZXMudjEuUGxhY2VzLlNlYXJjaE5lYXJieRACGAQgAA,shopping_mall;point_of_interest;establishment,shopping_mall,Pursat town
ChIJixQ6sUWjDzERosknHrnFFfs,SUMO recycle shop japan,urban,shopping_mall,Shopping Mall,shopping,12.5343933,103.915086,"GWM8+Q24, Krong Pursat, Cambodia",,,,CLOSED_TEMPORARILY,,https://maps.google.com/?cid=18092584476896381346&g_mp=Cilnb29nbGUubWFwcy5wbGFjZXMudjEuUGxhY2VzLlNlYXJjaE5lYXJieRACGAQgAA,shopping_mall;point_of_interest;establishment,shopping_mall,Pursat town
ChIJw9f-sR6PDzERD3-WvJ8Ew6c,សុខហេង,urban,shopping_mall,Shopping Mall,shopping,12.6703183,103.6439174,"MJCV+4HF, NR5, រាជធានី​ភ្នំពេញ, Cambodia",4,2,,OPERATIONAL,,https://maps.google.com/?cid=12088510908902833935&g_mp=Cilnb29nbGUubWFwcy5wbGFjZXMudjEuUGxhY2VzLlNlYXJjaE5lYXJieRACGAQgAA,shopping_mall;point_of_interest;establishment,shopping_mall,Pursat town
ChIJm8BcmSF3DzER3W9C0_6f6Sw,នីតា,urban,shopping_mall,Shopping Mall,shopping,12.3639721,103.7829725,"ផ្លូវឃុំតា ទៃ, 9Q7M+H5Q, Phnom Kravanh, Cambodia",4.5,4,,OPERATIONAL,,https://maps.google.com/?cid=3236293724057268189&g_mp=Cilnb29nbGUubWFwcy5wbGFjZXMudjEuUGxhY2VzLlNlYXJjaE5lYXJieRACGAQgAA,shopping_mall;point_of_interest;establishment,shopping_mall,Pursat town
ChIJCwoJh_-FDzERwroveUYm84A,ស្រីពៅ cute cack,urban,shopping_mall,Shopping Mall,shopping,12.6253864,103.72336949999999,"JPGF+585, Unnamed Road, Beong Khna, Cambodia",5,2,,OPERATIONAL,,https://maps.google.com/?cid=9291812540318202562&g_mp=Cilnb29nbGUubWFwcy5wbGFjZXMudjEuUGxhY2VzLlNlYXJjaE5lYXJieRACGAQgAA,shopping_mall;point_of_interest;establishment,shopping_mall,Pursat town
ChIJgye-aE2tDzERZ-gFr4O9g7Y,ហាងទំនិញ ម៉ារ៉ាឌី ថារី,urban,shopping_mall,Shopping Mall,shopping,12.5313079,104.2149439,"G6J7+HW3, Krakor, Cambodia",4.5,2,,OPERATIONAL,,https://maps.google.com/?cid=13151563710126745703&g_mp=Cilnb29nbGUubWFwcy5wbGFjZXMudjEuUGxhY2VzLlNlYXJjaE5lYXJieRACGAQgAA,shopping_mall;point_of_interest;establishment,shopping_mall,Pursat town
ChIJvT3cwQWZDzERmu8Yt-Evvbs,D P beauty Pursat Branch,urban,shopping_mall,Shopping Mall,shopping,12.5358197,103.9118962,"GWP6+8QC, Krong Pursat, Cambodia",,,,OPERATIONAL,,https://maps.google.com/?cid=13528021502176849818&g_mp=Cilnb29nbGUubWFwcy5wbGFjZXMudjEuUGxhY2VzLlNlYXJjaE5lYXJieRACGAQgAA,shopping_mall;point_of_interest;establishment,shopping_mall,Pursat town
ChIJJ8G-7tuPDzERyk2kqmyoJDk,Chhengki online shop,urban,shopping_mall,Shopping Mall,shopping,12.634772,103.72530289999999,"JPMG+W43, Beong Khna, Cambodia",5,1,,OPERATIONAL,https://www.facebook.com/Chhengkionlineshop/,https://maps.google.com/?cid=4117601143996304842&g_mp=Cilnb29nbGUubWFwcy5wbGFjZXMudjEuUGxhY2VzLlNlYXJjaE5lYXJieRACGAQgAA,shopping_mall;point_of_interest;establishment,shopping_mall,Pursat town
ChIJidT_EACtDzERdpoWQSFljO8,Chamkar Fruit resort,attraction,tourist_attraction,Tourist Attraction,,12.549357899999999,104.20471599999999,"G6X3+PVW Cheu Tom commune, Krakor, Cambodia",4,1,,OPERATIONAL,,https://maps.google.com/?cid=17261282665304595062&g_mp=Cilnb29nbGUubWFwcy5wbGFjZXMudjEuUGxhY2VzLlNlYXJjaE5lYXJieRACGAQgAA,tourist_attraction;point_of_interest;establishment,tourist_attraction,Kompong Luong floating village
ChIJnU8fEACpDzER0wgGocZjkxY,SNTI - 30MW,nature,park,Park,walking,12.4867457,104.1574273,"F5P4+MXV, Krakor, Cambodia",,,,OPERATIONAL,,https://maps.google.com/?cid=1626753595167082707&g_mp=Cilnb29nbGUubWFwcy5wbGFjZXMudjEuUGxhY2VzLlNlYXJjaE5lYXJieRACGAQgAA,park;point_of_interest;establishment,park,Kompong Luong floating village
ChIJg-FAVgCpDzER3W33fm32uos,SNTZ - 10MW,nature,park,Park,walking,12.4692663,104.1546812,"F593+PV, Krakor, Cambodia",,,,OPERATIONAL,,https://maps.google.com/?cid=10068630867082178013&g_mp=Cilnb29nbGUubWFwcy5wbGFjZXMudjEuUGxhY2VzLlNlYXJjaE5lYXJieRACGAQgAA,park;point_of_interest;establishment,park,Kompong Luong floating village
ChIJa5JIZgCrDzERqGqZXTjo7-0,Van Meng,nature,park,Park,walking,12.486219,104.24195499999999,"F6PR+FQ, New Cham, Cambodia",,,,OPERATIONAL,,https://maps.google.com/?cid=17145177635208915624&g_mp=Cilnb29nbGUubWFwcy5wbGFjZXMudjEuUGxhY2VzLlNlYXJjaE5lYXJieRACGAQgAA,park;point_of_interest;establishment,park,Kompong Luong floating village
ChIJlbtYEQCpDzER6sA3SGUJMEY,SNTL-BESS 400MWh,nature,park,Park,walking,12.474029699999999,104.1586394,"F5F5+JF, Krakor, Cambodia",5,1,,OPERATIONAL,,https://maps.google.com/?cid=5057552712145027306&g_mp=Cilnb29nbGUubWFwcy5wbGFjZXMudjEuUGxhY2VzLlNlYXJjaE5lYXJieRACGAQgAA,park;point_of_interest;establishment,park,Kompong Luong floating village
ChIJGezVylSrDzER1Pi4ywZ28I4,Wat Keo Morakod,cultural,buddhist_temple,Buddhist Temple,sightseeing,12.507478599999999,104.28608790000001,"G74P+XCW, Krakor, Cambodia",4.3,25,,OPERATIONAL,,https://maps.google.com/?cid=10299862119356102868&g_mp=Cilnb29nbGUubWFwcy5wbGFjZXMudjEuUGxhY2VzLlNlYXJjaE5lYXJieRACGAQgAA,buddhist_temple;place_of_worship;association_or_organization;point_of_interest;establishment,buddhist_temple,Kompong Luong floating village
ChIJFyGPQRSsDzERy4eSt8VJaS0,Wat Bophasovann,cultural,buddhist_temple,Buddhist Temple,sightseeing,12.5336809,104.2123175,"G6M6+FWG, NR5, Krakor, Cambodia",4.3,10,,OPERATIONAL,,https://maps.google.com/?cid=3272227717798594507&g_mp=Cilnb29nbGUubWFwcy5wbGFjZXMudjEuUGxhY2VzLlNlYXJjaE5lYXJieRACGAQgAA,buddhist_temple;place_of_worship;association_or_organization;point_of_interest;establishment,buddhist_temple,Kompong Luong floating village
ChIJMdbBMjWlDzERU8YT0oSUbjs,Wat Thkol Andet,cultural,buddhist_temple,Buddhist Temple,sightseeing,12.596596900000002,104.0937729,"H3WV+JGJ, Cambodia",4.4,5,,OPERATIONAL,,https://maps.google.com/?cid=4282523593857025619&g_mp=Cilnb29nbGUubWFwcy5wbGFjZXMudjEuUGxhY2VzLlNlYXJjaE5lYXJieRACGAQgAA,buddhist_temple;place_of_worship;association_or_organization;point_of_interest;establishment,buddhist_temple,Kompong Luong floating village
ChIJOQz96HGsDzERCqIqS3UTF_8,Wat Kabel Moha Prom,cultural,buddhist_temple,Buddhist Temple,sightseeing,12.525146,104.2233803,"G6GF+392, NR5, Krakor, Cambodia",4.4,7,,OPERATIONAL,,https://maps.google.com/?cid=18381181798629155338&g_mp=Cilnb29nbGUubWFwcy5wbGFjZXMudjEuUGxhY2VzLlNlYXJjaE5lYXJieRACGAQgAA,buddhist_temple;place_of_worship;association_or_organization;point_of_interest;establishment,buddhist_temple,Kompong Luong floating village
ChIJkaY_JQCnDzERY6ws1ktVkUI,វត្តស្ដៅ,cultural,buddhist_temple,Buddhist Temple,sightseeing,12.519522499999999,104.09338129999999,"G39V+R92, Cambodia",5,1,,OPERATIONAL,,https://maps.google.com/?cid=4796708862330448995&g_mp=Cilnb29nbGUubWFwcy5wbGFjZXMudjEuUGxhY2VzLlNlYXJjaE5lYXJieRACGAQgAA,buddhist_temple;place_of_worship;association_or_organization;point_of_interest;establishment,buddhist_temple,Kompong Luong floating village
ChIJM3dMeQCvDzER6CkL8Eofc4s,វត្តពុទ្ធរង្សី ហៅវត្តពុទ្ទ្រាម,cultural,buddhist_temple,Buddhist Temple,sightseeing,12.5548375,104.11229689999999,"H436+WWM ពុទ្ទ្រាម, Cambodia",4.5,2,,OPERATIONAL,,https://maps.google.com/?cid=10048409600309012968&g_mp=Cilnb29nbGUubWFwcy5wbGFjZXMudjEuUGxhY2VzLlNlYXJjaE5lYXJieRACGAQgAA,buddhist_temple;place_of_worship;association_or_organization;point_of_interest;establishment,buddhist_temple,Kompong Luong floating village
ChIJ80Nj3imrDzERiBxGFal_a7w,វត្តប្រសិទ្ធិកេរ្ត៍,cultural,buddhist_temple,Buddhist Temple,sightseeing,12.510548799999999,104.2000684,"G662+628, Krakor, Cambodia",5,2,,OPERATIONAL,,https://maps.google.com/?cid=13577085865821609096&g_mp=Cilnb29nbGUubWFwcy5wbGFjZXMudjEuUGxhY2VzLlNlYXJjaE5lYXJieRACGAQgAA,buddhist_temple;place_of_worship;association_or_organization;point_of_interest;establishment,buddhist_temple,Kompong Luong floating village
ChIJSYZS9yKlDzERzpPxz1tSYwM,វត្តបន្ទាយក្រោម,cultural,buddhist_temple,Buddhist Temple,sightseeing,12.5664549,104.0791092,"H38H+HJ, Krong Pursat, Cambodia",5,3,,OPERATIONAL,,https://maps.google.com/?cid=244129359092356046&g_mp=Cilnb29nbGUubWFwcy5wbGFjZXMudjEuUGxhY2VzLlNlYXJjaE5lYXJieRACGAQgAA,buddhist_temple;place_of_worship;association_or_organization;point_of_interest;establishment,buddhist_temple,Kompong Luong floating village
ChIJy16lVLOlDzER6AQRSHlDsVM,វត្តសូរ្យឧត្តម,cultural,buddhist_temple,Buddhist Temple,sightseeing,12.5808401,104.08645150000001,"H3JP+8H, Krong Pursat, Cambodia",5,1,,OPERATIONAL,,https://maps.google.com/?cid=6030675564204983528&g_mp=Cilnb29nbGUubWFwcy5wbGFjZXMudjEuUGxhY2VzLlNlYXJjaE5lYXJieRACGAQgAA,buddhist_temple;place_of_worship;association_or_organization;point_of_interest;establishment,buddhist_temple,Kompong Luong floating village
ChIJdxB8JQCvDzERL3VcxHRjwig,វត្ត ធម្មបពិត្រស្ថិតាឡារាម (វត្តទួលខ្ពស់),cultural,buddhist_temple,Buddhist Temple,sightseeing,12.527676099999999,104.18863089999999,"G5HQ+3FC ភូមិប៉ប៉ិត, ឃុំអន្លង់ត្នោត, វត្តទួលខ្ពស់, Krakor, Cambodia",,,,OPERATIONAL,,https://maps.google.com/?cid=2937019260160734511&g_mp=Cilnb29nbGUubWFwcy5wbGFjZXMudjEuUGxhY2VzLlNlYXJjaE5lYXJieRACGAQgAA,buddhist_temple;place_of_worship;association_or_organization;point_of_interest;establishment,buddhist_temple,Kompong Luong floating village
ChIJF_zoTABVDjERK3-BjuYzV0I,វត្តព្រះវិហារហ្លួង,cultural,buddhist_temple,Buddhist Temple,sightseeing,12.471024,104.30315689999999,"F8C3+C73, Ansa Chambak, Cambodia",,,,OPERATIONAL,,https://maps.google.com/?cid=4780346594803416875&g_mp=Cilnb29nbGUubWFwcy5wbGFjZXMudjEuUGxhY2VzLlNlYXJjaE5lYXJieRACGAQgAA,buddhist_temple;place_of_worship;association_or_organization;point_of_interest;establishment,buddhist_temple,Kompong Luong floating village
ChIJTYKLfgCrDzERiaXR_SET4QI,Masjid Tengku Rahmah,cultural,church,Church,sightseeing,12.436600100000001,104.2161343,"C6P8+JFR, ភូមិស្ពានពីរ, Cambodia",,,,OPERATIONAL,,https://maps.google.com/?cid=207468094548977033&g_mp=Cilnb29nbGUubWFwcy5wbGFjZXMudjEuUGxhY2VzLlNlYXJjaE5lYXJieRACGAQgAA,church;place_of_worship;association_or_organization;point_of_interest;establishment,church,Kompong Luong floating village
ChIJ37gVAwCtDzERQdh5xkkzg2Q,Madrasah tahfiz mistahulhidayah,cultural,mosque,Mosque,sightseeing,12.549357899999999,104.20471599999999,"G6X3+PVW, Krakor, Cambodia",,,,OPERATIONAL,,https://maps.google.com/?cid=7242689017697392705&g_mp=Cilnb29nbGUubWFwcy5wbGFjZXMudjEuUGxhY2VzLlNlYXJjaE5lYXJieRACGAQgAA,mosque;place_of_worship;point_of_interest;association_or_organization;establishment,mosque,Kompong Luong floating village
ChIJs9hSegCpDzERQM4Co8TBEn4,Masjid Hood Alhadad,cultural,mosque,Mosque,sightseeing,12.470590099999999,104.17736289999999,"F5CG+6WQ, Cambodia",5,1,,OPERATIONAL,,https://maps.google.com/?cid=9084536448652332608&g_mp=Cilnb29nbGUubWFwcy5wbGFjZXMudjEuUGxhY2VzLlNlYXJjaE5lYXJieRACGAQgAA,mosque;place_of_worship;point_of_interest;association_or_organization;establishment,mosque,Kompong Luong floating village
ChIJ10NJNACrDzERt-WAK1l6rMc,Masjid Tengku Rahmah,cultural,mosque,Mosque,sightseeing,12.4365775,104.2161349,"C6P8+JFJ, ស្ពានពីរ, Cambodia",5,1,,OPERATIONAL,,https://maps.google.com/?cid=14388009432942437815&g_mp=Cilnb29nbGUubWFwcy5wbGFjZXMudjEuUGxhY2VzLlNlYXJjaE5lYXJieRACGAQgAA,mosque;place_of_worship;point_of_interest;association_or_organization;establishment,mosque,Kompong Luong floating village
ChIJSx93ohasDzERza2uPE8iNXo,Meng Yu Shop,urban,shopping_mall,Shopping Mall,shopping,12.533665899999999,104.2100389,"G6M6+F27, Krakor, Cambodia",,,,OPERATIONAL,,https://maps.google.com/?cid=8805982370108714445&g_mp=Cilnb29nbGUubWFwcy5wbGFjZXMudjEuUGxhY2VzLlNlYXJjaE5lYXJieRACGAQgAA,shopping_mall;point_of_interest;establishment,shopping_mall,Kompong Luong floating village
ChIJu4LmTwCtDzERGeT2coOuW50,ផលច្រឹប,urban,shopping_mall,Shopping Mall,shopping,12.549357899999999,104.20471599999999,"G6X3+PVW, ភូមិផ្ទះចេក ឃុំឈើតុំ, Krakor, Cambodia",,,,OPERATIONAL,,https://maps.google.com/?cid=11338848366428087321&g_mp=Cilnb29nbGUubWFwcy5wbGFjZXMudjEuUGxhY2VzLlNlYXJjaE5lYXJieRACGAQgAA,shopping_mall;point_of_interest;establishment,shopping_mall,Kompong Luong floating village
ChIJNYkrjrCtDzERP2mY30H4S14,ហាងគ្រូប៊ុនថូ ឡៃហ៊ាង,urban,shopping_mall,Shopping Mall,shopping,12.529577399999999,104.22146149999999,"G6HC+MCQ, NR5, Krakor, Cambodia",,,,OPERATIONAL,,https://maps.google.com/?cid=6794797424626395455&g_mp=Cilnb29nbGUubWFwcy5wbGFjZXMudjEuUGxhY2VzLlNlYXJjaE5lYXJieRACGAQgAA,shopping_mall;point_of_interest;establishment,shopping_mall,Kompong Luong floating village
ChIJx80Y3ji6BTER4ajiSL73KTI,Phnum Samkos Wildlife Sanctuary,nature,wildlife_refuge,Wildlife Refuge,walking,12.308330999999999,102.9901921,"8កម្ពុជា, Cambodia",4.2,935,,OPERATIONAL,,https://maps.google.com/?cid=3614692572580194529&g_mp=Cilnb29nbGUubWFwcy5wbGFjZXMudjEuUGxhY2VzLlNlYXJjaE5lYXJieRACGAQgAA,wildlife_refuge;tourist_attraction;park;point_of_interest;establishment,tourist_attraction,Cardamom foothills west
ChIJ4dW6wY_rBTER550J8AnFm5E,អូរសោម,attraction,tourist_attraction,Tourist Attraction,,12.084488799999999,103.2093597,"36J5+75, វាលវែង, Cambodia",4.4,64,,OPERATIONAL,,https://maps.google.com/?cid=10492196403362242023&g_mp=Cilnb29nbGUubWFwcy5wbGFjZXMudjEuUGxhY2VzLlNlYXJjaE5lYXJieRACGAQgAA,tourist_attraction;point_of_interest;establishment,tourist_attraction,Cardamom foothills west
ChIJ_aAUZhXDBTERHChre6ijNRU,Chhay Proy Waterfall,attraction,tourist_attraction,Tourist Attraction,,11.9808228,103.1239806,"X4JF+8HH, Unnamed Road, Cambodia",4.4,66,,OPERATIONAL,,https://maps.google.com/?cid=1528307592582604828&g_mp=Cilnb29nbGUubWFwcy5wbGFjZXMudjEuUGxhY2VzLlNlYXJjaE5lYXJieRACGAQgAA,tourist_attraction;point_of_interest;establishment,tourist_attraction,Cardamom foothills west
ChIJJ9A5Gg5xBTER6NcMwF1g-UU,ទំនប់ទឹក បាសាក់,attraction,tourist_attraction,Tourist Attraction,,12.568202699999999,103.32535689999999,"H89G+74Q, Rukhak Kiri, Cambodia",4.1,39,,OPERATIONAL,,https://maps.google.com/?cid=5042167213588273128&g_mp=Cilnb29nbGUubWFwcy5wbGFjZXMudjEuUGxhY2VzLlNlYXJjaE5lYXJieRACGAQgAA,tourist_attraction;point_of_interest;establishment,tourist_attraction,Cardamom foothills west
ChIJnT6dagC_BTER9MrvO97-zPQ,កន្លែងថតរូបទៅភ្នំសំកុះ,attraction,tourist_attraction,Tourist Attraction,,12.1553913,103.11535529999999,"5448+54, Moat Preah, Cambodia",4.9,10,,OPERATIONAL,,https://maps.google.com/?cid=17639754070945155828&g_mp=Cilnb29nbGUubWFwcy5wbGFjZXMudjEuUGxhY2VzLlNlYXJjaE5lYXJieRACGAQgAA,tourist_attraction;point_of_interest;establishment,tourist_attraction,Cardamom foothills west
ChIJR9Buc8mlBTERaf7fURnDieg,Phnom Tumpor,attraction,tourist_attraction,Tourist Attraction,,12.3867661,103.02901179999999,"ភូមិទំព័រ ឃុំព្រម៉ោយ ស្រុកវាលវែង ខេត្តពោធិ៍សាត់​, 92PH+PJ2, Phumi Prâmaôy, Cambodia",4.6,21,,OPERATIONAL,,https://maps.google.com/?cid=16756138402123873897&g_mp=Cilnb29nbGUubWFwcy5wbGFjZXMudjEuUGxhY2VzLlNlYXJjaE5lYXJieRACGAQgAA,tourist_attraction;point_of_interest;establishment,tourist_attraction,Cardamom foothills west
ChIJDZIcyrbtBTERQaTWY7egNtk,ជម្រកក្រពើភ្នំ - Mount Crocodile Sanctuary,attraction,tourist_attraction,Tourist Attraction,,12.0403468,103.2728399,"គៀនជង្រុក, អូរសោម, Cambodia",5,2,,OPERATIONAL,,https://maps.google.com/?cid=15651874264487208001&g_mp=Cilnb29nbGUubWFwcy5wbGFjZXMudjEuUGxhY2VzLlNlYXJjaE5lYXJieRACGAQgAA,tourist_attraction;point_of_interest;establishment,tourist_attraction,Cardamom foothills west
ChIJk4tWinCjBTERwTDsJn4jSxI,Tompor Village of Community Protection Area,attraction,tourist_attraction,Tourist Attraction,,12.3740566,103.10319539999999,"94F3+J7G, Unnamed Road, Péam Prus, Cambodia",4.3,12,,OPERATIONAL,,https://maps.google.com/?cid=1318186340661866689&g_mp=Cilnb29nbGUubWFwcy5wbGFjZXMudjEuUGxhY2VzLlNlYXJjaE5lYXJieRACGAQgAA,tourist_attraction;point_of_interest;establishment,tourist_attraction,Cardamom foothills west
ChIJ49_9oEi5BTERec3Fk6DjGHw,ទឹកធ្លាក់ដំណាក់ទី២,attraction,tourist_attraction,Tourist Attraction,,12.147699999999999,103.0467,"42XW+3M, Moat Preah, Cambodia",4.5,2,,OPERATIONAL,,https://maps.google.com/?cid=8942147338957606265&g_mp=Cilnb29nbGUubWFwcy5wbGFjZXMudjEuUGxhY2VzLlNlYXJjaE5lYXJieRACGAQgAA,tourist_attraction;point_of_interest;establishment,tourist_attraction,Cardamom foothills west
ChIJJVCMDZp1BTER6Z88I0SLmlw,ល្បាក់ទឹកស្ទឹងដូនទ្រី(អន្លង់ក្របី),attraction,tourist_attraction,Tourist Attraction,,12.520453999999999,103.2500374,"G7C2+52M, Unnamed Road, Phumi Srê Peang, Cambodia",4.7,9,,OPERATIONAL,,https://maps.google.com/?cid=6672798922668023785&g_mp=Cilnb29nbGUubWFwcy5wbGFjZXMudjEuUGxhY2VzLlNlYXJjaE5lYXJieRACGAQgAA,tourist_attraction;point_of_interest;establishment,tourist_attraction,Cardamom foothills west
ChIJE5jrPQB7BTERYjrpN39qXoY,ត្រជាក់ចិត្ត,attraction,tourist_attraction,Tourist Attraction,,12.589993,103.41559799999999,"HCQ8+X6, រុក្ខគិរី, Cambodia",4.2,6,,OPERATIONAL,,https://maps.google.com/?cid=9682293343524567650&g_mp=Cilnb29nbGUubWFwcy5wbGFjZXMudjEuUGxhY2VzLlNlYXJjaE5lYXJieRACGAQgAA,tourist_attraction;point_of_interest;establishment,tourist_attraction,Cardamom foothills west
ChIJHWTita65BTERvAcA6zQDsGE,ភ្នំសំកុស (Phnom Samkos) ១៧៤៤ម,attraction,tourist_attraction,Tourist Attraction,,12.1573827,103.0458247,"ភូមិឈើទាលជ្រុំ ឃុំប្រម៉ោយ, Cambodia",4.1,11,,OPERATIONAL,,https://maps.google.com/?cid=7039129743395915708&g_mp=Cilnb29nbGUubWFwcy5wbGFjZXMudjEuUGxhY2VzLlNlYXJjaE5lYXJieRACGAQgAA,tourist_attraction;point_of_interest;establishment,tourist_attraction,Cardamom foothills west
ChIJ-3VzKTvpBTERGpPTHAl0pTA,ចំការធុរេន លី ហ្វេន,attraction,farm,Farm,,12.0287211,103.2073216,"Osoum, វាលវែង 150401, Cambodia",5,1,,OPERATIONAL,,https://maps.google.com/?cid=3505335467464954650&g_mp=Cilnb29nbGUubWFwcy5wbGFjZXMudjEuUGxhY2VzLlNlYXJjaE5lYXJieRACGAQgAA,farm;tourist_attraction;service;point_of_interest;establishment,tourist_attraction,Cardamom foothills west
ChIJSzY9DwB3BTERxGE-br-Np9I,អន្លង់ក្របី,cultural,historical_landmark,Historical Landmark,,12.546292399999999,103.2779874,"G7WH+G59, Phumi Chhuk, Cambodia",3,3,,OPERATIONAL,,https://maps.google.com/?cid=15179256922403398084&g_mp=Cilnb29nbGUubWFwcy5wbGFjZXMudjEuUGxhY2VzLlNlYXJjaE5lYXJieRACGAQgAA,historical_landmark;historical_place;point_of_interest;establishment,historical_landmark,Cardamom foothills west
ChIJ1WtEdADtBTERGjIz9zl1hRk,ភូមិអូរធំ ឃុំក្រពើពីរ ស្រុកវាលវែង ខេត្តពោធិ៍សាត់,cultural,historical_landmark,Historical Landmark,,12.054292,103.27211969999999,"373C+PR9, វាលវែង, Cambodia",1.5,2,,OPERATIONAL,,https://maps.google.com/?cid=1839004914671628826&g_mp=Cilnb29nbGUubWFwcy5wbGFjZXMudjEuUGxhY2VzLlNlYXJjaE5lYXJieRACGAQgAA,historical_landmark;historical_place;point_of_interest;establishment,historical_landmark,Cardamom foothills west
ChIJw2zFIwCLBTER-Zbh9IMaRrU,ព្រះអង្គតូច (ខ្នងព្រះអង្គ),cultural,historical_landmark,Historical Landmark,,12.1058252,103.50917299999999,"4G45+8M, Phumi Mongri, Cambodia",5,2,,OPERATIONAL,,https://maps.google.com/?cid=13062156923286165241&g_mp=Cilnb29nbGUubWFwcy5wbGFjZXMudjEuUGxhY2VzLlNlYXJjaE5lYXJieRACGAQgAA,historical_landmark;historical_place;point_of_interest;establishment,historical_landmark,Cardamom foothills west
ChIJg4IJprvtBTERhMJfH_rfaag,ខេត្តតាកេវ,cultural,historical_landmark,Historical Landmark,,12.054292,103.27211969999999,"373C+PR9, វាលវែង, Cambodia",,,,OPERATIONAL,,https://maps.google.com/?cid=12135476936287699588&g_mp=Cilnb29nbGUubWFwcy5wbGFjZXMudjEuUGxhY2VzLlNlYXJjaE5lYXJieRACGAQgAA,historical_landmark;historical_place;point_of_interest;establishment,historical_landmark,Cardamom foothills west
ChIJt-LZbQDtBTER7F_7sJbl10Y,ថ្មដា,cultural,historical_landmark,Historical Landmark,,12.0540715,103.27233059999999,"373C+JWG, វាលវែង, Cambodia",4.1,9,,OPERATIONAL,,https://maps.google.com/?cid=5104801138024865772&g_mp=Cilnb29nbGUubWFwcy5wbGFjZXMudjEuUGxhY2VzLlNlYXJjaE5lYXJieRACGAQgAA,historical_landmark;historical_place;point_of_interest;establishment,historical_landmark,Cardamom foothills west
ChIJAXrmQCHrBTER-mszt5D-3Xo,កំពង់ចំលង អូសោម,nature,park,Park,walking,12.07803,103.1885417,"35HQ+6C, Moat Preah, Cambodia",5,4,,OPERATIONAL,,https://maps.google.com/?cid=8853512339982609402&g_mp=Cilnb29nbGUubWFwcy5wbGFjZXMudjEuUGxhY2VzLlNlYXJjaE5lYXJieRACGAQgAA,park;point_of_interest;establishment,park,Cardamom foothills west
ChIJMagAUWX3BTER4QxvR4BUgOs,ឧទ្យានជាតិជួរភ្នំក្រវាញកណ្តាល,nature,nature_preserve,Nature Preserve,walking,11.9373636,103.48534029999999,"WFPP+W4W, Chamka Kas, Cambodia",5,4,,OPERATIONAL,,https://maps.google.com/?cid=16969656305863036129&g_mp=Cilnb29nbGUubWFwcy5wbGFjZXMudjEuUGxhY2VzLlNlYXJjaE5lYXJieRACGAQgAA,nature_preserve;park;point_of_interest;establishment,park,Cardamom foothills west
ChIJvZnOEen5BTER_HXwRnAD95E,ទឹកធ្លាក់ស្ទឹងកែប-Stueng Kep waterfall,nature,national_park,National Park,walking,11.8598349,103.46235139999999,"Phumi Chréav, Cambodia",5,6,,OPERATIONAL,,https://maps.google.com/?cid=10517879235508467196&g_mp=Cilnb29nbGUubWFwcy5wbGFjZXMudjEuUGxhY2VzLlNlYXJjaE5lYXJieRACGAQgAA,national_park;park;point_of_interest;establishment,park,Cardamom foothills west
ChIJ_2GFNQC9BTERCI-KxoVH4lg,ផ្លូវជាតិលេខ១០,nature,park,Park,walking,12.2316839,103.11188299999999,"64J6+MQ, Phumi Prâmaôy, Cambodia",,,,OPERATIONAL,,https://maps.google.com/?cid=6404760259961458440&g_mp=Cilnb29nbGUubWFwcy5wbGFjZXMudjEuUGxhY2VzLlNlYXJjaE5lYXJieRACGAQgAA,park;point_of_interest;establishment,park,Cardamom foothills west
ChIJ509_0FC5BTERua3DXPHwMtg,ភ្នំសំកុះ,nature,park,Park,walking,12.1468625,103.03281349999999,"42WM+P4W, Moat Preah, Cambodia",5,1,,OPERATIONAL,,https://maps.google.com/?cid=15578778980462079417&g_mp=Cilnb29nbGUubWFwcy5wbGFjZXMudjEuUGxhY2VzLlNlYXJjaE5lYXJieRACGAQgAA,park;point_of_interest;establishment,park,Cardamom foothills west
ChIJ_bMFRgDrBTERyHmJyQYvVYc,Osoam Pepper Farm,nature,park,Park,walking,12.059210499999999,103.2249372,"365F+MXM, Cambodia",,,,OPERATIONAL,,https://maps.google.com/?cid=9751752274338216392&g_mp=Cilnb29nbGUubWFwcy5wbGFjZXMudjEuUGxhY2VzLlNlYXJjaE5lYXJieRACGAQgAA,park;point_of_interest;establishment,park,Cardamom foothills west
ChIJoeLA3gbrBTERaZdrNng96VQ,ប៉មមើលទេសភាព លោកតាសោម,nature,national_park,National Park,walking,12.0813125,103.2028125,"36J3+G4, Cambodia",4.7,3,,OPERATIONAL,,https://maps.google.com/?cid=6118489155277920105&g_mp=Cilnb29nbGUubWFwcy5wbGFjZXMudjEuUGxhY2VzLlNlYXJjaE5lYXJieRACGAQgAA,national_park;park;point_of_interest;establishment,park,Cardamom foothills west
ChIJ1ymmAgCHBTERqQ7nxRplfR8,ផ្ទះបងខ្លឹង,nature,park,Park,walking,12.3194164,103.5027578,"8G93+Q4, Phumi Rôvieng, Cambodia",4.5,2,,OPERATIONAL,,https://maps.google.com/?cid=2269080952928407209&g_mp=Cilnb29nbGUubWFwcy5wbGFjZXMudjEuUGxhY2VzLlNlYXJjaE5lYXJieRACGAQgAA,park;point_of_interest;establishment,park,Cardamom foothills west
ChIJybq8MQDrBTERLFcv91dm7Lk,ចំការធុរេន榴莲产,nature,park,Park,walking,12.0638147,103.2412425,"367R+GFH, Cambodia",,,,OPERATIONAL,,https://maps.google.com/?cid=13397195519515645740&g_mp=Cilnb29nbGUubWFwcy5wbGFjZXMudjEuUGxhY2VzLlNlYXJjaE5lYXJieRACGAQgAA,park;point_of_interest;establishment,park,Cardamom foothills west
ChIJCTJHVACDDzER2OXJeWQxBPY,ដីស្រែថ្មី,nature,park,Park,walking,12.458772,103.64116899999999,"FJ5R+GF, Cambodia",5,1,,OPERATIONAL,,https://maps.google.com/?cid=17727348340846880216&g_mp=Cilnb29nbGUubWFwcy5wbGFjZXMudjEuUGxhY2VzLlNlYXJjaE5lYXJieRACGAQgAA,park;point_of_interest;establishment,park,Cardamom foothills west
ChIJq41oSQBlDzERcBuAEO-rAq4,ភ្នំតាងរ៉ាង,nature,park,Park,walking,12.267478599999999,103.7091609,"7P85+XM, Arai, Cambodia",,,,OPERATIONAL,,https://maps.google.com/?cid=12538773355815246704&g_mp=Cilnb29nbGUubWFwcy5wbGFjZXMudjEuUGxhY2VzLlNlYXJjaE5lYXJieRACGAQgAA,park;point_of_interest;establishment,park,Cardamom foothills west
ChIJEVk-LxV5DzERcAY_7IezPSU,ដើមអំពិលស្អុយ,nature,park,Park,walking,12.3841089,103.72133409999999,"9PMC+JG, Phnom Kravanh, Cambodia",,,,OPERATIONAL,,https://maps.google.com/?cid=2683498349348193904&g_mp=Cilnb29nbGUubWFwcy5wbGFjZXMudjEuUGxhY2VzLlNlYXJjaE5lYXJieRACGAQgAA,park;point_of_interest;establishment,park,Cardamom foothills west
ChIJMc_9yeZ7DzERoi-QA-cpXgM,ភ្នំកែវ,nature,park,Park,walking,12.3454453,103.6961039,"8MWW+5C, Phnom Kravanh, Cambodia",,,,OPERATIONAL,,https://maps.google.com/?cid=242677502098550690&g_mp=Cilnb29nbGUubWFwcy5wbGFjZXMudjEuUGxhY2VzLlNlYXJjaE5lYXJieRACGAQgAA,park;point_of_interest;establishment,park,Cardamom foothills west
ChIJVRpcYAR_BTER_vU4O2wPslk,វត្ត ស្តុកប្រវឹក,cultural,buddhist_temple,Buddhist Temple,sightseeing,12.537208399999999,103.52897779999999,"GGPH+VHQ, Unnamed Road, Phumi Pên, Cambodia",4.4,7,,OPERATIONAL,,https://maps.google.com/?cid=6463245372754556414&g_mp=Cilnb29nbGUubWFwcy5wbGFjZXMudjEuUGxhY2VzLlNlYXJjaE5lYXJieRACGAQgAA,buddhist_temple;place_of_worship;association_or_organization;point_of_interest;establishment,buddhist_temple,Cardamom foothills west
ChIJkeuq5ZKHDzERP_sCVHJhGbk,វត្តឫស្សីក្រាំង,cultural,buddhist_temple,Buddhist Temple,sightseeing,12.553842,103.57980189999999,"HH3H+GWM, Cambodia",5,3,,OPERATIONAL,,https://maps.google.com/?cid=13337798915098082111&g_mp=Cilnb29nbGUubWFwcy5wbGFjZXMudjEuUGxhY2VzLlNlYXJjaE5lYXJieRACGAQgAA,buddhist_temple;place_of_worship;association_or_organization;point_of_interest;establishment,buddhist_temple,Cardamom foothills west
ChIJF2BUh7OdBTERWOK6RsUlzOc,Wat Taing Yor,cultural,buddhist_temple,Buddhist Temple,sightseeing,12.384849599999999,103.2744185,"97MF+WQM, Cambodia",5,3,,OPERATIONAL,,https://maps.google.com/?cid=16702766647235764824&g_mp=Cilnb29nbGUubWFwcy5wbGFjZXMudjEuUGxhY2VzLlNlYXJjaE5lYXJieRACGAQgAA,buddhist_temple;place_of_worship;association_or_organization;point_of_interest;establishment,buddhist_temple,Cardamom foothills west
ChIJ5VoTVHl_DzERDNUvwF-3nTs,វត្តអំពួច,cultural,buddhist_temple,Buddhist Temple,sightseeing,12.3942502,103.6149318,"9JV7+PX3, Cambodia",5,3,,OPERATIONAL,,https://maps.google.com/?cid=4295791241455457548&g_mp=Cilnb29nbGUubWFwcy5wbGFjZXMudjEuUGxhY2VzLlNlYXJjaE5lYXJieRACGAQgAA,buddhist_temple;place_of_worship;association_or_organization;point_of_interest;establishment,buddhist_temple,Cardamom foothills west
ChIJ977_GADrBTERWydPO2Xu_nk,Wat Osom,cultural,buddhist_temple,Buddhist Temple,sightseeing,12.0727415,103.2370029,"36CP+Q5, វាលវែង, Cambodia",5,2,,OPERATIONAL,,https://maps.google.com/?cid=8790725641227937627&g_mp=Cilnb29nbGUubWFwcy5wbGFjZXMudjEuUGxhY2VzLlNlYXJjaE5lYXJieRACGAQgAA,buddhist_temple;place_of_worship;association_or_organization;point_of_interest;establishment,buddhist_temple,Cardamom foothills west
ChIJAWCkFAC_BTERgVYjwN6XkzY,វត្តរស្មីសីលារតនារាម(វត្តផ្ទះមួយ),cultural,buddhist_temple,Buddhist Temple,sightseeing,12.2107385,103.11947649999999,"6469+7Q, Phumi Prâmaôy, Cambodia",4,2,,OPERATIONAL,,https://maps.google.com/?cid=3932653882586650241&g_mp=Cilnb29nbGUubWFwcy5wbGFjZXMudjEuUGxhY2VzLlNlYXJjaE5lYXJieRACGAQgAA,buddhist_temple;place_of_worship;association_or_organization;point_of_interest;establishment,buddhist_temple,Cardamom foothills west
ChIJrWazSwBxDzERjZoIAQL4oaM,វត្តព្រៃខ្លុង Prey Khlong Monastery,cultural,buddhist_temple,Buddhist Temple,sightseeing,12.337712699999999,103.7644735,"8QQ7+3Q9, 146, Phnom Kravanh, Cambodia",5,1,,OPERATIONAL,,https://maps.google.com/?cid=11790977986923633293&g_mp=Cilnb29nbGUubWFwcy5wbGFjZXMudjEuUGxhY2VzLlNlYXJjaE5lYXJieRACGAQgAA,buddhist_temple;place_of_worship;association_or_organization;point_of_interest;establishment,buddhist_temple,Cardamom foothills west
ChIJXT-hPgCDDzERxR9_0zcMY1Y,Wat Prey Vaing,cultural,buddhist_temple,Buddhist Temple,sightseeing,12.5223435,103.6364874,"GJCP+WH, Cambodia",,,,OPERATIONAL,,https://maps.google.com/?cid=6224832543867215813&g_mp=Cilnb29nbGUubWFwcy5wbGFjZXMudjEuUGxhY2VzLlNlYXJjaE5lYXJieRACGAQgAA,buddhist_temple;place_of_worship;association_or_organization;point_of_interest;establishment,buddhist_temple,Cardamom foothills west
ChIJsXbpF1x7BTERjXZYmxyLzbA,Wat Thnom,cultural,buddhist_temple,Buddhist Temple,sightseeing,12.607407199999999,103.36599369999999,"J948+X9, Phumi Chhuk, Cambodia",3.7,3,,OPERATIONAL,,https://maps.google.com/?cid=12739991875882612365&g_mp=Cilnb29nbGUubWFwcy5wbGFjZXMudjEuUGxhY2VzLlNlYXJjaE5lYXJieRACGAQgAA,buddhist_temple;place_of_worship;association_or_organization;point_of_interest;establishment,buddhist_temple,Cardamom foothills west
ChIJOVvj5Ah7BTERSOTQYYmCQfk,Wat Kaoh Tkov,cultural,buddhist_temple,Buddhist Temple,sightseeing,12.6433919,103.44443729999999,"JCVV+9Q3, Cambodia",5,4,,OPERATIONAL,,https://maps.google.com/?cid=17960780315493459016&g_mp=Cilnb29nbGUubWFwcy5wbGFjZXMudjEuUGxhY2VzLlNlYXJjaE5lYXJieRACGAQgAA,buddhist_temple;place_of_worship;association_or_organization;point_of_interest;establishment,buddhist_temple,Cardamom foothills west
ChIJS7daZgBlBTERG3FHDKrXSDc,វត្តកោះចែងរង្សី ហៅវត្តភូមិសៀម,cultural,buddhist_temple,Buddhist Temple,sightseeing,12.6799375,103.4170781,"MCH8+XRG ភូមិសៀម, Rukhak Kiri, Cambodia",3.3,11,,OPERATIONAL,,https://maps.google.com/?cid=3983670995759624475&g_mp=Cilnb29nbGUubWFwcy5wbGFjZXMudjEuUGxhY2VzLlNlYXJjaE5lYXJieRACGAQgAA,buddhist_temple;place_of_worship;association_or_organization;point_of_interest;establishment,buddhist_temple,Cardamom foothills west
ChIJw8XzqM53DzERL8lhRQpSZtM,Wat Koh Srae Bon,cultural,buddhist_temple,Buddhist Temple,sightseeing,12.416032099999999,103.76539299999999,"CQ88+C56, Cambodia",4.5,4,,OPERATIONAL,,https://maps.google.com/?cid=15232952993694468399&g_mp=Cilnb29nbGUubWFwcy5wbGFjZXMudjEuUGxhY2VzLlNlYXJjaE5lYXJieRACGAQgAA,buddhist_temple;place_of_worship;association_or_organization;point_of_interest;establishment,buddhist_temple,Cardamom foothills west
ChIJGX58cDN2DzERJQVHr_BdCdw,Sdach Porpich Pagoda,cultural,buddhist_temple,Buddhist Temple,sightseeing,12.4326109,103.7775958,"148, Cambodia",5,7,,OPERATIONAL,,https://maps.google.com/?cid=15855307251448743205&g_mp=Cilnb29nbGUubWFwcy5wbGFjZXMudjEuUGxhY2VzLlNlYXJjaE5lYXJieRACGAQgAA,buddhist_temple;place_of_worship;association_or_organization;point_of_interest;establishment,buddhist_temple,Cardamom foothills west
ChIJN6eEbJJ9BTERhsImGPrdU84,វត្តសមគ្គីរង្សី ហៅ វត្តព្រះអណ្តូង,cultural,buddhist_temple,Buddhist Temple,sightseeing,12.605945799999999,103.5222174,"JG4C+9VG, Unnamed Road, Phum Chay Vay, Cambodia",1,1,,OPERATIONAL,,https://maps.google.com/?cid=14867470861096895110&g_mp=Cilnb29nbGUubWFwcy5wbGFjZXMudjEuUGxhY2VzLlNlYXJjaE5lYXJieRACGAQgAA,buddhist_temple;place_of_worship;association_or_organization;point_of_interest;establishment,buddhist_temple,Cardamom foothills west
ChIJ11zXWgCdDzER9yil1BY1uQQ,វត្តសិរីមានជ័យ​ហៅវត្តតាសាស់,cultural,buddhist_temple,Buddhist Temple,sightseeing,12.453961699999999,103.75099189999999,"FQ32+WPG, Tasah, Cambodia",1,1,,OPERATIONAL,,https://maps.google.com/?cid=340361619016329463&g_mp=Cilnb29nbGUubWFwcy5wbGFjZXMudjEuUGxhY2VzLlNlYXJjaE5lYXJieRACGAQgAA,buddhist_temple;place_of_worship;association_or_organization;point_of_interest;establishment,buddhist_temple,Cardamom foothills west
ChIJB1mZRVh7BTER74QUDJ9L4N4,Wat Doung Kemmony,cultural,buddhist_temple,Buddhist Temple,sightseeing,12.6390339,103.3933687,"J9QV+82X, Rukhak Kiri, Cambodia",5,2,,OPERATIONAL,,https://maps.google.com/?cid=16059919417677743343&g_mp=Cilnb29nbGUubWFwcy5wbGFjZXMudjEuUGxhY2VzLlNlYXJjaE5lYXJieRACGAQgAA,buddhist_temple;place_of_worship;association_or_organization;point_of_interest;establishment,buddhist_temple,Cardamom foothills west
ChIJ0YLZMFZxDzER2pfGkA4NJOs,វត្តក្សេតបុរី Khsethaborey Monastery,cultural,buddhist_temple,Buddhist Temple,sightseeing,12.2694154,103.8196408,"7R99+QR, Leach Pi, Cambodia",,,,OPERATIONAL,,https://maps.google.com/?cid=16943682054284285914&g_mp=Cilnb29nbGUubWFwcy5wbGFjZXMudjEuUGxhY2VzLlNlYXJjaE5lYXJieRACGAQgAA,buddhist_temple;place_of_worship;association_or_organization;point_of_interest;establishment,buddhist_temple,Cardamom foothills west
ChIJK9pXbwCnBTERhzWTHFcDYRI,វត្តសុវណ្ណគិរីមុនីឧត្តម ភូមិសំឡាញ ឃុំក្រពើពីរ ស្រុកវាលវែង,cultural,buddhist_temple,Buddhist Temple,sightseeing,12.3996975,103.02930939999999,"92XH+VP, Phumi Prâmaôy, Cambodia",5,1,,OPERATIONAL,,https://maps.google.com/?cid=1324343438100084103&g_mp=Cilnb29nbGUubWFwcy5wbGFjZXMudjEuUGxhY2VzLlNlYXJjaE5lYXJieRACGAQgAA,buddhist_temple;place_of_worship;association_or_organization;point_of_interest;establishment,buddhist_temple,Cardamom foothills west
ChIJ____yp6cDzERYjOXFltNeew,Wat Pur Orn Det,cultural,buddhist_temple,Buddhist Temple,sightseeing,12.5339937,103.7562521,"GQM4+HGR, Krong Pursat, Cambodia",5,1,,OPERATIONAL,,https://maps.google.com/?cid=17039735718749352802&g_mp=Cilnb29nbGUubWFwcy5wbGFjZXMudjEuUGxhY2VzLlNlYXJjaE5lYXJieRACGAQgAA,buddhist_temple;place_of_worship;association_or_organization;point_of_interest;establishment,buddhist_temple,Cardamom foothills west
ChIJke9QdQB7BTERuG92RDs3TZ8,Rukhak Kiri - Church,cultural,church,Church,sightseeing,12.609107,103.37837139999999,"J95H+J8X, Cambodia",5,1,,OPERATIONAL,,https://maps.google.com/?cid=11478891752928473016&g_mp=Cilnb29nbGUubWFwcy5wbGFjZXMudjEuUGxhY2VzLlNlYXJjaE5lYXJieRACGAQgAA,church;place_of_worship;association_or_organization;point_of_interest;establishment,church,Cardamom foothills west
ChIJ04zBIABxDzERAt0bxqvIgYQ,CLC,cultural,church,Church,sightseeing,12.2720956,103.7289167,"7PCH+RHM CLC, Cambodia",,,,OPERATIONAL,,https://maps.google.com/?cid=9548133325090839810&g_mp=Cilnb29nbGUubWFwcy5wbGFjZXMudjEuUGxhY2VzLlNlYXJjaE5lYXJieRACGAQgAA,church;place_of_worship;association_or_organization;point_of_interest;establishment,church,Cardamom foothills west
ChIJq4pqZwB_BTERZVIrQBh6owU,ក្រុមជំនុំជីវិតថ្មីស្តុកប្រវឹក,cultural,church,Church,sightseeing,12.540246999999999,103.51905500000001,"GGR9+3J, Phumi Pên, Cambodia",,,,OPERATIONAL,,https://maps.google.com/?cid=406302635967861349&g_mp=Cilnb29nbGUubWFwcy5wbGFjZXMudjEuUGxhY2VzLlNlYXJjaE5lYXJieRACGAQgAA,church;place_of_worship;association_or_organization;point_of_interest;establishment,church,Cardamom foothills west
ChIJsaH81bKDDzERQaJksSwuMfM,GSTChurch,cultural,church,Church,sightseeing,12.4913227,103.65653209999999,"Cambodia, តាលូ ភូមិ",,,,OPERATIONAL,,https://maps.google.com/?cid=17523838394564911681&g_mp=Cilnb29nbGUubWFwcy5wbGFjZXMudjEuUGxhY2VzLlNlYXJjaE5lYXJieRACGAQgAA,church;place_of_worship;association_or_organization;point_of_interest;establishment,church,Cardamom foothills west
ChIJv7DsIwB7BTERlSmBw_F_mXQ,✝️កន្លែងថ្វាយបង្គំព្រះយេស៊ូវគ្រីស្ទ,cultural,church,Church,sightseeing,12.6124873,103.3895043,"J96Q+XQ, Rukhak Kiri, Cambodia",5,2,,OPERATIONAL,,https://maps.google.com/?cid=8401887256180238741&g_mp=Cilnb29nbGUubWFwcy5wbGFjZXMudjEuUGxhY2VzLlNlYXJjaE5lYXJieRACGAQgAA,church;place_of_worship;association_or_organization;point_of_interest;establishment,church,Cardamom foothills west
ChIJ_btvcwB7BTER6Xs1uNYz1oc,Home church,cultural,church,Church,sightseeing,12.6124905,103.38950229999999,"J96Q+XQ, Rukhak Kiri, Cambodia",,,,OPERATIONAL,,https://maps.google.com/?cid=9788067837442882537&g_mp=Cilnb29nbGUubWFwcy5wbGFjZXMudjEuUGxhY2VzLlNlYXJjaE5lYXJieRACGAQgAA,church;place_of_worship;association_or_organization;point_of_interest;establishment,church,Cardamom foothills west
ChIJoYfQAAB7BTERLoNl0pq8VVg,កន្លែងថ្វាយបង្គំព្រះយេស៊ូគ្រីស្ទ,cultural,church,Church,sightseeing,12.6432592,103.3885798,"J9VQ+8C4, Rukhak Kiri, Cambodia",,,,OPERATIONAL,,https://maps.google.com/?cid=6365201021498917678&g_mp=Cilnb29nbGUubWFwcy5wbGFjZXMudjEuUGxhY2VzLlNlYXJjaE5lYXJieRACGAQgAA,church;place_of_worship;association_or_organization;point_of_interest;establishment,church,Cardamom foothills west
ChIJWZNM4-pxBTERQsZyljRnBlw,(ភូមិ ព្រៃក្ដួច) مسجد النورالهدى,cultural,mosque,Mosque,sightseeing,12.611289699999999,103.3340757,"J86M+GJ8, Rukhak Kiri, Cambodia",5,1,,OPERATIONAL,,https://maps.google.com/?cid=6631100976909698626&g_mp=Cilnb29nbGUubWFwcy5wbGFjZXMudjEuUGxhY2VzLlNlYXJjaE5lYXJieRACGAQgAA,mosque;place_of_worship;association_or_organization;point_of_interest;establishment,mosque,Cardamom foothills west
ChIJr0UFIgBxDzERYvh3zCgeSq0,مسجد نورالسلام فهوم سوآي فآء,cultural,mosque,Mosque,sightseeing,12.2720956,103.7289167,"7PCH+RHM, Phnom Kravanh, Cambodia",,,,OPERATIONAL,,https://maps.google.com/?cid=12486826077416061026&g_mp=Cilnb29nbGUubWFwcy5wbGFjZXMudjEuUGxhY2VzLlNlYXJjaE5lYXJieRACGAQgAA,mosque;place_of_worship;association_or_organization;point_of_interest;establishment,mosque,Cardamom foothills west
ChIJQ82ISUpxDzERcYYgwb_PENU,Phum thmey,cultural,mosque,Mosque,sightseeing,12.3579715,103.76305620000001,"9Q57+56M, Phnom Kravanh, Cambodia",,,,OPERATIONAL,,https://maps.google.com/?cid=15352999552191858289&g_mp=Cilnb29nbGUubWFwcy5wbGFjZXMudjEuUGxhY2VzLlNlYXJjaE5lYXJieRACGAQgAA,mosque;place_of_worship;association_or_organization;point_of_interest;establishment,mosque,Cardamom foothills west
ChIJPX4aOfF1DzERup3eAr4akF8,مسجد عبدالعزيزالنعام وزهوةالجريفاني ووالديهماوابنائهما,cultural,mosque,Mosque,sightseeing,12.410703400000001,103.82612189999999,"CR6G+7F, Krong Pursat, Cambodia",5,2,,OPERATIONAL,,https://maps.google.com/?cid=6886033233643740602&g_mp=Cilnb29nbGUubWFwcy5wbGFjZXMudjEuUGxhY2VzLlNlYXJjaE5lYXJieRACGAQgAA,mosque;place_of_worship;association_or_organization;point_of_interest;establishment,mosque,Cardamom foothills west
ChIJnUa8DwC7BTER2eomIO9X9oU,ភូមិគ្រឹះ បណ្ឌិត លន វិបុល,urban,night_club,Night Club,nightlife,12.2940027,103.07669229999999,"73VG+JM, Phumi Prâmaôy, Cambodia",,,,OPERATIONAL,,https://maps.google.com/?cid=9652999535863458521&g_mp=Cilnb29nbGUubWFwcy5wbGFjZXMudjEuUGxhY2VzLlNlYXJjaE5lYXJieRACGAQgAA,night_club;point_of_interest;establishment,night_club,Cardamom foothills west
ChIJoxVvNAC7BTERXelG5A4imuM,OUN MEY,urban,night_club,Night Club,nightlife,12.2255592,103.0210036,"62GC+6C, Phumi Prâmaôy, Cambodia",5,1,,CLOSED_TEMPORARILY,,https://maps.google.com/?cid=16400458440377821533&g_mp=Cilnb29nbGUubWFwcy5wbGFjZXMudjEuUGxhY2VzLlNlYXJjaE5lYXJieRACGAQgAA,night_club;point_of_interest;establishment,night_club,Cardamom foothills west
ChIJ6e5vx9iFBTER1PvI00QZlXQ,Narat Phone oppo vivo,urban,shopping_mall,Shopping Mall,shopping,12.3759936,103.36473,"street55, veal vaeng, chen yom07, Cambodia",4,1,,OPERATIONAL,,https://maps.google.com/?cid=8400648463331163092&g_mp=Cilnb29nbGUubWFwcy5wbGFjZXMudjEuUGxhY2VzLlNlYXJjaE5lYXJieRACGAQgAA,shopping_mall;point_of_interest;establishment,shopping_mall,Cardamom foothills west
ChIJ7wXFN_N_BTERaW0vrvjnkP0,Depo Felix,urban,shopping_mall,Shopping Mall,shopping,12.5384409,103.5245278,"Srok Rukakiri Battambang, 12000, Cambodia",1,1,,OPERATIONAL,,https://maps.google.com/?cid=18271358743502351721&g_mp=Cilnb29nbGUubWFwcy5wbGFjZXMudjEuUGxhY2VzLlNlYXJjaE5lYXJieRACGAQgAA,shopping_mall;point_of_interest;establishment,shopping_mall,Cardamom foothills west
ChIJs5zZPyd7BTERxOltbPt2cCc,ព្រឿន នឿត,urban,shopping_mall,Shopping Mall,shopping,12.6436193,103.3931164,"J9VV+C6X, Unnamed Road, រុក្ខគិរី, Cambodia",,,,OPERATIONAL,,https://maps.google.com/?cid=2841902187098794436&g_mp=Cilnb29nbGUubWFwcy5wbGFjZXMudjEuUGxhY2VzLlNlYXJjaE5lYXJieRACGAQgAA,shopping_mall;point_of_interest;establishment,shopping_mall,Cardamom foothills west
ChIJ21cf_82jBTER_t32VJcOAIo,ចែជូ​ លក់ដុំនិងរាយ​ ស្បែកជើង​ សំលៀកបំពាក់​ និងគ្រឿងក្រអូប,urban,shopping_mall,Shopping Mall,shopping,12.3082393,103.0940284,"835V+7JR, Cambodia",4.8,4,,OPERATIONAL,,https://maps.google.com/?cid=9943964020362370558&g_mp=Cilnb29nbGUubWFwcy5wbGFjZXMudjEuUGxhY2VzLlNlYXJjaE5lYXJieRACGAQgAA,shopping_mall;point_of_interest;establishment,shopping_mall,Cardamom foothills west
ChIJAdhmWTJ_BTERiMePoIAB5Lw,Ly chanthorn,urban,shopping_mall,Shopping Mall,shopping,12.5384791,103.52552089999999,"Unnamed Road, Phumi Pên, Cambodia",,,,OPERATIONAL,,https://maps.google.com/?cid=13611005625781700488&g_mp=Cilnb29nbGUubWFwcy5wbGFjZXMudjEuUGxhY2VzLlNlYXJjaE5lYXJieRACGAQgAA,shopping_mall;point_of_interest;establishment,shopping_mall,Cardamom foothills west
ChIJUZ9WUi9xDzER4EFv7QMFIJg,ខៀវ សុខហ៊ាង Emoney & True Money,urban,shopping_mall,Shopping Mall,shopping,12.3510642,103.7682268,"ផ្លូវលេខ ១៤៦, Phnom Kravanh, Cambodia",5,1,,OPERATIONAL,,https://maps.google.com/?cid=10961767007446319584&g_mp=Cilnb29nbGUubWFwcy5wbGFjZXMudjEuUGxhY2VzLlNlYXJjaE5lYXJieRACGAQgAA,shopping_mall;point_of_interest;establishment,shopping_mall,Cardamom foothills west
ChIJX7K1TwC9BTERzZFNjjL1BT8,ពូវី អាគុយ,urban,shopping_mall,Shopping Mall,shopping,12.2145155,103.0817903,"637J+RP3, Cambodia",,,,OPERATIONAL,https://www.facebook.com/profile.php?id=100027336162730&mibextid=LQQJ4d,https://maps.google.com/?cid=4541305396757631437&g_mp=Cilnb29nbGUubWFwcy5wbGFjZXMudjEuUGxhY2VzLlNlYXJjaE5lYXJieRACGAQgAA,shopping_mall;point_of_interest;establishment,shopping_mall,Cardamom foothills west
ChIJYVJXSgCfBTERSu3hUJwYExs,ដូងស្រុក,urban,shopping_mall,Shopping Mall,shopping,12.428144,103.250641,"C7H2+77, Phumi Srê Peang, Cambodia",,,,OPERATIONAL,,https://maps.google.com/?cid=1950930123232505162&g_mp=Cilnb29nbGUubWFwcy5wbGFjZXMudjEuUGxhY2VzLlNlYXJjaE5lYXJieRACGAQgAA,shopping_mall;point_of_interest;establishment,shopping_mall,Cardamom foothills west
ChIJnaKVYpdxDzERM78o4tZhAhs,ម៉ែនឡាយឈួនជាងម៉ូតូ,urban,shopping_mall,Shopping Mall,shopping,12.350811499999999,103.7668702,"9Q28+8PH, Unnamed Road, ភ្នំក្រវ៉ាញ, Cambodia",4.5,4,,OPERATIONAL,,https://maps.google.com/?cid=1946225564522692403&g_mp=Cilnb29nbGUubWFwcy5wbGFjZXMudjEuUGxhY2VzLlNlYXJjaE5lYXJieRACGAQgAA,shopping_mall;point_of_interest;establishment,shopping_mall,Cardamom foothills west
ChIJZeMXH2FxDzERZAGXlAvT12s,MC PLAY Moto លក់គ្រឿងតុបតែងម៉ូតូ,urban,shopping_mall,Shopping Mall,shopping,12.350810099999999,103.7668751,"9Q28+8QC, Unnamed Road, ភ្នំក្រវ៉ាញ, Cambodia",,,,OPERATIONAL,,https://maps.google.com/?cid=7770911728742105444&g_mp=Cilnb29nbGUubWFwcy5wbGFjZXMudjEuUGxhY2VzLlNlYXJjaE5lYXJieRACGAQgAA,shopping_mall;point_of_interest;establishment,shopping_mall,Cardamom foothills west
ChIJMXg7ZON3DzERRg-WnqxFcrk,អាយ៉ានៅឃុំតា ទៃ,urban,shopping_mall,Shopping Mall,shopping,12.364351899999999,103.78338099999999,"ផ្លូវឃុំតា ទៃ, 9Q7M+P9R, Phnom Kravanh, Cambodia",4.7,3,,OPERATIONAL,,https://maps.google.com/?cid=13362819652059008838&g_mp=Cilnb29nbGUubWFwcy5wbGFjZXMudjEuUGxhY2VzLlNlYXJjaE5lYXJieRACGAQgAA,shopping_mall;point_of_interest;establishment,shopping_mall,Cardamom foothills west
