google_place_id,name,category,primary_type,primary_type_name,activities,lat,lon,address,rating,rating_count,price_level,business_status,website,google_maps_url,all_types,found_via_category,found_via_cell
ChIJWQ0fCeThbDER9nQcwELTRt4,Kachanh Waterfall,attraction,tourist_attraction,Tourist Attraction,,13.692816299999999,106.9895887,"MXVQ+4RG, Krong Ban Lung, Cambodia",4.2,404,,OPERATIONAL,,https://maps.google.com/?cid=16016721408434140406&g_mp=Cilnb29nbGUubWFwcy5wbGFjZXMudjEuUGxhY2VzLlNlYXJjaE5lYXJieRACGAQgAA,tourist_attraction;point_of_interest;establishment,tourist_attraction,Banlung
ChIJo5NQuDgebTERWTlnIuzwwMg,Katieng Waterfall,attraction,tourist_attraction,Tourist Attraction,,13.6666625,106.9755469,"MX8G+M67, Krong Ban Lung, Cambodia",4.2,261,,OPERATIONAL,,https://maps.google.com/?cid=14465826900094171481&g_mp=Cilnb29nbGUubWFwcy5wbGFjZXMudjEuUGxhY2VzLlNlYXJjaE5lYXJieRACGAQgAA,tourist_attraction;point_of_interest;establishment,tourist_attraction,Banlung
ChIJYyIf7aYcbTER_ZsXQHdj7Jc,O Sinlair Waterfallinlove,attraction,tourist_attraction,Tourist Attraction,,13.594539399999999,107.08552119999999,"H3VP+R66, Krong Ban Lung, Cambodia",4.2,169,,OPERATIONAL,,https://maps.google.com/?cid=10947234158058380285&g_mp=Cilnb29nbGUubWFwcy5wbGFjZXMudjEuUGxhY2VzLlNlYXJjaE5lYXJieRACGAQgAA,tourist_attraction;point_of_interest;establishment,tourist_attraction,Banlung
ChIJ-d8v4r3gbDERwpo-iSRDLBY,"Cha Ong Waterfall, Ratanakiri",attraction,tourist_attraction,Tourist Attraction,,13.7589096,106.92981359999999,"QW5H+HW8, Cha Ŭng Kau, Cambodia",4,133,,OPERATIONAL,,https://maps.google.com/?cid=1597725792010148546&g_mp=Cilnb29nbGUubWFwcy5wbGFjZXMudjEuUGxhY2VzLlNlYXJjaE5lYXJieRACGAQgAA,tourist_attraction;point_of_interest;establishment,tourist_attraction,Banlung
ChIJW4q10XTjbDERtcL_qtqr78I,បឹងយក្សឡោម,attraction,tourist_attraction,Tourist Attraction,,13.7332625,107.01620310000001,"P2M8+8F4, Krong Ban Lung, Cambodia",4.5,130,,OPERATIONAL,,https://maps.google.com/?cid=14046634718451974837&g_mp=Cilnb29nbGUubWFwcy5wbGFjZXMudjEuUGxhY2VzLlNlYXJjaE5lYXJieRACGAQgAA,tourist_attraction;point_of_interest;establishment,tourist_attraction,Banlung
ChIJfatEXWrhbDERGkxDUA3236Q,Svay Mountain,attraction,tourist_attraction,Tourist Attraction,,13.733581099999999,106.9667205,"PXM8+CMQ, NR78, Krong Ban Lung, Cambodia",4.5,117,,OPERATIONAL,,https://maps.google.com/?cid=11880484879068253210&g_mp=Cilnb29nbGUubWFwcy5wbGFjZXMudjEuUGxhY2VzLlNlYXJjaE5lYXJieRACGAQgAA,tourist_attraction;point_of_interest;establishment,tourist_attraction,Banlung
ChIJNZqJ30_nbDERTbh_uqjXiHE,Ou Chum Waterfall,attraction,tourist_attraction,Tourist Attraction,,13.7896734,106.9995422,"QXQX+VR7, Ou Chum, Cambodia",3.9,14,,OPERATIONAL,,https://maps.google.com/?cid=8181025842801915981&g_mp=Cilnb29nbGUubWFwcy5wbGFjZXMudjEuUGxhY2VzLlNlYXJjaE5lYXJieRACGAQgAA,tourist_attraction;point_of_interest;establishment,tourist_attraction,Banlung
ChIJfeVaenHhbDERKTspe3zr99I,Green jungle trekking Tours-Cambodia,attraction,hiking_area,Hiking Area,,13.725106000000002,106.989747,"16452 544, Krong Ban Lung, Cambodia",4.5,225,,OPERATIONAL,http://www.greenjungletrekkingtours.com/,https://maps.google.com/?cid=15201877987087170345&g_mp=Cilnb29nbGUubWFwcy5wbGFjZXMudjEuUGxhY2VzLlNlYXJjaE5lYXJieRACGAQgAA,hiking_area;tourist_attraction;sports_activity_location;point_of_interest;establishment,tourist_attraction,Banlung
ChIJFcMcHgDjbDER8zqV4Mm_Zqk,Yeak Laom lake,attraction,tourist_attraction,Tourist Attraction,,13.7322855,107.0155599,"P2J8+W67, Krong Ban Lung, Cambodia",4.5,11,,OPERATIONAL,,https://maps.google.com/?cid=12206654713811516147&g_mp=Cilnb29nbGUubWFwcy5wbGFjZXMudjEuUGxhY2VzLlNlYXJjaE5lYXJieRACGAQgAA,tourist_attraction;point_of_interest;establishment,tourist_attraction,Banlung
ChIJq6qqHnfmbDERPX3g21gHYhs,Veal Ram Plang,attraction,tourist_attraction,Tourist Attraction,,13.833554099999999,107.0026438,"R2M3+C3C, Ou Chum, Cambodia",3.8,5,,OPERATIONAL,,https://maps.google.com/?cid=1973147664969137469&g_mp=Cilnb29nbGUubWFwcy5wbGFjZXMudjEuUGxhY2VzLlNlYXJjaE5lYXJieRACGAQgAA,tourist_attraction;point_of_interest;establishment,tourist_attraction,Banlung
ChIJj-AS3xzhbDEROMqUtiESg5c,Rattanakiri City Centre,attraction,tourist_attraction,Tourist Attraction,,13.7391328,106.9863709,"PXQP+HHH, Krong Ban Lung, Cambodia",3.5,6,,OPERATIONAL,,https://maps.google.com/?cid=10917589857682639416&g_mp=Cilnb29nbGUubWFwcy5wbGFjZXMudjEuUGxhY2VzLlNlYXJjaE5lYXJieRACGAQgAA,tourist_attraction;point_of_interest;establishment,tourist_attraction,Banlung
ChIJs3EjFADnbDERy21bCx53e_8,បឹងផ្តើមស្នេហ៍,attraction,tourist_attraction,Tourist Attraction,,13.7810411,107.00067759999999,"Q2J2+C7, Ou Chum, Cambodia",4.8,6,,OPERATIONAL,,https://maps.google.com/?cid=18409438872730299851&g_mp=Cilnb29nbGUubWFwcy5wbGFjZXMudjEuUGxhY2VzLlNlYXJjaE5lYXJieRACGAQgAA,tourist_attraction;point_of_interest;establishment,tourist_attraction,Banlung
ChIJA8arSzEdbTER7jHiVKSUqfc,ទឹកធ្លាក់ អូរសុិនលែរ៍ ខេត្តរតនគីរី,attraction,tourist_attraction,Tourist Attraction,,13.5944469,107.08572369999999,"H3VP+R66, Krong Ban Lung, Cambodia",5,2,,OPERATIONAL,,https://maps.google.com/?cid=17845958431951958510&g_mp=Cilnb29nbGUubWFwcy5wbGFjZXMudjEuUGxhY2VzLlNlYXJjaE5lYXJieRACGAQgAA,tourist_attraction;point_of_interest;establishment,tourist_attraction,Banlung
ChIJh0qVHnbhbDER-Yu-4tdY5lo,Moon Ratanak Homstay ផ្ទះស្នាក់ មូនរ័ត្នន:,attraction,guest_house,Guest House,,13.741246499999999,106.9828902,"23-46, sangkat beung Konseng, Banlung, Banlung 16241, Cambodia",4.1,33,PRICE_LEVEL_MODERATE,OPERATIONAL,https://moonratanakguesthouse.wordpress.com/,https://maps.google.com/?cid=6550020392302316537&g_mp=Cilnb29nbGUubWFwcy5wbGFjZXMudjEuUGxhY2VzLlNlYXJjaE5lYXJieRACGAQgAA,guest_house;tourist_attraction;private_guest_room;hotel;hostel;lodging;point_of_interest;establishment,tourist_attraction,Banlung
ChIJlW-CMwDhbDERSivT8V9cSoU,Ork Statue (Eagle Statue),attraction,tourist_attraction,Tourist Attraction,,13.7489583,106.98501350000001,"PXXP+R37, Krong Ban Lung, Cambodia",4.3,12,,OPERATIONAL,,https://maps.google.com/?cid=9604590722469800778&g_mp=Cilnb29nbGUubWFwcy5wbGFjZXMudjEuUGxhY2VzLlNlYXJjaE5lYXJieRACGAQgAA,tourist_attraction;point_of_interest;establishment,tourist_attraction,Banlung
ChIJUweQdADnbDERIbLloQWDyIY,វ៉ារី Picnic,attraction,tourist_attraction,Tourist Attraction,,13.778485499999999,106.99262429999999,"QXHV+92, Ou Chum, Cambodia",5,2,,OPERATIONAL,,https://maps.google.com/?cid=9712156656638734881&g_mp=Cilnb29nbGUubWFwcy5wbGFjZXMudjEuUGxhY2VzLlNlYXJjaE5lYXJieRACGAQgAA,tourist_attraction;point_of_interest;establishment,tourist_attraction,Banlung
ChIJ_6HFPADlbDERkcJYsycV8P4,Prak 2 Waterfall,attraction,tourist_attraction,Tourist Attraction,,13.839361,107.097417,"R3QW+PX, Ou Chum, Cambodia",4.7,6,,OPERATIONAL,,https://maps.google.com/?cid=18370206140301099665&g_mp=Cilnb29nbGUubWFwcy5wbGFjZXMudjEuUGxhY2VzLlNlYXJjaE5lYXJieRACGAQgAA,tourist_attraction;point_of_interest;establishment,tourist_attraction,Banlung
ChIJoWmHVQDhbDERzuPAolQoUvk,Big Buddha Statue,attraction,tourist_attraction,Tourist Attraction,,13.733621,106.96679999999999,"PXM8+9PG, NR78, Krong Ban Lung, Cambodia",5,3,,OPERATIONAL,,https://maps.google.com/?cid=17965466207507243982&g_mp=Cilnb29nbGUubWFwcy5wbGFjZXMudjEuUGxhY2VzLlNlYXJjaE5lYXJieRACGAQgAA,tourist_attraction;point_of_interest;establishment,tourist_attraction,Banlung
ChIJW5nFSTAXbTER4bKiKasIPmU,Tat Tai Rapid,attraction,tourist_attraction,Tourist Attraction,,13.475644599999999,106.9968286,"FXGW+7P4, Lumphat, Cambodia",4.3,15,,OPERATIONAL,,https://maps.google.com/?cid=7295277977617740513&g_mp=Cilnb29nbGUubWFwcy5wbGFjZXMudjEuUGxhY2VzLlNlYXJjaE5lYXJieRACGAQgAA,tourist_attraction;point_of_interest;establishment,tourist_attraction,Banlung
ChIJh7BdGi3jbDERlvXyTMUgpwU,Phnom Yakloam view point,attraction,tourist_attraction,Tourist Attraction,,13.7466229,107.02780279999999,"P2WH+J4V, Krong Ban Lung, Cambodia",5,2,,OPERATIONAL,,https://maps.google.com/?cid=407330323071956374&g_mp=Cilnb29nbGUubWFwcy5wbGFjZXMudjEuUGxhY2VzLlNlYXJjaE5lYXJieRACGAQgAA,tourist_attraction;point_of_interest;establishment,tourist_attraction,Banlung
ChIJYYTnLwDxbDER9KUN9wqKox8,Vtg LP4,cultural,museum,Museum,sightseeing,13.857660699999998,107.10119309999999,"V452+3F8, Ou Chum, Cambodia",5,1,,OPERATIONAL,,https://maps.google.com/?cid=2279817616078775796&g_mp=Cilnb29nbGUubWFwcy5wbGFjZXMudjEuUGxhY2VzLlNlYXJjaE5lYXJieRACGAQgAA,museum;point_of_interest;establishment,museum,Banlung
ChIJa_cMFR3vbDERplxrEA2Gxks,ភូមិ ល្អក់ ឃុំល្អក់ ស្រុកអូរជុំ,cultural,historical_landmark,Historical Landmark,,13.864737499999999,107.0452656,"V27W+V4R, Cambodia",5,2,,OPERATIONAL,,https://maps.google.com/?cid=5460198988901473446&g_mp=Cilnb29nbGUubWFwcy5wbGFjZXMudjEuUGxhY2VzLlNlYXJjaE5lYXJieRACGAQgAA,historical_landmark;historical_place;point_of_interest;establishment,historical_landmark,Banlung
ChIJ-XUkRADnbDERYMioQ70L_zY,Ou Chum roundabout,cultural,historical_landmark,Historical Landmark,,13.803084499999999,106.99298030000001,"RX3V+76H, Ou Chum, Cambodia",5,2,,OPERATIONAL,,https://maps.google.com/?cid=3962899104621185120&g_mp=Cilnb29nbGUubWFwcy5wbGFjZXMudjEuUGxhY2VzLlNlYXJjaE5lYXJieRACGAQgAA,historical_landmark;historical_place;point_of_interest;establishment,historical_landmark,Banlung
ChIJX5hQFgDhbDERc34kmCVf0Pk,ម៉ុខសុខឃីម,cultural,historical_landmark,Historical Landmark,,13.735292,107.000576,"PXMX+XRP, Krong Ban Lung, Cambodia",,,,OPERATIONAL,,https://maps.google.com/?cid=18000992325670829683&g_mp=Cilnb29nbGUubWFwcy5wbGFjZXMudjEuUGxhY2VzLlNlYXJjaE5lYXJieRACGAQgAA,historical_landmark;historical_place;point_of_interest;establishment,historical_landmark,Banlung
ChIJcT-IdwAdbTERFlmMFH3W4F8,ទីសម្គាល់ប្រវត្តិសាស្ត្រ,cultural,historical_landmark,Historical Landmark,,13.619502700000002,107.03621950000002,"J29P+RF, Krong Ban Lung, Cambodia",,,,OPERATIONAL,,https://maps.google.com/?cid=6908757661090339094&g_mp=Cilnb29nbGUubWFwcy5wbGFjZXMudjEuUGxhY2VzLlNlYXJjaE5lYXJieRACGAQgAA,historical_landmark;historical_place;point_of_interest;establishment,historical_landmark,Banlung
ChIJjY7REgAXbTERoarUFIbKN9Q,Ou Kan village,cultural,historical_landmark,Historical Landmark,,13.506198800000002,106.9574154,"GX44+FXF, Cambodia",,,,OPERATIONAL,,https://maps.google.com/?cid=15291913736983718561&g_mp=Cilnb29nbGUubWFwcy5wbGFjZXMudjEuUGxhY2VzLlNlYXJjaE5lYXJieRACGAQgAA,historical_landmark;historical_place;point_of_interest;establishment,historical_landmark,Banlung
ChIJrSoCBwAFbTERTebQf3OBHmY,បឹងការ៉ា,cultural,historical_landmark,Historical Landmark,,13.552628799999999,107.1383889,"H43Q+39, Krong Ban Lung, Cambodia",,,,OPERATIONAL,,https://maps.google.com/?cid=7358461174235588173&g_mp=Cilnb29nbGUubWFwcy5wbGFjZXMudjEuUGxhY2VzLlNlYXJjaE5lYXJieRACGAQgAA,historical_landmark;historical_place;point_of_interest;establishment,historical_landmark,Banlung
ChIJV0boMTnhbDERAZbI-U6MWlU,បឹងកន្សែង (Kansaeng Lanke),nature,park,Park,walking,13.7308687,107.0152815,"Ratanakiri Province, Krong Ban Lung, Cambodia",4.6,21,,OPERATIONAL,,https://maps.google.com/?cid=6150382511953843713&g_mp=Cilnb29nbGUubWFwcy5wbGFjZXMudjEuUGxhY2VzLlNlYXJjaE5lYXJieRACGAQgAA,park;point_of_interest;establishment,park,Banlung
ChIJp9jP7Tb_bDER_bMELPlrWGQ,ចំការ រុក្ខាអូរថ្មរអិល,nature,park,Park,walking,13.7350313,107.24103300000002,"P6PR+2C7, Cambodia",3,6,,OPERATIONAL,,https://maps.google.com/?cid=7230647919672865789&g_mp=Cilnb29nbGUubWFwcy5wbGFjZXMudjEuUGxhY2VzLlNlYXJjaE5lYXJieRACGAQgAA,park;point_of_interest;establishment,park,Banlung
ChIJDewp-NTjbDERIzMYIcqb3FA,ចំការទុរេនភូមិភ្នំយក្សឡោម,nature,park,Park,walking,13.755075300000001,107.0225121,"Q24F+22, Krong Ban Lung, Cambodia",3,2,,OPERATIONAL,,https://maps.google.com/?cid=5826703310351512355&g_mp=Cilnb29nbGUubWFwcy5wbGFjZXMudjEuUGxhY2VzLlNlYXJjaE5lYXJieRACGAQgAA,park;point_of_interest;establishment,park,Banlung
ChIJFdXkVwAfbTERutdBHKLqHZ4,ចំការធុរេនទឹកធ្លាក់កាទៀង,nature,park,Park,walking,13.669678699999999,106.97352289999999,"MX9F+VCC, Krong Ban Lung, Cambodia",,,,OPERATIONAL,,https://maps.google.com/?cid=11393520614296901562&g_mp=Cilnb29nbGUubWFwcy5wbGFjZXMudjEuUGxhY2VzLlNlYXJjaE5lYXJieRACGAQgAA,park;point_of_interest;establishment,park,Banlung
ChIJ87lXfADjbDERJtr-ZKkiPX8,ចំកាធូរ៉េន ម៉ែចែវែង,nature,park,Park,walking,13.7350326,107.0677972,"P3P9+247, Krong Ban Lung, Cambodia",,,,OPERATIONAL,,https://maps.google.com/?cid=9168522527335438886&g_mp=Cilnb29nbGUubWFwcy5wbGFjZXMudjEuUGxhY2VzLlNlYXJjaE5lYXJieRACGAQgAA,park;point_of_interest;establishment,park,Banlung
ChIJicH2NYvjbDERdlKoGWYZRmc,Land B vath,nature,park,Park,walking,13.739070199999999,107.0209591,"P2QC+J9, Krong Ban Lung, Cambodia",4,1,,OPERATIONAL,,https://maps.google.com/?cid=7441663360584143478&g_mp=Cilnb29nbGUubWFwcy5wbGFjZXMudjEuUGxhY2VzLlNlYXJjaE5lYXJieRACGAQgAA,park;point_of_interest;establishment,park,Banlung
ChIJ74qtPsnhbDERPhvM15ZhTPc,ដីចំកាទុរេន ប៉ោ លី,nature,park,Park,walking,13.771253999999999,107.004262,"Q2C3+GP, Ou Chum, Cambodia",,,,OPERATIONAL,,https://maps.google.com/?cid=17819725126091676478&g_mp=Cilnb29nbGUubWFwcy5wbGFjZXMudjEuUGxhY2VzLlNlYXJjaE5lYXJieRACGAQgAA,park;point_of_interest;establishment,park,Banlung
ChIJZbjOEADhbDER6QeqbYgBnxU,៤១,nature,park,Park,walking,13.7318044,106.98638779999999,"PXJP+PHC, 41, Krong Ban Lung, Cambodia",,,,OPERATIONAL,,https://maps.google.com/?cid=1557965681560520681&g_mp=Cilnb29nbGUubWFwcy5wbGFjZXMudjEuUGxhY2VzLlNlYXJjaE5lYXJieRACGAQgAA,park;point_of_interest;establishment,park,Banlung
ChIJU-ggHgDhbDERP5blqc-Wlc4,My Home,nature,park,Park,walking,13.7465262,106.9958164,"PXWW+J88, Krong Ban Lung, Cambodia",,,,OPERATIONAL,,https://maps.google.com/?cid=14885969961995834943&g_mp=Cilnb29nbGUubWFwcy5wbGFjZXMudjEuUGxhY2VzLlNlYXJjaE5lYXJieRACGAQgAA,park;point_of_interest;establishment,park,Banlung
ChIJj0NjGwDhbDERoru0WuKqM6w,ចំការម្រេចពូស្រ៊ី,nature,park,Park,walking,13.7708909,106.9638997,"QXC7+9H2, Ou Chum, Cambodia",,,,OPERATIONAL,,https://maps.google.com/?cid=12408449287496973218&g_mp=Cilnb29nbGUubWFwcy5wbGFjZXMudjEuUGxhY2VzLlNlYXJjaE5lYXJieRACGAQgAA,park;point_of_interest;establishment,park,Banlung
ChIJMajpLwAdbTER5IqedBM8aOY,ចំការចន្ទីគ្រូមៀល ភូមិចាងរ៉ា,nature,park,Park,walking,13.651484499999999,107.069717,"M329+HV, Krong Ban Lung, Cambodia",,,,OPERATIONAL,,https://maps.google.com/?cid=16602586080559925988&g_mp=Cilnb29nbGUubWFwcy5wbGFjZXMudjEuUGxhY2VzLlNlYXJjaE5lYXJieRACGAQgAA,park;point_of_interest;establishment,park,Banlung
ChIJt3NKYgD7bDERjMPZg9KlB-Q,កោះប៉ង,nature,park,Park,walking,13.8406875,107.13493749999999,"R4RM+7X, Cambodia",,,,OPERATIONAL,,https://maps.google.com/?cid=16431284089058345868&g_mp=Cilnb29nbGUubWFwcy5wbGFjZXMudjEuUGxhY2VzLlNlYXJjaE5lYXJieRACGAQgAA,park;point_of_interest;establishment,park,Banlung
ChIJqZjQLQAZbTER5fpJgiIge5c,Home Town RTR,nature,park,Park,walking,13.5588751,106.965651,"HX58+H7, Cambodia",,,,OPERATIONAL,,https://maps.google.com/?cid=10915353454449392357&g_mp=Cilnb29nbGUubWFwcy5wbGFjZXMudjEuUGxhY2VzLlNlYXJjaE5lYXJieRACGAQgAA,park;point_of_interest;establishment,park,Banlung
ChIJn9NmWQADbTERIVHUPesDxVo,អុល,nature,park,Park,walking,13.5974635,107.10663559999999,"H4W4+XM, Krong Ban Lung, Cambodia",,,,OPERATIONAL,,https://maps.google.com/?cid=6540638342715035937&g_mp=Cilnb29nbGUubWFwcy5wbGFjZXMudjEuUGxhY2VzLlNlYXJjaE5lYXJieRACGAQgAA,park;point_of_interest;establishment,park,Banlung
ChIJE6yMSgD9bDERFQySZjAPNm0,Works,nature,park,Park,walking,13.7310696,107.1842932,"P5JM+CP, Bar Kaev, Cambodia",,,,OPERATIONAL,,https://maps.google.com/?cid=7869494099430214677&g_mp=Cilnb29nbGUubWFwcy5wbGFjZXMudjEuUGxhY2VzLlNlYXJjaE5lYXJieRACGAQgAA,park;point_of_interest;establishment,park,Banlung
ChIJYZeXbQAFbTERnEH8jbrQ4_0,ចំការកៅស៊ូតាភួន,nature,park,Park,walking,13.570035299999999,107.1139231,"H4C7+2H, Krong Ban Lung, Cambodia",,,,OPERATIONAL,,https://maps.google.com/?cid=18294695610973700508&g_mp=Cilnb29nbGUubWFwcy5wbGFjZXMudjEuUGxhY2VzLlNlYXJjaE5lYXJieRACGAQgAA,park;point_of_interest;establishment,park,Banlung
ChIJlXMVegAFbTERMhW-NEMk_gM,ចំការតាភួន,nature,park,Park,walking,13.5651078,107.11690809999999,"H488+2Q, Krong Ban Lung, Cambodia",,,,OPERATIONAL,,https://maps.google.com/?cid=287707297264571698&g_mp=Cilnb29nbGUubWFwcy5wbGFjZXMudjEuUGxhY2VzLlNlYXJjaE5lYXJieRACGAQgAA,park;point_of_interest;establishment,park,Banlung
ChIJTeUxSwAFbTERF5Rrn0Jo5lk,ត្រពាំងរីង,nature,park,Park,walking,13.565891599999999,107.11881280000001,"H489+9G, Krong Ban Lung, Cambodia",,,,OPERATIONAL,,https://maps.google.com/?cid=6477979749370795031&g_mp=Cilnb29nbGUubWFwcy5wbGFjZXMudjEuUGxhY2VzLlNlYXJjaE5lYXJieRACGAQgAA,park;point_of_interest;establishment,park,Banlung
ChIJyT7gFgAFbTERtnGZsAbxPqI,ត្រពាំងរែង,nature,park,Park,walking,13.5642059,107.11989709999999,"H479+MX, Krong Ban Lung, Cambodia",,,,OPERATIONAL,,https://maps.google.com/?cid=11691046693735330230&g_mp=Cilnb29nbGUubWFwcy5wbGFjZXMudjEuUGxhY2VzLlNlYXJjaE5lYXJieRACGAQgAA,park;point_of_interest;establishment,park,Banlung
ChIJ3QloZwAFbTERO0WqHhbqpy0,ចំការចន្ទីគ្រូមៀល ភូមិអុល,nature,park,Park,walking,13.5574651,107.1126749,"H447+X3, Krong Ban Lung, Cambodia",,,,OPERATIONAL,,https://maps.google.com/?cid=3289855433542092091&g_mp=Cilnb29nbGUubWFwcy5wbGFjZXMudjEuUGxhY2VzLlNlYXJjaE5lYXJieRACGAQgAA,park;point_of_interest;establishment,park,Banlung
ChIJJww9gSvDbDER7WgByRHiZOw,Preah Pouth Temple Base,cultural,hindu_temple,Hindu Temple,sightseeing,13.8779115,106.8593788,"VVH5+5Q6, Ou Chum, Cambodia",4.3,3,,OPERATIONAL,,https://maps.google.com/?cid=17033988256636692717&g_mp=Cilnb29nbGUubWFwcy5wbGFjZXMudjEuUGxhY2VzLlNlYXJjaE5lYXJieRACGAQgAA,hindu_temple;place_of_worship;association_or_organization;point_of_interest;establishment,hindu_temple,Banlung
ChIJJTFDSq3jbDERrqCr5tVDmow,Wat Phnom Beng Pagoda,cultural,buddhist_temple,Buddhist Temple,sightseeing,13.69018,107.0138338,"M2R7+3GG, Unnamed Road, Krong Ban Lung, Cambodia",3.9,7,,OPERATIONAL,,https://maps.google.com/?cid=10131484897700454574&g_mp=Cilnb29nbGUubWFwcy5wbGFjZXMudjEuUGxhY2VzLlNlYXJjaE5lYXJieRACGAQgAA,buddhist_temple;place_of_worship;association_or_organization;point_of_interest;establishment,buddhist_temple,Banlung
ChIJZ5Ym3WQXbTERLZ_WXy_MSU4,Aranha Ram King of Suta,cultural,buddhist_temple,Buddhist Temple,sightseeing,13.5011826,106.9723246,"GX2C+FWG, Lumphat, Cambodia",4.3,7,,OPERATIONAL,,https://maps.google.com/?cid=5641264512101687085&g_mp=Cilnb29nbGUubWFwcy5wbGFjZXMudjEuUGxhY2VzLlNlYXJjaE5lYXJieRACGAQgAA,buddhist_temple;place_of_worship;association_or_organization;point_of_interest;establishment,buddhist_temple,Banlung
ChIJ1U-rzpHhbDERAK3DakRWgEE,Reaksmei Samki Ratanaram Pagoda,cultural,buddhist_temple,Buddhist Temple,sightseeing,13.7166518,106.9937238,"PX8V+MF9, Krong Ban Lung, Cambodia",4,15,,OPERATIONAL,,https://maps.google.com/?cid=4719867261333253376&g_mp=Cilnb29nbGUubWFwcy5wbGFjZXMudjEuUGxhY2VzLlNlYXJjaE5lYXJieRACGAQgAA,buddhist_temple;place_of_worship;association_or_organization;point_of_interest;establishment,buddhist_temple,Banlung
ChIJW7TirHwgbTERiGbFg2F-qHs,Sovann Botoum Khem Voan Pagoda,cultural,buddhist_temple,Buddhist Temple,sightseeing,13.683871799999999,106.870392,"78, Krong Ban Lung, Cambodia",4,1,,OPERATIONAL,,https://maps.google.com/?cid=8910510820040205960&g_mp=Cilnb29nbGUubWFwcy5wbGFjZXMudjEuUGxhY2VzLlNlYXJjaE5lYXJieRACGAQgAA,buddhist_temple;place_of_worship;association_or_organization;point_of_interest;establishment,buddhist_temple,Banlung
ChIJncIiShH-bDER1ravZw32OF8,Ratanak Reangsei Pagoda,cultural,buddhist_temple,Buddhist Temple,sightseeing,13.686630399999999,107.21224169999999,"M6P6+MV5, 78, Bar Kaev, Cambodia",4.3,12,,OPERATIONAL,,https://maps.google.com/?cid=6861504569733527254&g_mp=Cilnb29nbGUubWFwcy5wbGFjZXMudjEuUGxhY2VzLlNlYXJjaE5lYXJieRACGAQgAA,buddhist_temple;place_of_worship;association_or_organization;point_of_interest;establishment,buddhist_temple,Banlung
ChIJZd6FPgAXbTERC1bd8HRHvv0,សាលាឆទានដីឡូតិ៍,cultural,buddhist_temple,Buddhist Temple,sightseeing,13.478010999999999,106.98340519999999,"FXHM+692, Lumphat, Cambodia",,,,OPERATIONAL,,https://maps.google.com/?cid=18284130104753608203&g_mp=Cilnb29nbGUubWFwcy5wbGFjZXMudjEuUGxhY2VzLlNlYXJjaE5lYXJieRACGAQgAA,buddhist_temple;place_of_worship;association_or_organization;point_of_interest;establishment,buddhist_temple,Banlung
ChIJzwzAUQAlbTEReoMTG-0Elwg,អាស្រមលោកឪអាំងផេះ,cultural,buddhist_temple,Buddhist Temple,sightseeing,13.585913399999999,106.76151089999999,"HQP6+9J6, Cambodia",5,3,,OPERATIONAL,,https://maps.google.com/?cid=618968890194756474&g_mp=Cilnb29nbGUubWFwcy5wbGFjZXMudjEuUGxhY2VzLlNlYXJjaE5lYXJieRACGAQgAA,buddhist_temple;place_of_worship;association_or_organization;point_of_interest;establishment,buddhist_temple,Banlung
ChIJQydn_4DjbDERCFnIX6cx4EI,ព្រះវិហារជីវិតថ្មី ភូមិប៉ាជន់,cultural,church,Church,sightseeing,13.7527859,107.0595491,"Q335+4R, Ou Chum, Cambodia",2.5,4,,OPERATIONAL,,https://maps.google.com/?cid=4818906196222695688&g_mp=Cilnb29nbGUubWFwcy5wbGFjZXMudjEuUGxhY2VzLlNlYXJjaE5lYXJieRACGAQgAA,church;place_of_worship;association_or_organization;point_of_interest;establishment,church,Banlung
ChIJaXLkrzfhbDER-hdrT5OC-pw,SDA Church Ratanakiri,cultural,church,Church,sightseeing,13.750127899999999,106.99747049999999,"QX2W+3X5, Krong Ban Lung, Cambodia",,,,OPERATIONAL,,https://maps.google.com/?cid=11311496983298643962&g_mp=Cilnb29nbGUubWFwcy5wbGFjZXMudjEuUGxhY2VzLlNlYXJjaE5lYXJieRACGAQgAA,church;place_of_worship;association_or_organization;point_of_interest;establishment,church,Banlung
ChIJzU-LsjThbDER2iTqjfAUe10,ក្រុមជំនុំឡាបានសៀក (Labansiek Church),cultural,church,Church,sightseeing,13.730194099999999,106.9867805,"PXJP+3PC, Krong Ban Lung, Cambodia",5,2,,OPERATIONAL,,https://maps.google.com/?cid=6736000691068347610&g_mp=Cilnb29nbGUubWFwcy5wbGFjZXMudjEuUGxhY2VzLlNlYXJjaE5lYXJieRACGAQgAA,church;place_of_worship;association_or_organization;point_of_interest;establishment,church,Banlung
ChIJ8T13s8jhbDERUuEayiDKXuk,Bethany Baptist church Ratanakiri,cultural,church,Church,sightseeing,13.719956199999999,106.98992419999999,"Krong Ban Lung, Cambodia",5,2,,OPERATIONAL,,https://maps.google.com/?cid=16816100300826534226&g_mp=Cilnb29nbGUubWFwcy5wbGFjZXMudjEuUGxhY2VzLlNlYXJjaE5lYXJieRACGAQgAA,church;place_of_worship;association_or_organization;point_of_interest;establishment,church,Banlung
ChIJH5GMj8_hbDERhQMpcn7a_68,Catholic Church of Ratanakiri,cultural,church,Church,sightseeing,13.7399042,106.98823920000001,"PXQQ+X79, Krong Ban Lung, Cambodia",,,,OPERATIONAL,http://catholiccambodia.org/,https://maps.google.com/?cid=12682095312314631045&g_mp=Cilnb29nbGUubWFwcy5wbGFjZXMudjEuUGxhY2VzLlNlYXJjaE5lYXJieRACGAQgAA,church;place_of_worship;association_or_organization;point_of_interest;establishment,church,Banlung
ChIJf0ykmqnhbDERB4ZiTYJbVdg,St Joseph Catholic Church,cultural,church,Church,sightseeing,13.739725499999999,106.9884204,"PXQQ+V9V, Krong Ban Lung, Cambodia",,,,OPERATIONAL,,https://maps.google.com/?cid=15588466300415018503&g_mp=Cilnb29nbGUubWFwcy5wbGFjZXMudjEuUGxhY2VzLlNlYXJjaE5lYXJieRACGAQgAA,church;place_of_worship;association_or_organization;point_of_interest;establishment,church,Banlung
ChIJzeZj_ErnbDERMWnJrxw9mls,ក្រុមជំនុំមេត្រីភាពអូរជុំ (Fellowship Church Ou Chum),cultural,church,Church,sightseeing,13.7937771,106.99304049999999,"QXVV+G67, Ou Chum, Cambodia",5,1,,OPERATIONAL,,https://maps.google.com/?cid=6600655397282474289&g_mp=Cilnb29nbGUubWFwcy5wbGFjZXMudjEuUGxhY2VzLlNlYXJjaE5lYXJieRACGAQgAA,church;place_of_worship;association_or_organization;point_of_interest;establishment,church,Banlung
ChIJ1x6SdETibDER19wOycHsgbc,Presbyterian church,cultural,church,Church,sightseeing,13.7123917,107.03862869999999,"Loun Village, Krong Ban Lung,, P26Q+XF2, Krong Ban Lung, Cambodia",5,1,,OPERATIONAL,,https://maps.google.com/?cid=13223110297982524631&g_mp=Cilnb29nbGUubWFwcy5wbGFjZXMudjEuUGxhY2VzLlNlYXJjaE5lYXJieRACGAQgAA,church;place_of_worship;association_or_organization;point_of_interest;establishment,church,Banlung
ChIJbQQZWYvvbDERze_MoMBmgzw,ព្រះវិហារភូមិកាំ,cultural,church,Church,sightseeing,13.8664586,107.08234320000001,"V38J+HWP, ភូមិកាំ ឃុំល្អក់, Cambodia",3.6,7,,OPERATIONAL,,https://maps.google.com/?cid=4360441841742311373&g_mp=Cilnb29nbGUubWFwcy5wbGFjZXMudjEuUGxhY2VzLlNlYXJjaE5lYXJieRACGAQgAA,church;place_of_worship;association_or_organization;point_of_interest;establishment,church,Banlung
ChIJJ_uFZgAdbTER_Co-BLMjcqY,វត្តសាយស​មុនីរាម,cultural,church,Church,sightseeing,13.6181445,107.0455131,"J29W+762, Krong Ban Lung, Cambodia",5,1,,OPERATIONAL,,https://maps.google.com/?cid=11993688009418353404&g_mp=Cilnb29nbGUubWFwcy5wbGFjZXMudjEuUGxhY2VzLlNlYXJjaE5lYXJieRACGAQgAA,church;place_of_worship;association_or_organization;point_of_interest;establishment,church,Banlung
ChIJ____3j_hbDERoHNZLDyYPgk,Ratanakiri Presbyterian Church,cultural,church,Church,sightseeing,13.7544445,106.981426,"QX3J+QHF, Jesus Path, Banlung, Cambodia",1,1,,OPERATIONAL,,https://maps.google.com/?cid=666137179106931616&g_mp=Cilnb29nbGUubWFwcy5wbGFjZXMudjEuUGxhY2VzLlNlYXJjaE5lYXJieRACGAQgAA,church;place_of_worship;association_or_organization;point_of_interest;establishment,church,Banlung
ChIJ9VOGHADhbDERiTeBo-riF5Q,Foursquare Ratanakiri,cultural,church,Church,sightseeing,13.767978,106.98895499999999,"QX9Q+5HW beong Kon seng commune, Ou Chum, Cambodia",,,,OPERATIONAL,,https://maps.google.com/?cid=10671247339471058825&g_mp=Cilnb29nbGUubWFwcy5wbGFjZXMudjEuUGxhY2VzLlNlYXJjaE5lYXJieRACGAQgAA,church;place_of_worship;association_or_organization;point_of_interest;establishment,church,Banlung
ChIJyRf1OwD9bDERdye1m-__yik,ព្រះវិហារភូមិក្រូច,cultural,church,Church,sightseeing,13.7663741,107.1131771,"Q487+G7, Ou Chum, Cambodia",5,4,,OPERATIONAL,,https://maps.google.com/?cid=3011500705425205111&g_mp=Cilnb29nbGUubWFwcy5wbGFjZXMudjEuUGxhY2VzLlNlYXJjaE5lYXJieRACGAQgAA,church;place_of_worship;association_or_organization;point_of_interest;establishment,church,Banlung
ChIJE8_-ALXnbDERh-Ht573J5AM,វិហ៊ា ពន្លឺក្តីសង្ឃឹមនៃព្រះគ្រិស្ត,cultural,church,Church,sightseeing,13.8170559,107.0027831,"R283+R4, Ou Chum, Cambodia",,,,CLOSED_TEMPORARILY,,https://maps.google.com/?cid=280570894280941959&g_mp=Cilnb29nbGUubWFwcy5wbGFjZXMudjEuUGxhY2VzLlNlYXJjaE5lYXJieRACGAQgAA,church;place_of_worship;association_or_organization;point_of_interest;establishment,church,Banlung
ChIJYSGl3KThbDER5rwSUOHRmWg,Kachanh Praising Church,cultural,church,Church,sightseeing,13.7222625,106.9749219,"PXCF+WX3, Krong Ban Lung, Cambodia",5,2,,OPERATIONAL,,https://maps.google.com/?cid=7537286217022487782&g_mp=Cilnb29nbGUubWFwcy5wbGFjZXMudjEuUGxhY2VzLlNlYXJjaE5lYXJieRACGAQgAA,church;place_of_worship;association_or_organization;point_of_interest;establishment,church,Banlung
ChIJnc8IsxnhbDERuoJwdKK-EY0,សហគមបេសកកម្មដំណឹងល្អ គ្រួសារសង្ឃឹម ខេត្តរតនគិរី,cultural,church,Church,sightseeing,13.7514692,106.97553149999999,"Phumផ្លូវក្រោយពេទ្យ Phnomsvay, Beng Kanseng Banlung, Ou Chum 16452, Cambodia",,,,OPERATIONAL,,https://maps.google.com/?cid=10165115438899430074&g_mp=Cilnb29nbGUubWFwcy5wbGFjZXMudjEuUGxhY2VzLlNlYXJjaE5lYXJieRACGAQgAA,church;place_of_worship;association_or_organization;point_of_interest;establishment,church,Banlung
ChIJvbHKPrbhbDERjYtPs4FAvJg,RATANAKIRI LOVE CHURCH,cultural,church,Church,sightseeing,13.7301054,106.9918157,"PXJR+2PW, 53, Krong Ban Lung, Cambodia",5,1,,OPERATIONAL,,https://maps.google.com/?cid=11005742515189943181&g_mp=Cilnb29nbGUubWFwcy5wbGFjZXMudjEuUGxhY2VzLlNlYXJjaE5lYXJieRACGAQgAA,church;place_of_worship;association_or_organization;point_of_interest;establishment,church,Banlung
ChIJD0nOYZ0DbTER1DZm7KTI6pw,ក្រុមជំនុំជីវិតថ្មី ក្រុងសួង,cultural,church,Church,sightseeing,13.627164599999999,107.1283588,"J4GH+V89, ផ្លូវលំ, Soung, Cambodia",,,,OPERATIONAL,,https://maps.google.com/?cid=11307070425133364948&g_mp=Cilnb29nbGUubWFwcy5wbGFjZXMudjEuUGxhY2VzLlNlYXJjaE5lYXJieRACGAQgAA,church;place_of_worship;association_or_organization;point_of_interest;establishment,church,Banlung
ChIJ0dQnTADhbDERDihNzFTjH-Q,កោះញែក,cultural,church,Church,sightseeing,13.7377702,106.98728009999999,"PXQP+4W2, Krong Ban Lung, Cambodia",,,,OPERATIONAL,,https://maps.google.com/?cid=16438107118269966350&g_mp=Cilnb29nbGUubWFwcy5wbGFjZXMudjEuUGxhY2VzLlNlYXJjaE5lYXJieRACGAQgAA,church;place_of_worship;association_or_organization;point_of_interest;establishment,church,Banlung
ChIJQ5UdMwDhbDERbK5C2KoNxOU,ភូមិជ្រី,cultural,church,Church,sightseeing,13.720284,107.00559109999999,"P2C4+46, Krong Ban Lung, Cambodia",,,,OPERATIONAL,,https://maps.google.com/?cid=16556373157544636012&g_mp=Cilnb29nbGUubWFwcy5wbGFjZXMudjEuUGxhY2VzLlNlYXJjaE5lYXJieRACGAQgAA,church;place_of_worship;association_or_organization;point_of_interest;establishment,church,Banlung
ChIJ_5W1ObLhbDERKz7Jl0vZNvM,វិហារឥស្លាម ភូមិ៧មករា,cultural,mosque,Mosque,sightseeing,13.7320158,106.97990150000001,"503, Krong Ban Lung, Cambodia",3.8,5,,OPERATIONAL,,https://maps.google.com/?cid=17525433918651186731&g_mp=Cilnb29nbGUubWFwcy5wbGFjZXMudjEuUGxhY2VzLlNlYXJjaE5lYXJieRACGAQgAA,mosque;place_of_worship;association_or_organization;point_of_interest;establishment,mosque,Banlung
ChIJ5fV1QILhbDERecZHPC42p3c,Masjid Phum Thmey,cultural,mosque,Mosque,sightseeing,13.712816,106.9892916,"PX7Q+4P, Krong Ban Lung, Cambodia",,,,OPERATIONAL,,https://maps.google.com/?cid=8621919583831836281&g_mp=Cilnb29nbGUubWFwcy5wbGFjZXMudjEuUGxhY2VzLlNlYXJjaE5lYXJieRACGAQgAA,mosque;place_of_worship;association_or_organization;point_of_interest;establishment,mosque,Banlung
ChIJGapa-XPhbDERFpTzvYxKQVI,CAREMCHU,urban,cake_shop,Cake Shop,rides,13.7372795,106.9885759,"Kim Dung`s Bakery, ratanakiri 12203, Cambodia",4.5,14,PRICE_LEVEL_INEXPENSIVE,OPERATIONAL,,https://maps.google.com/?cid=5927100552939017238&g_mp=Cilnb29nbGUubWFwcy5wbGFjZXMudjEuUGxhY2VzLlNlYXJjaE5lYXJieRACGAQgAA,cake_shop;amusement_park;amusement_center;ice_cream_shop;dessert_shop;bakery;confectionery;food_store;local_government_office;wholesaler;store;government_office;food;manufacturer;association_or_organization;point_of_interest;establishment,amusement_park,Banlung
ChIJNeIbagDhbDERZOXy4Hvt6_Y,Dance world karaoke,urban,bar,Bar,nightlife,13.7390574,106.99808689999999,"PXQX+J73, Krong Ban Lung, Cambodia",5,3,,OPERATIONAL,,https://maps.google.com/?cid=17792575869168051556&g_mp=Cilnb29nbGUubWFwcy5wbGFjZXMudjEuUGxhY2VzLlNlYXJjaE5lYXJieRACGAQgAA,karaoke;night_club;bar;point_of_interest;establishment,night_club,Banlung
ChIJG9ghEp_hbDER-TwsxFm3pqk,Neak Meas KTV,urban,bar,Bar,nightlife,13.7280664,106.9849169,"PXHM+6XF, 39, Krong Ban Lung, Cambodia",4,21,,OPERATIONAL,,https://maps.google.com/?cid=12224659834714995961&g_mp=Cilnb29nbGUubWFwcy5wbGFjZXMudjEuUGxhY2VzLlNlYXJjaE5lYXJieRACGAQgAA,karaoke;night_club;bar;point_of_interest;establishment,night_club,Banlung
ChIJj2m3VXvhbDERxH-XvN4YV-E,Forest Night Club,urban,night_club,Night Club,nightlife,13.741592299999999,107.00063320000001,"78, Banlung, Cambodia",5,6,,OPERATIONAL,,https://maps.google.com/?cid=16237474326433464260&g_mp=Cilnb29nbGUubWFwcy5wbGFjZXMudjEuUGxhY2VzLlNlYXJjaE5lYXJieRACGAQgAA,night_club;point_of_interest;establishment,night_club,Banlung
ChIJP8njAgDhbDER_JOAx4QCLig,ក្លឹប,urban,night_club,Night Club,nightlife,13.735945399999999,106.9862634,"PXPP+C8X, Krong Ban Lung, Cambodia",,,,OPERATIONAL,,https://maps.google.com/?cid=2895254379751838716&g_mp=Cilnb29nbGUubWFwcy5wbGFjZXMudjEuUGxhY2VzLlNlYXJjaE5lYXJieRACGAQgAA,night_club;point_of_interest;establishment,night_club,Banlung
ChIJK0V0PQDhbDERm0PM2qww0zU,បឹងបន្សែង,urban,night_club,Night Club,nightlife,13.7533471,106.9842525,"QX2M+XV2, 422, Krong Ban Lung, Cambodia",1,1,,OPERATIONAL,,https://maps.google.com/?cid=3878497223059456923&g_mp=Cilnb29nbGUubWFwcy5wbGFjZXMudjEuUGxhY2VzLlNlYXJjaE5lYXJieRACGAQgAA,night_club;point_of_interest;establishment,night_club,Banlung
ChIJ50WhOwDnbDER5rVhJq2zNtc,Meet Drink,urban,night_club,Night Club,nightlife,13.778394700000002,106.99229270000001,"QXHR+9W3, Ou Chum, Cambodia",,,,OPERATIONAL,,https://maps.google.com/?cid=15507779923151533542&g_mp=Cilnb29nbGUubWFwcy5wbGFjZXMudjEuUGxhY2VzLlNlYXJjaE5lYXJieRACGAQgAA,night_club;point_of_interest;establishment,night_club,Banlung
ChIJ4YLcoJzxbDERE5EOOmZK62U,NGỌC TÚ - TNT,urban,night_club,Night Club,nightlife,13.857660699999998,107.10119309999999,"V452+3F8, Cambodia",,,,OPERATIONAL,,https://maps.google.com/?cid=7344045420278878483&g_mp=Cilnb29nbGUubWFwcy5wbGFjZXMudjEuUGxhY2VzLlNlYXJjaE5lYXJieRACGAQgAA,night_club;point_of_interest;establishment,night_club,Banlung
ChIJu3jjeXr_bDERy5XtP4WlheI,វើលស្តារ KTV,urban,night_club,Night Club,nightlife,13.672170099999999,107.25513099999999,"M7C4+R3, Bar Kaev, Cambodia",,,,OPERATIONAL,,https://maps.google.com/?cid=16322634416195999179&g_mp=Cilnb29nbGUubWFwcy5wbGFjZXMudjEuUGxhY2VzLlNlYXJjaE5lYXJieRACGAQgAA,night_club;point_of_interest;establishment,night_club,Banlung
ChIJE83edsbhbDEReUAqHolhEPw,ផ្សារទំនើបស៊ីត្រា,urban,shopping_mall,Shopping Mall,shopping,13.740288399999999,106.99110569999999,"78A, Krong Ban Lung, Cambodia",4,174,,OPERATIONAL,https://www.facebook.com/SetraSupermarket/,https://maps.google.com/?cid=18163124538729709689&g_mp=Cilnb29nbGUubWFwcy5wbGFjZXMudjEuUGxhY2VzLlNlYXJjaE5lYXJieRACGAQgAA,shopping_mall;point_of_interest;establishment,shopping_mall,Banlung
ChIJUbnbZwDxbDERgQQd8BW4ByY,រតនគិរី.លំផាត់,urban,shopping_mall,Shopping Mall,shopping,13.857660699999998,107.10119309999999,"V452+3F8, Ou Chum, Cambodia",4,3,,OPERATIONAL,,https://maps.google.com/?cid=2740361302640493697&g_mp=Cilnb29nbGUubWFwcy5wbGFjZXMudjEuUGxhY2VzLlNlYXJjaE5lYXJieRACGAQgAA,shopping_mall;point_of_interest;establishment,shopping_mall,Banlung
ChIJM2XffiDhbDERdtYpRKMXPus,ម៉ារី ម៉ាត - Mary Mart,urban,shopping_mall,Shopping Mall,shopping,13.742134199999999,106.9816366,"Street 23, Krong Ban Lung, Cambodia",4.1,14,,OPERATIONAL,,https://maps.google.com/?cid=16951012037459826294&g_mp=Cilnb29nbGUubWFwcy5wbGFjZXMudjEuUGxhY2VzLlNlYXJjaE5lYXJieRACGAQgAA,shopping_mall;makeup_artist;shoe_store;toy_store;clothing_store;building_materials_store;supplier;furniture_store;home_improvement_store;home_goods_store;store;point_of_interest;establishment,shopping_mall,Banlung
ChIJq5HO208hbTERiz_b9NSQ_xQ,ម៉ាក់ស្រីភួង,urban,shopping_mall,Shopping Mall,shopping,13.6381118,106.8941495,"78,Ta Kab, Banlung 160303, Cambodia",5,1,,OPERATIONAL,,https://maps.google.com/?cid=1513087244135251851&g_mp=Cilnb29nbGUubWFwcy5wbGFjZXMudjEuUGxhY2VzLlNlYXJjaE5lYXJieRACGAQgAA,shopping_mall;point_of_interest;establishment,shopping_mall,Banlung
ChIJNf4-csrhbDERbgvG69Bo96Q,ប៊ូ រស្មី (ម៉ាក់អាជា),urban,shopping_mall,Shopping Mall,shopping,13.735458,106.9867852,"41, Krong Ban Lung, Cambodia",4.4,14,,OPERATIONAL,,https://maps.google.com/?cid=11887084987985824622&g_mp=Cilnb29nbGUubWFwcy5wbGFjZXMudjEuUGxhY2VzLlNlYXJjaE5lYXJieRACGAQgAA,shopping_mall;point_of_interest;establishment,shopping_mall,Banlung
ChIJmR9TC3DhbDERmmcME0pbXo8,Sen Sopea Shop,urban,shopping_mall,Shopping Mall,shopping,13.7407636,106.9945595,"PXRV+8R3, NR78, Krong Ban Lung, Cambodia",4.1,36,,OPERATIONAL,,https://maps.google.com/?cid=10330794968939784090&g_mp=Cilnb29nbGUubWFwcy5wbGFjZXMudjEuUGxhY2VzLlNlYXJjaE5lYXJieRACGAQgAA,shopping_mall;point_of_interest;establishment,shopping_mall,Banlung
ChIJURnVf77hbDERTP3mzkGiq1w,ថៃ រតនះ លក់គ្រឿងបន្លាស់ម៉ូតូគ្រប់ប្រភេទ,urban,shopping_mall,Shopping Mall,shopping,13.7202247,106.9569617,"PXC4+3RV, Krong Ban Lung 16452, Cambodia",5,3,,OPERATIONAL,,https://maps.google.com/?cid=6677609276034710860&g_mp=Cilnb29nbGUubWFwcy5wbGFjZXMudjEuUGxhY2VzLlNlYXJjaE5lYXJieRACGAQgAA,shopping_mall;point_of_interest;establishment,shopping_mall,Banlung
ChIJzdCXFnjhbDERbfDpf9FgRzg,ហាង មុំ ស្រីកែវ(អ៉ី ឡាវ),urban,shopping_mall,Shopping Mall,shopping,13.7320125,106.9959844,"PXJW+R95, Krong Ban Lung, Cambodia",3.8,9,,OPERATIONAL,,https://maps.google.com/?cid=4055316442380890221&g_mp=Cilnb29nbGUubWFwcy5wbGFjZXMudjEuUGxhY2VzLlNlYXJjaE5lYXJieRACGAQgAA,shopping_mall;point_of_interest;establishment,shopping_mall,Banlung
ChIJeZysrgbhbDERwlIypY12NyY,Lina Sushi & Takoyaki,urban,shopping_mall,Shopping Mall,shopping,13.743329099999999,106.98844299999999,"សង្កាត់បឹងកន្សែង, Krong Ban Lung, Cambodia",5,1,,OPERATIONAL,,https://maps.google.com/?cid=2753800047894352578&g_mp=Cilnb29nbGUubWFwcy5wbGFjZXMudjEuUGxhY2VzLlNlYXJjaE5lYXJieRACGAQgAA,shopping_mall;point_of_interest;establishment,shopping_mall,Banlung
ChIJh8lfOADhbDERIDP0qhPbNv8,ខេមី សំបុកត្រចៀកកាំ Camie Bird’s Nest 燕窝,urban,shopping_mall,Shopping Mall,shopping,13.735361399999999,106.9880982,"PXPQ+46X សង្កាត់ឡាបានសៀក, ផ្លូវលេខ66, Krong Ban Lung, Cambodia",5,2,,OPERATIONAL,,https://maps.google.com/?cid=18390127005932991264&g_mp=Cilnb29nbGUubWFwcy5wbGFjZXMudjEuUGxhY2VzLlNlYXJjaE5lYXJieRACGAQgAA,shopping_mall;point_of_interest;establishment,shopping_mall,Banlung
ChIJrw8GYADhbDERJ0h-QIbk9Og,Ratanakiri,urban,shopping_mall,Shopping Mall,shopping,13.7410105,106.99612499999999,"PXFR+F2P, Krong Ban Lung, Cambodia",3,2,,OPERATIONAL,,https://maps.google.com/?cid=16786292976375449639&g_mp=Cilnb29nbGUubWFwcy5wbGFjZXMudjEuUGxhY2VzLlNlYXJjaE5lYXJieRACGAQgAA,shopping_mall;point_of_interest;establishment,shopping_mall,Banlung
ChIJZUKTiXznbDER5t9-Gc5yFN4,Sophat Car&Motorcycle wash and Wholesale and retail all types,urban,shopping_mall,Shopping Mall,shopping,13.8042187,106.992993,"RX3V+M5Q, NR78A, Ou Chum, Cambodia",5,1,,OPERATIONAL,,https://maps.google.com/?cid=16002541605470789606&g_mp=Cilnb29nbGUubWFwcy5wbGFjZXMudjEuUGxhY2VzLlNlYXJjaE5lYXJieRACGAQgAA,shopping_mall;point_of_interest;establishment,shopping_mall,Banlung
ChIJnRaVcnDhbDERxpDCn9RQm_4,Lts Shop,urban,shopping_mall,Shopping Mall,shopping,13.740682099999999,106.9942162,"PXRV+7MG, Krong Ban Lung, Cambodia",3.7,3,,CLOSED_TEMPORARILY,,https://maps.google.com/?cid=18346346381167464646&g_mp=Cilnb29nbGUubWFwcy5wbGFjZXMudjEuUGxhY2VzLlNlYXJjaE5lYXJieRACGAQgAA,shopping_mall;point_of_interest;establishment,shopping_mall,Banlung
ChIJMydRBRPhbDERE71FqYW-Ozo,អាជីបោះដំុំចានឆ្នាំង,urban,shopping_mall,Shopping Mall,shopping,13.735629,106.98017379999999,"PXPJ+733, 503, Krong Ban Lung, Cambodia",,,,OPERATIONAL,,https://maps.google.com/?cid=4196156959105596691&g_mp=Cilnb29nbGUubWFwcy5wbGFjZXMudjEuUGxhY2VzLlNlYXJjaE5lYXJieRACGAQgAA,shopping_mall;point_of_interest;establishment,shopping_mall,Banlung
ChIJsf30UWPhbDERi4Kw5rCUQ_c,Arng sothhea,urban,shopping_mall,Shopping Mall,shopping,13.7420309,107.00145409999999,"P2R2+RH8, Krong Ban Lung, Cambodia",4,1,,OPERATIONAL,,https://maps.google.com/?cid=17817248038313296523&g_mp=Cilnb29nbGUubWFwcy5wbGFjZXMudjEuUGxhY2VzLlNlYXJjaE5lYXJieRACGAQgAA,shopping_mall;point_of_interest;establishment,shopping_mall,Banlung
ChIJSSayOwDhbDERqHGk0Wfj_Ps,ចែ វែង (ចាបហួយ),urban,shopping_mall,Shopping Mall,shopping,13.736767599999999,106.98661899999999,"PXPP+PJ4, Krong Ban Lung, Cambodia",,,,OPERATIONAL,,https://maps.google.com/?cid=18157637832689349032&g_mp=Cilnb29nbGUubWFwcy5wbGFjZXMudjEuUGxhY2VzLlNlYXJjaE5lYXJieRACGAQgAA,shopping_mall;point_of_interest;establishment,shopping_mall,Banlung
ChIJn3ElbADhbDERNiUgtXmSgtQ,Norphea mart - នភាម៉ាត,urban,shopping_mall,Shopping Mall,shopping,13.7351958,106.9873514,"PXPP+3WH, Krong Ban Lung, Cambodia",5,1,,OPERATIONAL,,https://maps.google.com/?cid=15312962734440588598&g_mp=Cilnb29nbGUubWFwcy5wbGFjZXMudjEuUGxhY2VzLlNlYXJjaE5lYXJieRACGAQgAA,shopping_mall;point_of_interest;establishment,shopping_mall,Banlung
ChIJOT1rHwAXbTERteWZlmHd2OI,ផ្ទះស្រីឡៃ​ លក់អីវ៉ាន់បោះដុំនិងរាយ​,urban,shopping_mall,Shopping Mall,shopping,13.4925879,106.9803099,"FXVJ+24, Lumphat, Cambodia",,,,OPERATIONAL,,https://maps.google.com/?cid=16346058258749449653&g_mp=Cilnb29nbGUubWFwcy5wbGFjZXMudjEuUGxhY2VzLlNlYXJjaE5lYXJieRACGAQgAA,shopping_mall;point_of_interest;establishment,shopping_mall,Banlung
ChIJsXPNztSYbDERjXEq9MDAeO4,Virachey National Park,nature,national_park,National Park,walking,14.1885178,106.86510829999999,"5VQ8+C25, Veun Sai, Cambodia",4.3,198,,OPERATIONAL,,https://maps.google.com/?cid=17183696313194803597&g_mp=Cilnb29nbGUubWFwcy5wbGFjZXMudjEuUGxhY2VzLlNlYXJjaE5lYXJieRACGAQgAA,national_park;tourist_attraction;park;point_of_interest;establishment,tourist_attraction,Virachey area
ChIJmTP_ZQBpbDERM3Rz8Aqhz0w,Làng chài,attraction,tourist_attraction,Tourist Attraction,,14.022938000000002,107.48602299999999,"2FFP+5C, Ia Toi, Quang Ngai, Vietnam",5,2,,OPERATIONAL,,https://maps.google.com/?cid=5534819535417472051&g_mp=Cilnb29nbGUubWFwcy5wbGFjZXMudjEuUGxhY2VzLlNlYXJjaE5lYXJieRACGAQgAA,tourist_attraction;point_of_interest;establishment,tourist_attraction,Virachey area
ChIJ16KmUGtXbDERTj9Rfq2_JrU,Malik Waterfall,attraction,tourist_attraction,Tourist Attraction,,13.838725799999999,107.3230097,"R8QF+F6, Andoung Meas, Cambodia",4,7,,OPERATIONAL,,https://maps.google.com/?cid=13053331321849462606&g_mp=Cilnb29nbGUubWFwcy5wbGFjZXMudjEuUGxhY2VzLlNlYXJjaE5lYXJieRACGAQgAA,tourist_attraction;point_of_interest;establishment,tourist_attraction,Virachey area
ChIJNQoOiu5PbDERSmSno6RqJjk,Cambodia - Vietnam border post 30,cultural,historical_landmark,Historical Landmark,,13.7677917,107.49802319999999,"QF9X+9JF, Ia Nan, Vietnam",4.1,37,,OPERATIONAL,,https://maps.google.com/?cid=4118096164629734474&g_mp=Cilnb29nbGUubWFwcy5wbGFjZXMudjEuUGxhY2VzLlNlYXJjaE5lYXJieRACGAQgAA,historical_landmark;historical_place;point_of_interest;establishment,historical_landmark,Virachey area
ChIJIYpyJwCNbDER2-BRAO4-wL0,ស្ទឹង តា ប៉ុក,cultural,historical_landmark,Historical Landmark,,14.0772585,107.171298,"35GC+WG3, Cambodia",,,,OPERATIONAL,,https://maps.google.com/?cid=13672997660625330395&g_mp=Cilnb29nbGUubWFwcy5wbGFjZXMudjEuUGxhY2VzLlNlYXJjaE5lYXJieRACGAQgAA,historical_landmark;historical_place;point_of_interest;establishment,historical_landmark,Virachey area
ChIJlyvsEwBVbDERchp58EMn4T4,Đội 1,cultural,historical_landmark,Historical Landmark,,13.7459729,107.30231590000001,"P8W2+9W, Cambodia",,,,OPERATIONAL,,https://maps.google.com/?cid=4530945872862190194&g_mp=Cilnb29nbGUubWFwcy5wbGFjZXMudjEuUGxhY2VzLlNlYXJjaE5lYXJieRACGAQgAA,historical_landmark;historical_place;point_of_interest;establishment,historical_landmark,Virachey area
ChIJhw2hQQBRbDERCejdTgjSBoo,សេសាន​ ដួងចិត្ត,nature,park,Park,walking,13.7830329,107.41686419999999,"QCM8+6P, Pak Nhai, Cambodia",2.8,4,,OPERATIONAL,,https://maps.google.com/?cid=9945867760219056137&g_mp=Cilnb29nbGUubWFwcy5wbGFjZXMudjEuUGxhY2VzLlNlYXJjaE5lYXJieRACGAQgAA,park;point_of_interest;establishment,park,Virachey area
ChIJi-JyIADHbDERAVQk-ksN-FI,ទីស្នាក់ការ ឧទ្យានជាតិ វើនសៃ-សៀមប៉ាង,nature,national_park,National Park,walking,14.018966299999999,106.74849859999999,"2P9X+H9, Veun Sai, Cambodia",5,3,,OPERATIONAL,http://www.jungletrekkingcambodia.com/,https://maps.google.com/?cid=5978543125304726529&g_mp=Cilnb29nbGUubWFwcy5wbGFjZXMudjEuUGxhY2VzLlNlYXJjaE5lYXJieRACGAQgAA,national_park;park;point_of_interest;establishment,park,Virachey area
ChIJa0l3TQBfbDERSXgk16YRbQ0,ចំការ ទុរេន កុងលី,nature,park,Park,walking,13.9552696,107.3577624,"X945+44, Cambodia",,,,OPERATIONAL,,https://maps.google.com/?cid=967448903226259529&g_mp=Cilnb29nbGUubWFwcy5wbGFjZXMudjEuUGxhY2VzLlNlYXJjaE5lYXJieRACGAQgAA,park;point_of_interest;establishment,park,Virachey area
ChIJf16sGgCTbDERmbYJXj98xdA,Jack,nature,park,Park,walking,14.078359899999999,107.08341899999999,"33HM+89, Ta Veng, Cambodia",5,1,,OPERATIONAL,,https://maps.google.com/?cid=15043566741903488665&g_mp=Cilnb29nbGUubWFwcy5wbGFjZXMudjEuUGxhY2VzLlNlYXJjaE5lYXJieRACGAQgAA,park;point_of_interest;establishment,park,Virachey area
ChIJHyWSyWSXazERPK9SnFOyqKM,តំបន់ព្រៃធម្មជាតិ កម្ពុជា,nature,national_park,National Park,walking,14.0461238,107.1085564,"Ta Veng, Cambodia",,,,OPERATIONAL,,https://maps.google.com/?cid=11792871696444337980&g_mp=Cilnb29nbGUubWFwcy5wbGFjZXMudjEuUGxhY2VzLlNlYXJjaE5lYXJieRACGAQgAA,national_park;park;point_of_interest;establishment,park,Virachey area
ChIJEaUZSADxbDERJtkaZLqHDZM,ភ្នំម៉ូ (ចន់ដ៊ូ ម៉ូ),nature,national_park,National Park,walking,13.939032599999999,107.11272749999999,"W4Q7+J39, Cambodia",,,,OPERATIONAL,,https://maps.google.com/?cid=10596274732885793062&g_mp=Cilnb29nbGUubWFwcy5wbGFjZXMudjEuUGxhY2VzLlNlYXJjaE5lYXJieRACGAQgAA,national_park;park;point_of_interest;establishment,park,Virachey area
ChIJi14zTQDzbDERNJUF2O7DnJA,ព្រៃបញ្ចុះសព្វសហគមន៍ភូមិម៉ាស,nature,national_park,National Park,walking,13.949244100000001,107.1280999,"W4XH+M6X, Ou Chum, Cambodia",,,,OPERATIONAL,,https://maps.google.com/?cid=10420419068422362420&g_mp=Cilnb29nbGUubWFwcy5wbGFjZXMudjEuUGxhY2VzLlNlYXJjaE5lYXJieRACGAQgAA,national_park;park;point_of_interest;establishment,park,Virachey area
ChIJ31bTcADzbDERSUj-aJ9ryPg,វាលហ្គៃ(ត្រិញ ឝៃ),nature,nature_preserve,Nature Preserve,walking,13.9545769,107.1355779,"X43P+R6P, Cambodia",,,,OPERATIONAL,,https://maps.google.com/?cid=17926696649153726537&g_mp=Cilnb29nbGUubWFwcy5wbGFjZXMudjEuUGxhY2VzLlNlYXJjaE5lYXJieRACGAQgAA,nature_preserve;park;point_of_interest;establishment,park,Virachey area
ChIJFcxfXVXBbDERIScsjxDYG9I,Ratanaram Pagoda,cultural,buddhist_temple,Buddhist Temple,sightseeing,13.9679646,106.8193022,"78A, Cambodia",4.2,11,,OPERATIONAL,http://7.50.173.142/,https://maps.google.com/?cid=15139932137969166113&g_mp=Cilnb29nbGUubWFwcy5wbGFjZXMudjEuUGxhY2VzLlNlYXJjaE5lYXJieRACGAQgAA,buddhist_temple;place_of_worship;association_or_organization;point_of_interest;establishment,buddhist_temple,Virachey area
ChIJkxFhRQDFbDERMDBhnhG5PaI,Pa Kalan Monastery,cultural,buddhist_temple,Buddhist Temple,sightseeing,13.9464394,106.75787679999999,"WQW5+H4, Pa Kalan, Cambodia",3.7,3,,OPERATIONAL,,https://maps.google.com/?cid=11690703693046427696&g_mp=Cilnb29nbGUubWFwcy5wbGFjZXMudjEuUGxhY2VzLlNlYXJjaE5lYXJieRACGAQgAA,buddhist_temple;place_of_worship;association_or_organization;point_of_interest;establishment,buddhist_temple,Virachey area
ChIJTWY6_ZllbDERs10wQj0F25M,Chùa Huệ Khánh,cultural,buddhist_temple,Buddhist Temple,sightseeing,14.1069836,107.46276329999999,"Unnamed Road, 4F47+Q4R, Ia Tơi, Quảng Ngãi, Vietnam",5,8,,OPERATIONAL,,https://maps.google.com/?cid=10654115104136650163&g_mp=Cilnb29nbGUubWFwcy5wbGFjZXMudjEuUGxhY2VzLlNlYXJjaE5lYXJieRACGAQgAA,buddhist_temple;place_of_worship;association_or_organization;point_of_interest;establishment,buddhist_temple,Virachey area
ChIJe9KrlVSNbDERiHwNe26jxgI,Neakovoan Kiri Ratanaram,cultural,buddhist_temple,Buddhist Temple,sightseeing,14.0380708,107.1058202,"24Q4+68G, Ta Veng, Cambodia",3,3,,OPERATIONAL,,https://maps.google.com/?cid=200026928370777224&g_mp=Cilnb29nbGUubWFwcy5wbGFjZXMudjEuUGxhY2VzLlNlYXJjaE5lYXJieRACGAQgAA,buddhist_temple;place_of_worship;association_or_organization;point_of_interest;establishment,buddhist_temple,Virachey area
ChIJeQ5UbwDFbDERA4XsY96kYHM,Bupha Naram Monastery,cultural,buddhist_temple,Buddhist Temple,sightseeing,13.955397999999999,106.79261199999999,"XQ4V+25Q, Veun Sai, Cambodia",2,1,,OPERATIONAL,,https://maps.google.com/?cid=8313826187192075523&g_mp=Cilnb29nbGUubWFwcy5wbGFjZXMudjEuUGxhY2VzLlNlYXJjaE5lYXJieRACGAQgAA,buddhist_temple;place_of_worship;association_or_organization;point_of_interest;establishment,buddhist_temple,Virachey area
ChIJUaB_JQBZbDER8dhV-iHPJlg,Wat Sila Suvankunthea,cultural,buddhist_temple,Buddhist Temple,sightseeing,13.866083999999999,107.29821,"V78W+7Q8, Andoung Meas, Cambodia",5,1,,OPERATIONAL,,https://maps.google.com/?cid=6351992069293463793&g_mp=Cilnb29nbGUubWFwcy5wbGFjZXMudjEuUGxhY2VzLlNlYXJjaE5lYXJieRACGAQgAA,buddhist_temple;place_of_worship;association_or_organization;point_of_interest;establishment,buddhist_temple,Virachey area
ChIJddFh5vTBbDEREUkruXmV9pE,កុកឡាក់,cultural,buddhist_temple,Buddhist Temple,sightseeing,14.0129667,106.8288717,"2R7H+5GQ, Veun Sai, Cambodia",3.3,3,,OPERATIONAL,,https://maps.google.com/?cid=10517758329800575249&g_mp=Cilnb29nbGUubWFwcy5wbGFjZXMudjEuUGxhY2VzLlNlYXJjaE5lYXJieRACGAQgAA,buddhist_temple;place_of_worship;association_or_organization;point_of_interest;establishment,buddhist_temple,Virachey area
ChIJE7OaeQBVbDER5V3XPrNnMH8,អ៊ុន,cultural,buddhist_temple,Buddhist Temple,sightseeing,13.669634199999999,107.34644800000001,"M89W+VH4, Ou Ya Dav, Cambodia",,,,OPERATIONAL,,https://maps.google.com/?cid=9164939261250067941&g_mp=Cilnb29nbGUubWFwcy5wbGFjZXMudjEuUGxhY2VzLlNlYXJjaE5lYXJieRACGAQgAA,buddhist_temple;place_of_worship;association_or_organization;point_of_interest;establishment,buddhist_temple,Virachey area
ChIJAbIuHwDRbDERNNRQgZtZdGk,វត្តហាត់ប៉ក់ Hat Pak Monastery,cultural,buddhist_temple,Buddhist Temple,sightseeing,13.8467842,106.6946845,"RMWV+QR, Hat Pak, Cambodia",5,1,,OPERATIONAL,,https://maps.google.com/?cid=7598796995705230388&g_mp=Cilnb29nbGUubWFwcy5wbGFjZXMudjEuUGxhY2VzLlNlYXJjaE5lYXJieRACGAQgAA,buddhist_temple;place_of_worship;association_or_organization;point_of_interest;establishment,buddhist_temple,Virachey area
ChIJu7VxzrVBbDERfuHTBcofCdw,Ngọc Dương Monastic,cultural,buddhist_temple,Buddhist Temple,sightseeing,13.9146141,107.6034531,"WJ73+R9W, Ia Chia, Gia Lai, Vietnam",5,2,,CLOSED_TEMPORARILY,,https://maps.google.com/?cid=15855238915676168574&g_mp=Cilnb29nbGUubWFwcy5wbGFjZXMudjEuUGxhY2VzLlNlYXJjaE5lYXJieRACGAQgAA,buddhist_temple;place_of_worship;association_or_organization;point_of_interest;establishment,buddhist_temple,Virachey area
ChIJUe4YIgDRbDER82ZOPatGtCY,វត្តសិរីមង្គលមុនឡាក់មី,cultural,buddhist_temple,Buddhist Temple,sightseeing,13.8468289,106.6943313,"RMWV+PPP, Hat Pak, Cambodia",,,,OPERATIONAL,,https://maps.google.com/?cid=2788931770531079923&g_mp=Cilnb29nbGUubWFwcy5wbGFjZXMudjEuUGxhY2VzLlNlYXJjaE5lYXJieRACGAQgAA,buddhist_temple;place_of_worship;association_or_organization;point_of_interest;establishment,buddhist_temple,Virachey area
ChIJ9RkRRWVDbDERVVNwZ_7i7_A,Giáo điểm Sê San 4,cultural,church,Church,sightseeing,13.9579268,107.53905859999999,"đội 17 cty 75, Ia O, Gia Lai, Vietnam",5,4,,OPERATIONAL,,https://maps.google.com/?cid=17361344670821536597&g_mp=Cilnb29nbGUubWFwcy5wbGFjZXMudjEuUGxhY2VzLlNlYXJjaE5lYXJieRACGAQgAA,church;place_of_worship;association_or_organization;point_of_interest;establishment,church,Virachey area
ChIJWTM9KQBRbDER3R_J-fPhNoI,ព្រះវិហារ​-ប៉ក់ធំ,cultural,church,Church,sightseeing,13.750779099999999,107.43189699999999,"QC2J+FM3, Pak Nhai, Cambodia",1,1,,OPERATIONAL,,https://maps.google.com/?cid=9382935311657017309&g_mp=Cilnb29nbGUubWFwcy5wbGFjZXMudjEuUGxhY2VzLlNlYXJjaE5lYXJieRACGAQgAA,church;place_of_worship;association_or_organization;point_of_interest;establishment,church,Virachey area
ChIJQUuQ7mJTbDERzkw6YxDm8kI,"ព្រះវិហារគ្រីស្ទាន,សោមត្រក",cultural,church,Church,sightseeing,13.7119047,107.4051772,"Saom Trak, Cambodia",3.5,4,,OPERATIONAL,,https://maps.google.com/?cid=4824171108925852878&g_mp=Cilnb29nbGUubWFwcy5wbGFjZXMudjEuUGxhY2VzLlNlYXJjaE5lYXJieRACGAQgAA,church;place_of_worship;association_or_organization;point_of_interest;establishment,church,Virachey area
ChIJ7915b-D_bDERn-TSq9LEK9I,ពួកជំនុំ ជីវិតព្រះយេស៊ូវ បរកែវ,cultural,church,Church,sightseeing,13.680451,107.2185987,"M6J9+5CQ, Bar Kaev, Cambodia",,,,OPERATIONAL,,https://maps.google.com/?cid=15144414581068326047&g_mp=Cilnb29nbGUubWFwcy5wbGFjZXMudjEuUGxhY2VzLlNlYXJjaE5lYXJieRACGAQgAA,church;place_of_worship;association_or_organization;point_of_interest;establishment,church,Virachey area
ChIJd_k37mf_bDER-pgTeXhs3UM,វិហារឥស្លាម,cultural,mosque,Mosque,sightseeing,13.6714843,107.2896084,"M7CQ+GP, Khmer​, Cambodia",4.6,5,,OPERATIONAL,,https://maps.google.com/?cid=4890184035077429498&g_mp=Cilnb29nbGUubWFwcy5wbGFjZXMudjEuUGxhY2VzLlNlYXJjaE5lYXJieRACGAQgAA,mosque;place_of_worship;association_or_organization;point_of_interest;establishment,mosque,Virachey area
ChIJY_ghBftTbDERPpm5UFK6Npw,Masjid Saom Trak,cultural,mosque,Mosque,sightseeing,13.7099054,107.4048751,"PC53+XX6, Saom Trak, Cambodia",5,1,,OPERATIONAL,,https://maps.google.com/?cid=11256389181363558718&g_mp=Cilnb29nbGUubWFwcy5wbGFjZXMudjEuUGxhY2VzLlNlYXJjaE5lYXJieRACGAQgAA,mosque;place_of_worship;association_or_organization;point_of_interest;establishment,mosque,Virachey area
ChIJNb5nVgBZbDERnAoM-RL1AuI,អណ្ដូងមាស,cultural,mosque,Mosque,sightseeing,13.854631999999999,107.3431286,"V83V+V72, Cambodia",,,,OPERATIONAL,,https://maps.google.com/?cid=16285848664361667228&g_mp=Cilnb29nbGUubWFwcy5wbGFjZXMudjEuUGxhY2VzLlNlYXJjaE5lYXJieRACGAQgAA,mosque;place_of_worship;association_or_organization;point_of_interest;establishment,mosque,Virachey area
ChIJ0TyObNv_bDERoOhPSXGErR8,Masjid nurul islam lom choar,cultural,mosque,Mosque,sightseeing,13.6707498,107.2892581,"NR78, Cambodia",,,,OPERATIONAL,,https://maps.google.com/?cid=2282626208242854048&g_mp=Cilnb29nbGUubWFwcy5wbGFjZXMudjEuUGxhY2VzLlNlYXJjaE5lYXJieRACGAQgAA,mosque;place_of_worship;association_or_organization;point_of_interest;establishment,mosque,Virachey area
ChIJ2SXtEABVbDER-oKAIMlKG2I,ម៉ាស្ជិឌ អាល់ មូបារឹក សោមគល់ Masjid Al Mubarak,cultural,mosque,Mosque,sightseeing,13.7323037,107.3803844,"P9JJ+V6, Samtung, Cambodia",,,,OPERATIONAL,,https://maps.google.com/?cid=7069326267782300410&g_mp=Cilnb29nbGUubWFwcy5wbGFjZXMudjEuUGxhY2VzLlNlYXJjaE5lYXJieRACGAQgAA,mosque;place_of_worship;association_or_organization;point_of_interest;establishment,mosque,Virachey area
ChIJeWTffgBVbDER5pR38KxXubs,مسجد المبارك سم كول,cultural,mosque,Mosque,sightseeing,13.7322324,107.38049720000001,"P9JJ+V6, Samtung, Cambodia",,,,OPERATIONAL,,https://maps.google.com/?cid=13526939356064355558&g_mp=Cilnb29nbGUubWFwcy5wbGFjZXMudjEuUGxhY2VzLlNlYXJjaE5lYXJieRACGAQgAA,mosque;place_of_worship;association_or_organization;point_of_interest;establishment,mosque,Virachey area
ChIJPQL8QgMBbTERwbH1QwNQAgo,តារាងបាល់ទាត់ក្រុមហ៊ុនចម្ការកៅស៊ូ តាកូរ៉េ,urban,stadium,Stadium,,13.6305699,107.2436991,"HW72+9P6, Phnomambodia, Cambodia",4,2,,OPERATIONAL,,https://maps.google.com/?cid=721226865287999937&g_mp=Cilnb29nbGUubWFwcy5wbGFjZXMudjEuUGxhY2VzLlNlYXJjaE5lYXJieRACGAQgAA,stadium;sports_complex;sports_activity_location;event_venue;point_of_interest;establishment,stadium,Virachey area
ChIJqXXdFwBnbDERx2yrodf6lEk,Sân vận động xã Ia Tơi,urban,stadium,Stadium,,14.043861399999999,107.4586362,"2FV5+GFR, Ia Toi, Quang Ngai, Vietnam",,,,OPERATIONAL,,https://maps.google.com/?cid=5302138465359195335&g_mp=Cilnb29nbGUubWFwcy5wbGFjZXMudjEuUGxhY2VzLlNlYXJjaE5lYXJieRACGAQgAA,stadium;sports_complex;sports_activity_location;event_venue;point_of_interest;establishment,stadium,Virachey area
ChIJT5Pn9U5dbDEROCzU-AOnaKE,Newstar,urban,bar,Bar,nightlife,14.010489,107.45993299999999,"Thôn 7, Xã Ia Tơi, Huyện Ia H'Drai, Ia Tơi, Quảng Ngãi, Vietnam",5,3,,OPERATIONAL,,https://maps.google.com/?cid=11630729673185700920&g_mp=Cilnb29nbGUubWFwcy5wbGFjZXMudjEuUGxhY2VzLlNlYXJjaE5lYXJieRACGAQgAA,karaoke;night_club;bar;point_of_interest;establishment,night_club,Virachey area
ChIJaf7pZ19dbDERpIHg_AGsPJM,Karaoke Bằng Lăng,urban,bar,Bar,nightlife,14.0099132,107.4601972,"2F56+X38, Ia Toi, Quang Ngai, Vietnam",3.8,9,,OPERATIONAL,,https://maps.google.com/?cid=10609543946715562404&g_mp=Cilnb29nbGUubWFwcy5wbGFjZXMudjEuUGxhY2VzLlNlYXJjaE5lYXJieRACGAQgAA,karaoke;night_club;bar;point_of_interest;establishment,night_club,Virachey area
ChIJbe22KQBlbDERgYXDtaO7aZs,KARAOKE WIN KISS,urban,night_club,Night Club,nightlife,14.1052632,107.4562977,"4F44+3GQ, QL14C, Ia Tơi, Quảng Ngãi, Vietnam",,,,OPERATIONAL,,https://maps.google.com/?cid=11198688260237002113&g_mp=Cilnb29nbGUubWFwcy5wbGFjZXMudjEuUGxhY2VzLlNlYXJjaE5lYXJieRACGAQgAA,night_club;point_of_interest;establishment,night_club,Virachey area
ChIJgXVVQADBbDEReBmvMtPT_VQ,មានលក់អីវ៉ាន់ចប់ហួយគ្រប់មុខ,urban,shopping_mall,Shopping Mall,shopping,14.0067825,106.91106599999999,"2W46+7Q, Kaoh Piek, Cambodia",,,,OPERATIONAL,,https://maps.google.com/?cid=6124283972335638904&g_mp=Cilnb29nbGUubWFwcy5wbGFjZXMudjEuUGxhY2VzLlNlYXJjaE5lYXJieRACGAQgAA,shopping_mall;point_of_interest;establishment,shopping_mall,Virachey area
