google_place_id,name,category,primary_type,primary_type_name,activities,lat,lon,address,rating,rating_count,price_level,business_status,website,google_maps_url,all_types,found_via_category,found_via_cell
ChIJO0c7MWxADDERRRedO4FVPnc,Phnom Srei,cultural,historical_landmark,Historical Landmark,,12.0301181,105.4218176,"2CJC+2PW, Kampong Siem District, Cambodia",4.2,273,,OPERATIONAL,,https://maps.google.com/?cid=8592399152608778053&g_mp=Cilnb29nbGUubWFwcy5wbGFjZXMudjEuUGxhY2VzLlNlYXJjaE5lYXJieRACGAQgAA,historical_landmark;tourist_attraction;historical_place;point_of_interest;establishment,tourist_attraction,Suong
ChIJ1ZV7Q1NrDDERKIK7FKES3ow,Kizuna Bridge Roundabout,attraction,tourist_attraction,Tourist Attraction,,11.987103099999999,105.4619426,"XFP6+RQM, Krong Kampong Cham, Cambodia",4.2,420,,OPERATIONAL,,https://maps.google.com/?cid=10150571093186544168&g_mp=Cilnb29nbGUubWFwcy5wbGFjZXMudjEuUGxhY2VzLlNlYXJjaE5lYXJieRACGAQgAA,tourist_attraction;point_of_interest;establishment,tourist_attraction,Suong
ChIJk3YpAp1qDDERkg_m07LH8tg,Nokor BaChey temple,cultural,buddhist_temple,Buddhist Temple,sightseeing,11.999970699999999,105.4391395,"Wat Nokor, Bachey, Kampong Siem District, Cambodia",4.4,568,,OPERATIONAL,,https://maps.google.com/?cid=15632776827429588882&g_mp=Cilnb29nbGUubWFwcy5wbGFjZXMudjEuUGxhY2VzLlNlYXJjaE5lYXJieRACGAQgAA,buddhist_temple;tourist_attraction;place_of_worship;association_or_organization;point_of_interest;establishment,tourist_attraction,Suong
ChIJlTGKNACdDDERQ3MtiYYBj9E,бһ‘бһёбһҸбһ¶бҹҶбһ„бһҖбһ¶бһҹбҹҠбһёбһҺбһјбһ“бһ·бһ„бһҹбҹҒбһҠбҹ’бһӢбһҖбһ·бһ…бҹ’бһ…7,attraction,tourist_attraction,Tourist Attraction,,11.6928629,105.9761214,"MXVG+4C, Cambodia",3.8,25,,OPERATIONAL,,https://maps.google.com/?cid=15100289752935265091&g_mp=Cilnb29nbGUubWFwcy5wbGFjZXMudjEuUGxhY2VzLlNlYXJjaE5lYXJieRACGAQgAA,tourist_attraction;point_of_interest;establishment,tourist_attraction,Suong
ChIJMXXWWwBtDDERSj7JH_g1FKk,бһҮбһёбһ бҹӮбһҡ,attraction,tourist_attraction,Tourist Attraction,,11.8876736,105.4305835,"VCQJ+368, Kaoh Soutin, Cambodia",4.2,28,,OPERATIONAL,,https://maps.google.com/?cid=12183422231745478218&g_mp=Cilnb29nbGUubWFwcy5wbGFjZXMudjEuUGxhY2VzLlNlYXJjaE5lYXJieRACGAQgAA,tourist_attraction;point_of_interest;establishment,tourist_attraction,Suong
ChIJNUdscSiTDDERwg7493xp4vY,Haong Waterfall,attraction,tourist_attraction,Tourist Attraction,,11.9577631,106.0190856,"X259+4J4, Phum Bang Hekley, Cambodia",4.2,97,,OPERATIONAL,,https://maps.google.com/?cid=17789897463523970754&g_mp=Cilnb29nbGUubWFwcy5wbGFjZXMudjEuUGxhY2VzLlNlYXJjaE5lYXJieRACGAQgAA,tourist_attraction;point_of_interest;establishment,tourist_attraction,Suong
ChIJB8RSwQJrDDERQrOgxwyz6n0,Independence Monument (Kampong Cham),cultural,historical_landmark,Historical Landmark,,11.9991463,105.45156039999999,"Number7old бһҖбҹҶбһ–бһ„бҹӢбһ…бһ¶бһҳ, Krong Kampong Cham 030403, Cambodia",4.4,39,,OPERATIONAL,,https://maps.google.com/?cid=9073261266761462594&g_mp=Cilnb29nbGUubWFwcy5wbGFjZXMudjEuUGxhY2VzLlNlYXJjaE5lYXJieRACGAQgAA,historical_landmark;tourist_attraction;historical_place;point_of_interest;establishment,tourist_attraction,Suong
ChIJ54CJRVdBDDERMt1ySxhV-0Q,Phnom Baley,attraction,tourist_attraction,Tourist Attraction,,12.035261799999999,105.4242642,"2CPF+4P, Kampong Siem District, Cambodia",4.8,10,,OPERATIONAL,,https://maps.google.com/?cid=4970660176566869298&g_mp=Cilnb29nbGUubWFwcy5wbGFjZXMudjEuUGxhY2VzLlNlYXJjaE5lYXJieRACGAQgAA,tourist_attraction;point_of_interest;establishment,tourist_attraction,Suong
ChIJK4IJOHJADDERutyr2n5zfBc,Phnom Bros Library,attraction,tourist_attraction,Tourist Attraction,,12.030605,105.4176256,"NR7, Cambodia",4.2,350,,OPERATIONAL,,https://maps.google.com/?cid=1692354548656233658&g_mp=Cilnb29nbGUubWFwcy5wbGFjZXMudjEuUGxhY2VzLlNlYXJjaE5lYXJieRACGAQgAA,tourist_attraction;point_of_interest;establishment,tourist_attraction,Suong
ChIJpz5y0jo_DDERTyVbaSjaCj4,бһҡбһҳбһҺбһёбһҷбһҠбҹ’бһӢбһ¶бһ“бһ”бһ№бһ„бһ’бҹҶ,attraction,tourist_attraction,Tourist Attraction,,12.014588999999999,105.354016,"2973+RJ, Traeung, Cambodia",4,23,,OPERATIONAL,,https://maps.google.com/?cid=4470625447219766607&g_mp=Cilnb29nbGUubWFwcy5wbGFjZXMudjEuUGxhY2VzLlNlYXJjaE5lYXJieRACGAQgAA,tourist_attraction;point_of_interest;establishment,tourist_attraction,Suong
ChIJY5uVVgBhDDERiDcGo88V19M,бһҡбһ„бҹ’бһңбһ„бҹӢбһҳбһјбһӣбһҹбһ¶бһӣбһ¶бһҒбҹҒбһҸбҹ’бһҸбһҸбҹ’бһ”бһјбһ„бһғбҹ’бһҳбһ»бҹҶ,attraction,tourist_attraction,Tourist Attraction,,11.8961885,105.7813572,"VQWJ+FGH, Cambodia",3.5,4,,OPERATIONAL,,https://maps.google.com/?cid=15264693443533092744&g_mp=Cilnb29nbGUubWFwcy5wbGFjZXMudjEuUGxhY2VzLlNlYXJjaE5lYXJieRACGAQgAA,tourist_attraction;point_of_interest;establishment,tourist_attraction,Suong
ChIJIzM91yWJCzERzQOmvG9mRU0,бһ”бһ№бһ„бһҖбһҖбҹӢ,attraction,tourist_attraction,Tourist Attraction,,11.571284,105.54787019999999,"HGCX+G49, Chrey, Cambodia",4.3,18,,OPERATIONAL,,https://maps.google.com/?cid=5567969144405885901&g_mp=Cilnb29nbGUubWFwcy5wbGFjZXMudjEuUGxhY2VzLlNlYXJjaE5lYXJieRACGAQgAA,tourist_attraction;point_of_interest;establishment,tourist_attraction,Suong
ChIJ5UZHwUJ9DDERQdb7eENmaEM,бһ‘бһ№бһҖбһ”бһ¶бһҖбҹӢбһўбһ¶бһҷ,attraction,tourist_attraction,Tourist Attraction,,11.7837078,105.78134399999999,"QQMJ+FG, Kandaol Chrum, Cambodia",4.5,6,,OPERATIONAL,,https://maps.google.com/?cid=4857244638097692225&g_mp=Cilnb29nbGUubWFwcy5wbGFjZXMudjEuUGxhY2VzLlNlYXJjaE5lYXJieRACGAQgAA,tourist_attraction;point_of_interest;establishment,tourist_attraction,Suong
ChIJseq7LAB9CzERKFg25b64CwA,"VЖ°б»қn Di sбәЈn ASEAN, VЖ°б»қn quб»‘c gia LГІ GГІ-Xa MГЎt - Trung tГўm Du lб»Ӣch sinh thГЎi ДҗaHa",attraction,tourist_attraction,Tourist Attraction,,11.5872584,105.88870519999999,"HVPQ+WF5, TГ  Xia -TГўn PhГә, TГўn BiГӘn, TГўy Ninh, Vietnam",4.7,27,,OPERATIONAL,https://www.facebook.com/profile.php?id=100083437922724,https://maps.google.com/?cid=3299354772658216&g_mp=Cilnb29nbGUubWFwcy5wbGFjZXMudjEuUGxhY2VzLlNlYXJjaE5lYXJieRACGAQgAA,tourist_attraction;point_of_interest;establishment,tourist_attraction,Suong
ChIJC5Hd_IZBDDERGRtj4T1CvSc,Cheung Kok Ecotourism Village,attraction,tourist_attraction,Tourist Attraction,,12.0176155,105.4076351,"Cheung Kok Village, 2C95+23R, Cambodia",4.6,77,,OPERATIONAL,,https://maps.google.com/?cid=2863517771619310361&g_mp=Cilnb29nbGUubWFwcy5wbGFjZXMudjEuUGxhY2VzLlNlYXJjaE5lYXJieRACGAQgAA,tourist_attraction;point_of_interest;establishment,tourist_attraction,Suong
ChIJoZ6mor9tDDERfTp9ko-KwBI,Preah Theat Ba Srei Temple,cultural,hindu_temple,Hindu Temple,sightseeing,11.8474798,105.4756218,"RFWG+X6X, Tonle Bet, Cambodia",3.8,9,,OPERATIONAL,,https://maps.google.com/?cid=1351232237453785725&g_mp=Cilnb29nbGUubWFwcy5wbGFjZXMudjEuUGxhY2VzLlNlYXJjaE5lYXJieRACGAQgAA,hindu_temple;tourist_attraction;place_of_worship;association_or_organization;point_of_interest;establishment,tourist_attraction,Suong
ChIJtbm_yIRpDDERN32BpW8FUMs,бһҖбһ“бҹ’бһӣбҹӮбһ„бһӣбҹ’бһўбһҹбҹҶбһҡбһ¶бһ”бҹӢбһҹбҹ’бһ‘бһјбһ…бһҸбҹ’бһҡбһё бһўбһ„бҹ’бһӮбһ»бһҷбһўбһ¶бҹҶбһ„бһҹбһ¶бһ…бҹӢ,attraction,tourist_attraction,Tourist Attraction,,11.962910899999999,105.5255273,"XG7F+XH, Tonle Bet, Cambodia",4.4,11,,OPERATIONAL,,https://maps.google.com/?cid=14650215564912459063&g_mp=Cilnb29nbGUubWFwcy5wbGFjZXMudjEuUGxhY2VzLlNlYXJjaE5lYXJieRACGAQgAA,tourist_attraction;point_of_interest;establishment,tourist_attraction,Suong
ChIJr5P0yr9tDDERYkYbuIxNpuE,Wat Preah theat,attraction,place_of_worship,Place of Worship,,11.846748999999999,105.474329,"RFWF+MPW, Cambodia",4.6,20,,OPERATIONAL,,https://maps.google.com/?cid=16259768771447309922&g_mp=Cilnb29nbGUubWFwcy5wbGFjZXMudjEuUGxhY2VzLlNlYXJjaE5lYXJieRACGAQgAA,tourist_attraction;place_of_worship;association_or_organization;point_of_interest;establishment,tourist_attraction,Suong
ChIJST51shZnDDERI3xUoV3eJfA,Suong Elephant Statue,attraction,tourist_attraction,Tourist Attraction,,11.911462,105.652006,"WM62+HVW, Suong, Cambodia",3.6,9,,OPERATIONAL,,https://maps.google.com/?cid=17304481636960992291&g_mp=Cilnb29nbGUubWFwcy5wbGFjZXMudjEuUGxhY2VzLlNlYXJjaE5lYXJieRACGAQgAA,tourist_attraction;point_of_interest;establishment,tourist_attraction,Suong
ChIJG_7NfIOZDDERHKGuFuoyXa0,Border Post CambodiaвҖ“Viб»Үt Nam 106,attraction,tourist_attraction,Tourist Attraction,,11.7425675,106.1161327,"P4V8+2FC, ДҗT792, Triek, TГўn ChГўu, TГўy Ninh, Vietnam",4.7,7,,OPERATIONAL,,https://maps.google.com/?cid=12492196922379903260&g_mp=Cilnb29nbGUubWFwcy5wbGFjZXMudjEuUGxhY2VzLlNlYXJjaE5lYXJieRACGAQgAA,tourist_attraction;point_of_interest;establishment,tourist_attraction,Suong
ChIJA9rww2-ZDDER7GTx37xHxpQ,Khu Di tГӯch CДғn cб»© Trung Ж°ЖЎng Cб»Ҙc miб»Ғn Nam,cultural,museum,Museum,sightseeing,11.7338518,106.07668849999999,"P3MG+GMW, Tan Lap, Tay Ninh, Vietnam",4.5,845,,OPERATIONAL,https://www.facebook.com/trunguongcucmiennam/,https://maps.google.com/?cid=10720334839538607340&g_mp=Cilnb29nbGUubWFwcy5wbGFjZXMudjEuUGxhY2VzLlNlYXJjaE5lYXJieRACGAQgAA,museum;point_of_interest;establishment,museum,Suong
ChIJyXpINsBiCzERQJSdoFSFmSA,VЖ°б»қn quб»‘c gia LГІ GГІ Xa MГЎt,cultural,museum,Museum,sightseeing,11.5932716,105.9921227,"HXVR+8R5, Tan Lap, Tay Ninh, Vietnam",4.4,131,,OPERATIONAL,,https://maps.google.com/?cid=2349055279168853056&g_mp=Cilnb29nbGUubWFwcy5wbGFjZXMudjEuUGxhY2VzLlNlYXJjaE5lYXJieRACGAQgAA,museum;point_of_interest;establishment,museum,Suong
ChIJsaQlMqyPCzER2p7nzC_t5ZY,бһ—бһјбһҳбһ·бһҳбһјбһӣ(бһ”бһ»бһҡбҹҒбһ”бҹ’бһҡбһңбһҸбҹ’бһҸбһ·бһҹбһ¶бһҹбҹ’бһҸбҹ’бһҡ),cultural,museum,Museum,sightseeing,11.491486199999999,105.51583219999999,"FGR8+H8, Khai Khvet, Cambodia",4.8,8,,OPERATIONAL,,https://maps.google.com/?cid=10873357664912907994&g_mp=Cilnb29nbGUubWFwcy5wbGFjZXMudjEuUGxhY2VzLlNlYXJjaE5lYXJieRACGAQgAA,museum;point_of_interest;establishment,museum,Suong
ChIJs92fNpWbDDERxsTjpiAQhfU,BбәЈo TГ ng CДғn Cб»© Mбә·t Trбәӯn DГўn Tб»ҷc GiбәЈi PhГіng Miб»Ғn Nam,cultural,museum,Museum,sightseeing,11.723475899999999,106.0401368,"P2FR+93R, Tan Lap, Tay Ninh, Vietnam",4.7,12,,OPERATIONAL,,https://maps.google.com/?cid=17691564443619804358&g_mp=Cilnb29nbGUubWFwcy5wbGFjZXMudjEuUGxhY2VzLlNlYXJjaE5lYXJieRACGAQgAA,museum;point_of_interest;establishment,museum,Suong
ChIJd5pV50xDDDERt8-5T4dOv-8,бһҖбҹ„бҹҮвҖӢбһҹбҹҶбһҡбҹ„бһ„вҖӢ,cultural,museum,Museum,sightseeing,12.0632386,105.51756259999999,"3G79+72W, Cambodia",1,1,,OPERATIONAL,,https://maps.google.com/?cid=17275613038681640887&g_mp=Cilnb29nbGUubWFwcy5wbGFjZXMudjEuUGxhY2VzLlNlYXJjaE5lYXJieRACGAQgAA,museum;point_of_interest;establishment,museum,Suong
ChIJXXB5ZB97CzERYcl-6XBBBfc,Khu lЖ°u niб»Үm TrЖ°б»қng SД© Quan Lб»Ҙc QuГўn 2,cultural,museum,Museum,sightseeing,11.5019309,105.8962542,"GV2W+QGC, Unnamed, Road, PhЖ°б»ӣc Vinh, TГўy Ninh, Vietnam",5,5,,OPERATIONAL,,https://maps.google.com/?cid=17799705055461296481&g_mp=Cilnb29nbGUubWFwcy5wbGFjZXMudjEuUGxhY2VzLlNlYXJjaE5lYXJieRACGAQgAA,museum;point_of_interest;establishment,museum,Suong
ChIJEY6OMXqZDDERcRwV_Q0halo,Bб»©c tranh HoГ nh trГЎng,cultural,museum,Museum,sightseeing,11.732935,106.0765089,"P3MG+5JC, Tan Lap, Tay Ninh, Vietnam",5,9,,OPERATIONAL,,https://maps.google.com/?cid=6515056154909154417&g_mp=Cilnb29nbGUubWFwcy5wbGFjZXMudjEuUGxhY2VzLlNlYXJjaE5lYXJieRACGAQgAA,museum;point_of_interest;establishment,museum,Suong
ChIJIVj2ZXhlDDERPSfKBcTZBOc,бһңбһҸбһңбһ·бһҮбһҷбһҡбһ„бҹ’бһҹбһё,cultural,museum,Museum,sightseeing,11.835260300000002,105.6838238,"RMPM+4G4, Cambodia",,,,OPERATIONAL,,https://maps.google.com/?cid=16646669558602147645&g_mp=Cilnb29nbGUubWFwcy5wbGFjZXMudjEuUGxhY2VzLlNlYXJjaE5lYXJieRACGAQgAA,museum;point_of_interest;establishment,museum,Suong
ChIJ23XxhnmdDDERRlK8fNy23sY,NhГ  Bia Di tГӯch lб»Ӣch sб»ӯ Hб»ҷi NГҙng dГўn giбәЈi phГіng Miб»Ғn Nam,cultural,museum,Museum,sightseeing,11.7038012,106.0056395,"P234+G7C, Tan Lap, Tay Ninh, Vietnam",4.7,3,,OPERATIONAL,,https://maps.google.com/?cid=14330092122441273926&g_mp=Cilnb29nbGUubWFwcy5wbGFjZXMudjEuUGxhY2VzLlNlYXJjaE5lYXJieRACGAQgAA,museum;point_of_interest;establishment,museum,Suong
ChIJN83SId5rDDERrBOKLDnk9JM,бһўбһ¶бһӮбһ¶бһҡбһҹбһ¶бһҡбһҳбһ“бҹ’бһ‘бһёбһҡбһҒбҹ’бһҳбҹӮбһҡбһҖбҹ’бһҡбһ бһҳ,cultural,museum,Museum,sightseeing,11.9962702,105.45070539999999,"XFW2+8CQ, бһ•бҹ’бһӣбһјбһңвҖӢбһҮбһ¶бһҸбһ·бһӣбҹҒбһҒвҖӢбҹ§вҖӢбһ…бһ¶бһҹбҹӢ, Krong Kampong Cham, Cambodia",2,1,,OPERATIONAL,,https://maps.google.com/?cid=10661397152104321964&g_mp=Cilnb29nbGUubWFwcy5wbGFjZXMudjEuUGxhY2VzLlNlYXJjaE5lYXJieRACGAQgAA,museum;point_of_interest;establishment,museum,Suong
ChIJVRIRBe1jDDER5HDVkgxV9yk,бһҳбһ“бҹ’бһ‘бһёбһҡбһңбһ”бҹ’бһ”бһ’бһҳбҹҢбһ“бһ·бһ„бһңбһ·бһ…бһ·бһҸбҹ’бһҡбһҹбһ·бһӣбҹ’бһ”бҹҲбһҒбҹҒбһҸбҹ’бһҸбһҸбҹ’бһ”бһјбһ„бһғбҹ’бһҳбһ»бҹҶ,cultural,museum,Museum,sightseeing,11.897052200000001,105.7858294,"бһ‘бһёбһҡбһҪбһҳбһҒбҹҒбһҸбҹ’бһҸбһҸбҹ’бһ”бһјбһ„бһғбҹ’бһҳбһ»бҹҶ, 250612, Cambodia",1,1,,OPERATIONAL,https://sokkheang_2d.artstation.com/,https://maps.google.com/?cid=3023979187294007524&g_mp=Cilnb29nbGUubWFwcy5wbGFjZXMudjEuUGxhY2VzLlNlYXJjaE5lYXJieRACGAQgAA,museum;point_of_interest;establishment,museum,Suong
ChIJAfWPxweHDDER3iE3UJl-Wss,Sinang Salon,cultural,museum,Museum,sightseeing,11.7992496,105.8756446,"QVXG+M7R, NR7, Ponhea Kraek District, Cambodia",3.8,4,,OPERATIONAL,http://www.facebook.com/sokvanndet,https://maps.google.com/?cid=14653163534544216542&g_mp=Cilnb29nbGUubWFwcy5wbGFjZXMudjEuUGxhY2VzLlNlYXJjaE5lYXJieRACGAQgAA,museum;point_of_interest;establishment,museum,Suong
ChIJMT3Yqd-dDDERWf-AlMbOqWo,NhГ  Bia LiГӘn hiб»Үp CГҙng Д‘oГ n giбәЈi phГіng Miб»Ғn Nam,cultural,museum,Museum,sightseeing,11.6861774,106.00072929999999,"M2P2+F7H, Tan Lap, Tay Ninh, Vietnam",4.8,4,,OPERATIONAL,,https://maps.google.com/?cid=7685901591374790489&g_mp=Cilnb29nbGUubWFwcy5wbGFjZXMudjEuUGxhY2VzLlNlYXJjaE5lYXJieRACGAQgAA,museum;point_of_interest;establishment,museum,Suong
ChIJSRA18lWJDDERr5gDPB5zHqo,NAT,cultural,museum,Museum,sightseeing,11.8891023,105.876004,"VVQG+JCR, Dambae District, Cambodia",,,,OPERATIONAL,,https://maps.google.com/?cid=12258361809442150575&g_mp=Cilnb29nbGUubWFwcy5wbGFjZXMudjEuUGxhY2VzLlNlYXJjaE5lYXJieRACGAQgAA,museum;point_of_interest;establishment,museum,Suong
ChIJY9Z3reBxDDERmKVOo56Yu84,бһ‘бһёбһӣбһ¶бһ“бһ”бһ¶бһӣбҹӢбһ‘бһ¶бһҸбҹӢбһ бҹ’бһңбһјбһҸбһҹбһ¶бһӣбһ–бҹ’бһҡбҹғбһ–бҹ’бһҡбҹҮбһ’бһ¶бһҸбһ»,cultural,museum,Museum,sightseeing,11.764507499999999,105.5850653,"QH7P+R2, Phum Cha, Cambodia",,,,CLOSED_TEMPORARILY,,https://maps.google.com/?cid=14896667999570142616&g_mp=Cilnb29nbGUubWFwcy5wbGFjZXMudjEuUGxhY2VzLlNlYXJjaE5lYXJieRACGAQgAA,museum;point_of_interest;establishment,museum,Suong
ChIJGVZOYACLDDERky0c_nk6Esk,бһӮбҹ„бһӣбһҖбһҺбҹ’бһҸбһ¶бһӣ,cultural,museum,Museum,sightseeing,11.9524756,105.8285197,"XR2H+XC, Dambae District, Cambodia",,,,OPERATIONAL,,https://maps.google.com/?cid=14488707246833020307&g_mp=Cilnb29nbGUubWFwcy5wbGFjZXMudjEuUGxhY2VzLlNlYXJjaE5lYXJieRACGAQgAA,museum;point_of_interest;establishment,museum,Suong
ChIJqcZTRh19DDERgE5FtElRaV0,soklay,cultural,museum,Museum,sightseeing,11.7266691,105.7797025,"PQGH+MV, Kandaol Chrum, Cambodia",,,,OPERATIONAL,,https://maps.google.com/?cid=6731000495080820352&g_mp=Cilnb29nbGUubWFwcy5wbGFjZXMudjEuUGxhY2VzLlNlYXJjaE5lYXJieRACGAQgAA,museum;point_of_interest;establishment,museum,Suong
ChIJAWZiaQBxDDERbBUKPwTnTg4,бһўбһҺбҹ’бһҠбһјбһ„бһ‘бһ№бһҖбһ”бһ»бһҡбһ¶бһҺбһ–бһ–бһёбһҡ бһўбҹ’бһ“бһҖбһ”бҹ’бһҡбһҫбһ—бһјбһҳбһ·бһӣбҹҒбһҒбҹўбһ“бһ·бһ„бһ—бһјбһҳбһ·бһҗбҹ’бһҳбһё,cultural,museum,Museum,sightseeing,11.788930899999999,105.50255419999999,"QGQ3+H2F, Ou Reang Ov District, Cambodia",,,,OPERATIONAL,,https://maps.google.com/?cid=1031015370137933164&g_mp=Cilnb29nbGUubWFwcy5wbGFjZXMudjEuUGxhY2VzLlNlYXJjaE5lYXJieRACGAQgAA,museum;point_of_interest;establishment,museum,Suong
ChIJZUJXHwCPDDER0LQ0s6YRiJc,бһ”бһ“бҹ’бһ‘бһ¶бһҷбһҳбһјбһӣ бһҖбҹ’бһҡбҹӮбһҖ,cultural,museum,Museum,sightseeing,11.8351667,105.9265343,"RWPG+3J, District, Cambodia",5,1,,OPERATIONAL,,https://maps.google.com/?cid=10918996704228586704&g_mp=Cilnb29nbGUubWFwcy5wbGFjZXMudjEuUGxhY2VzLlNlYXJjaE5lYXJieRACGAQgAA,museum;point_of_interest;establishment,museum,Suong
ChIJUyeRcAB3DDERlzItZNwC2zY,бһҠбһёбһҖбһҹбһ·бһҖбһҳбҹ’бһҳ,cultural,museum,Museum,sightseeing,11.6986498,105.51311510000001,"MGX7+F6, Kanhchriech District, Cambodia",,,,OPERATIONAL,,https://maps.google.com/?cid=3952756243544486551&g_mp=Cilnb29nbGUubWFwcy5wbGFjZXMudjEuUGxhY2VzLlNlYXJjaE5lYXJieRACGAQgAA,museum;point_of_interest;establishment,museum,Suong
ChIJ-0nsF5lnDDERmaZ2eKj65vE,бһҖбҹ’бһҡбһ»бһ„бһҹбһҪбһ„,cultural,historical_landmark,Historical Landmark,,11.9114752,105.65195659999999,"WM62+HQW, Suong, Cambodia",4.3,76,,OPERATIONAL,,https://maps.google.com/?cid=17430895009266575001&g_mp=Cilnb29nbGUubWFwcy5wbGFjZXMudjEuUGxhY2VzLlNlYXJjaE5lYXJieRACGAQgAA,historical_landmark;historical_place;point_of_interest;establishment,historical_landmark,Suong
ChIJOW9DWQCdDDERbbWJwqN_2Vs,Di tГӯch lб»Ӣch sб»ӯ Quб»‘c gia: Ban DГўn y Trung Ж°ЖЎng Cб»Ҙc Miб»Ғn Nam,cultural,historical_landmark,Historical Landmark,,11.6868347,105.99977299999999,"M2P2+F7H, Tan Lap, Tay Ninh, Vietnam",4.6,11,,OPERATIONAL,,https://maps.google.com/?cid=6618461468717856109&g_mp=Cilnb29nbGUubWFwcy5wbGFjZXMudjEuUGxhY2VzLlNlYXJjaE5lYXJieRACGAQgAA,historical_landmark;historical_place;point_of_interest;establishment,historical_landmark,Suong
ChIJ5Xsmp3GdDDERdfp5wHYd_w0,Border Post CambodiaвҖ“Viet Nam 118,cultural,historical_landmark,Historical Landmark,,11.667881,105.9812182,"72 C, TГўn Lбәӯp, Vietnam",4.4,9,,OPERATIONAL,,https://maps.google.com/?cid=1008557237426846325&g_mp=Cilnb29nbGUubWFwcy5wbGFjZXMudjEuUGxhY2VzLlNlYXJjaE5lYXJieRACGAQgAA,historical_landmark;historical_place;point_of_interest;establishment,historical_landmark,Suong
ChIJjzesccWdDDERyKEAuXNmhyA,Di tГӯch cДғn cб»© Ban an ninh Trung Ж°ЖЎng cб»Ҙc Miб»Ғn Nam,cultural,historical_landmark,Historical Landmark,,11.682171499999999,105.99994459999999,"MXJX+VX8, ДҗT792, TГўn Lбәӯp, TГўy Ninh, Vietnam",4.9,8,,OPERATIONAL,,https://maps.google.com/?cid=2343954778280731080&g_mp=Cilnb29nbGUubWFwcy5wbGFjZXMudjEuUGxhY2VzLlNlYXJjaE5lYXJieRACGAQgAA,historical_landmark;historical_place;point_of_interest;establishment,historical_landmark,Suong
ChIJLxkZzaNiDDERrxgFuJp_S98,Luong Preah Sdach Kan,cultural,historical_landmark,Historical Landmark,,11.7975067,105.74765149999999,"QPXX+232, Kandaol Chrum, Cambodia",4.4,20,,OPERATIONAL,,https://maps.google.com/?cid=16090094396200261807&g_mp=Cilnb29nbGUubWFwcy5wbGFjZXMudjEuUGxhY2VzLlNlYXJjaE5lYXJieRACGAQgAA,historical_landmark;historical_place;point_of_interest;establishment,historical_landmark,Suong
ChIJ_bh1EnmDCzERRhxgq2UoW8U,бһ…бһҳбҹ’бһҖбһ¶бһҡ бһҠбһјбһ„ C.C.C,cultural,historical_landmark,Historical Landmark,,11.5355397,105.7245221,"GPPF+6R, Cambodia",3.5,2,,OPERATIONAL,,https://maps.google.com/?cid=14221004665484483654&g_mp=Cilnb29nbGUubWFwcy5wbGFjZXMudjEuUGxhY2VzLlNlYXJjaE5lYXJieRACGAQgAA,historical_landmark;historical_place;point_of_interest;establishment,historical_landmark,Suong
ChIJ3WyPWAtrDDERZXEyQxeWsxw,Statues of Kampong Cham,cultural,historical_landmark,Historical Landmark,,11.9906683,105.4674173,"XFR8+7X7, Krong Kampong Cham, Cambodia",4,12,,OPERATIONAL,,https://maps.google.com/?cid=2068161680548983141&g_mp=Cilnb29nbGUubWFwcy5wbGFjZXMudjEuUGxhY2VzLlNlYXJjaE5lYXJieRACGAQgAA,historical_landmark;historical_place;point_of_interest;establishment,historical_landmark,Suong
ChIJj5qc62xqDDERD2KO5pNKDE0,Tour des FranГ§ais,cultural,historical_landmark,Historical Landmark,,11.9855787,105.4754234,"XFPG+65M, Tonle Bet, Cambodia",4.1,114,,OPERATIONAL,,https://maps.google.com/?cid=5551894439729717775&g_mp=Cilnb29nbGUubWFwcy5wbGFjZXMudjEuUGxhY2VzLlNlYXJjaE5lYXJieRACGAQgAA,historical_landmark;historical_place;point_of_interest;establishment,historical_landmark,Suong
ChIJCeYhxTF9CzERwrJ0MzHo8RM,Khu di tГӯch ChГӯnh phб»§ cГЎch mбәЎng lГўm thб»қi miб»Ғn Nam Viб»Үt Nam,cultural,historical_landmark,Historical Landmark,,11.6179955,105.95044720000001,"Unnamed Road, JX92+55W, TГўn Lбәӯp, TГўy Ninh, Vietnam",4.7,23,,OPERATIONAL,,https://maps.google.com/?cid=1437185054122226370&g_mp=Cilnb29nbGUubWFwcy5wbGFjZXMudjEuUGxhY2VzLlNlYXJjaE5lYXJieRACGAQgAA,historical_landmark;historical_place;point_of_interest;establishment,historical_landmark,Suong
ChIJI1eABjVpDDERjiZ7kneX9yo,бһ—бһјбһҳбһ·бһҹбҹ’бһҡбҹӮбһҹбҹҖбһҳ,cultural,historical_landmark,Historical Landmark,,11.9424361,105.54597179999999,"Srae Seam, Cambodia",4.6,5,,OPERATIONAL,,https://maps.google.com/?cid=3096109808654952078&g_mp=Cilnb29nbGUubWFwcy5wbGFjZXMudjEuUGxhY2VzLlNlYXJjaE5lYXJieRACGAQgAA,historical_landmark;historical_place;point_of_interest;establishment,historical_landmark,Suong
ChIJWXC6-kRTDDERX2jF8RPRA_Q,бһ—бҹ’бһ“бҹҶбһ–бҹ’бһҡбҹӮбһҖбһҹбһ„бҹ’бһҖбҹӮ бһғбһ»бҹҶбһ–бһ¶бһҳбһҖбҹ„бҹҮбһҹбҹ’бһ“бһ¶ бһҹбҹ’бһҡбһ»бһҖбһҹбҹ’бһ‘бһ№бһ„бһҸбҹ’бһҡбһ„бҹӢ,cultural,historical_landmark,Historical Landmark,,12.318081,105.6070008,"8J94+6R, Phum Koh Kandal, Cambodia",4,11,,OPERATIONAL,,https://maps.google.com/?cid=17583127253775378527&g_mp=Cilnb29nbGUubWFwcy5wbGFjZXMudjEuUGxhY2VzLlNlYXJjaE5lYXJieRACGAQgAA,historical_landmark;historical_place;point_of_interest;establishment,historical_landmark,Suong
ChIJBcctegBFDDEREAjUGp1JpvE,бһңбһҸбҹ’бһҸбһ—бҹ’бһ“бҹҶбһҮбҹҗбһҷбһӮбһ·бһҡбһёвҖӢ бһ—бҹ’бһ“бҹҶбһ бһ¶бһ“бһҮбҹҗбһҷвҖӢ бһҒбҹҒбһҸбҹ’бһҸбһҖбҹҶбһ–бһ„бҹӢбһ…бһ¶бһҳ,cultural,historical_landmark,Historical Landmark,,12.164518,105.52751800000001,"5G7H+R2, Stueng Trang District, Cambodia",4.5,4,,OPERATIONAL,,https://maps.google.com/?cid=17412685948383397904&g_mp=Cilnb29nbGUubWFwcy5wbGFjZXMudjEuUGxhY2VzLlNlYXJjaE5lYXJieRACGAQgAA,historical_landmark;historical_place;point_of_interest;establishment,historical_landmark,Suong
ChIJiybOyaBFDDERV1-LD8Ague0,Statue of Naga,cultural,historical_landmark,Historical Landmark,,12.142266500000002,105.5481233,"4GRX+V7, Peam Chileang, Cambodia",5,9,,OPERATIONAL,,https://maps.google.com/?cid=17129758666946994007&g_mp=Cilnb29nbGUubWFwcy5wbGFjZXMudjEuUGxhY2VzLlNlYXJjaE5lYXJieRACGAQgAA,historical_landmark;historical_place;point_of_interest;establishment,historical_landmark,Suong
ChIJz7Rs2919DDER9WE5gZPVXrI,бһ—бһјбһҳбһ·бһҡбһҫбһӣбһӣбһҫ,cultural,historical_landmark,Historical Landmark,,11.7470913,105.72840409999999,"Rerller, PPWH+R9J, Cambodia",4.4,7,,OPERATIONAL,,https://maps.google.com/?cid=12852945216066904565&g_mp=Cilnb29nbGUubWFwcy5wbGFjZXMudjEuUGxhY2VzLlNlYXJjaE5lYXJieRACGAQgAA,historical_landmark;historical_place;point_of_interest;establishment,historical_landmark,Suong
ChIJIzzmpIt1DDERer4OXSbvkKk,бһ—бһјбһҳбһ·бһ…бһ¶бһҡбһҮбҹ’бһҡбһ»бҹҶ,cultural,historical_landmark,Historical Landmark,,11.6866644,105.4830965,"MFPM+M69, Cambodia",4.3,3,,OPERATIONAL,,https://maps.google.com/?cid=12218528737105198714&g_mp=Cilnb29nbGUubWFwcy5wbGFjZXMudjEuUGxhY2VzLlNlYXJjaE5lYXJieRACGAQgAA,historical_landmark;historical_place;point_of_interest;establishment,historical_landmark,Suong
ChIJ3cr-94h9DDERLH_Se1_kTTs,бһ—бһјбһҳбһ·бһ–бҹ’бһҡбҹғбһ‘бҹҶбһ“бһ”бҹӢбһ•бҹ’бһ‘бҹҮбһҸбһ¶бһҷбһ¶бһҸ,cultural,historical_landmark,Historical Landmark,,11.741436499999999,105.75872299999999,"PQR5+HFH, Cambodia",4,3,,OPERATIONAL,,https://maps.google.com/?cid=4273322720194887468&g_mp=Cilnb29nbGUubWFwcy5wbGFjZXMudjEuUGxhY2VzLlNlYXJjaE5lYXJieRACGAQgAA,historical_landmark;historical_place;point_of_interest;establishment,historical_landmark,Suong
ChIJ9-G_nehnDDERB6UUBAUd_Ag,бһ—бһјбһҳбһ· бһҮбһёбһҖбҹӮ,cultural,historical_landmark,Historical Landmark,,11.912262499999999,105.66908790000001,"WM69+WJ4 бһ—бһјбһҳбһ·бһҮбһёбһҖбҹӮ бһҹбһ„бҹ’бһҖбһ¶бһҸбҹӢбһңбһ·бһ бҹҠбһ¶бһӣбһҪбһ„, бһҖбҹ’бһҡбһ»бһ„бһҹбһҪбһ„, Cambodia",4,8,,OPERATIONAL,,https://maps.google.com/?cid=647424353815012615&g_mp=Cilnb29nbGUubWFwcy5wbGFjZXMudjEuUGxhY2VzLlNlYXJjaE5lYXJieRACGAQgAA,historical_landmark;historical_place;point_of_interest;establishment,historical_landmark,Suong
ChIJY9ptGQBBDDERnGnZakyXCHc,бһҹбһ¶бһ“бһё (бһ–бҹ’бһҡбһӣбһ¶бһ“бһҷбһ“бҹ’бһҸбһ бҹ„бҹҮбһҖбҹҶбһ–бһ„бҹӢбһ…бһ¶бһҳ),cultural,historical_landmark,Historical Landmark,,12.027283700000002,105.43605819999999,"2CPW+HF, Krong Kampong Cham, Cambodia",1,1,,OPERATIONAL,,https://maps.google.com/?cid=8577271844793051548&g_mp=Cilnb29nbGUubWFwcy5wbGFjZXMudjEuUGxhY2VzLlNlYXJjaE5lYXJieRACGAQgAA,historical_landmark;historical_place;point_of_interest;establishment,historical_landmark,Suong
ChIJc7YtRwCFDDERtuX19Kb6YQs,бһ–бһүбһ¶бһҖбҹ’бһҡбҹӮбһҖ,nature,park,Park,walking,11.7973571,105.8750919,"QVWG+W2W, Ponhea Kraek District, Cambodia",4.3,11,,OPERATIONAL,,https://maps.google.com/?cid=820212202139411894&g_mp=Cilnb29nbGUubWFwcy5wbGFjZXMudjEuUGxhY2VzLlNlYXJjaE5lYXJieRACGAQgAA,park;point_of_interest;establishment,park,Suong
ChIJJ4d330t_CzERUc_svwXHrbE,бһҖбҹ’бһҡбһ»бһ„бһҳбһ»бһәбһ“бһҮбҹҗбһҷ бһҒбҹҒбһҸбҹ’бһҸбһ–бҹ’бһҡбҹғбһңбҹӮбһ„,nature,park,Park,walking,11.599290199999999,105.8065575,"HRX4+PJ7, Cambodia",5,6,,OPERATIONAL,,https://maps.google.com/?cid=12803108143192919889&g_mp=Cilnb29nbGUubWFwcy5wbGFjZXMudjEuUGxhY2VzLlNlYXJjaE5lYXJieRACGAQgAA,park;point_of_interest;establishment,park,Suong
ChIJixiRdSJrDDERWpO3G_9b2Dw,бһ…бһҳбҹ’бһҖбһ¶бһҡбһӮбһҡ бһҶбҹ’бһ“бҹҒбһҡбһ‘бһ“бҹ’бһӣбҹҒ,nature,park,Park,walking,11.9536508,105.4308571,"XC3J+F8, Krong Kampong Cham, Cambodia",4.5,6,,OPERATIONAL,,https://maps.google.com/?cid=4384355388484981594&g_mp=Cilnb29nbGUubWFwcy5wbGFjZXMudjEuUGxhY2VzLlNlYXJjaE5lYXJieRACGAQgAA,park;point_of_interest;establishment,park,Suong
ChIJ1Q-UyAFhDDERtqHGlh7442c,бһ‘бһ№бһҖбһҮбҹ’бһҡбҹ„бҹҮбһ бҹ„бһ„ (Horng),nature,park,Park,walking,11.969156,105.696843,"XM9W+MP, Suong, Cambodia",3.6,11,,OPERATIONAL,,https://maps.google.com/?cid=7486099815882203574&g_mp=Cilnb29nbGUubWFwcy5wbGFjZXMudjEuUGxhY2VzLlNlYXJjaE5lYXJieRACGAQgAA,park;point_of_interest;establishment,park,Suong
ChIJbSLyNwBXDDERYOQ__F7jFpE,бһҹбҹ’бһ–бһ¶бһ“бһўбһҺбҹ’бһҠбҹ„бһҸ бһғбһ»бҹҶбһҲбһјбһҖ,nature,park,Park,walking,12.1851177,105.73462599999999,"5PPM+2VR бһ—бһјбһҳбһ·бһҲбһјбһҖ, Cambodia",4.9,9,,OPERATIONAL,,https://maps.google.com/?cid=10454793582085661792&g_mp=Cilnb29nbGUubWFwcy5wbGFjZXMudjEuUGxhY2VzLlNlYXJjaE5lYXJieRACGAQgAA,park;point_of_interest;establishment,park,Suong
ChIJBRKcN_ptDDERPsx-RfrbRHU,Tonle Sngout Park,nature,park,Park,walking,11.850717399999999,105.4832845,"бһ—бһјбһҳбһ·бһҗбҹ’бһ“бһӣбҹӢбһҖбҹӮбһ„, Ou Reang Ov District 250406, Cambodia",5,3,,OPERATIONAL,,https://maps.google.com/?cid=8450120668808137790&g_mp=Cilnb29nbGUubWFwcy5wbGFjZXMudjEuUGxhY2VzLlNlYXJjaE5lYXJieRACGAQgAA,park;point_of_interest;establishment,park,Suong
ChIJtQPIqIqbDDERgEeq1I7Whdc,CДғn Cб»© ChГ ng Riб»Үc,nature,national_park,National Park,walking,11.7180553,106.0451581,"P29W+63F, Tan Lap, Tay Ninh, Vietnam",5,5,,OPERATIONAL,,https://maps.google.com/?cid=15530054798998652800&g_mp=Cilnb29nbGUubWFwcy5wbGFjZXMudjEuUGxhY2VzLlNlYXJjaE5lYXJieRACGAQgAA,national_park;park;point_of_interest;establishment,park,Suong
ChIJw4Ik7FqLCzEReJJo1J3GKEc,Svay Antor Park,nature,park,Park,walking,11.570203300000001,105.42031630000001,"HCCC+34P, Svay Antor, Cambodia",4.1,53,,OPERATIONAL,,https://maps.google.com/?cid=5127566556937097848&g_mp=Cilnb29nbGUubWFwcy5wbGFjZXMudjEuUGxhY2VzLlNlYXJjaE5lYXJieRACGAQgAA,park;point_of_interest;establishment,park,Suong
ChIJ67ULSpn1CzERBSSB-pNr_ww,бһҡбһјбһ”бһҹбҹҶбһҺбһ¶бһҖбҹӢ бһ бҹ’бһӣбһҪбһ„бһ–бҹ’бһҡбҹҮбһҹбҹ’бһҠбҹҒбһ…бһҖбһ“,nature,park,Park,walking,11.635020599999999,105.35381,"Commune, J9P3+2G3, Prey Pnov, Cambodia",4,50,,OPERATIONAL,,https://maps.google.com/?cid=936585530823484421&g_mp=Cilnb29nbGUubWFwcy5wbGFjZXMudjEuUGxhY2VzLlNlYXJjaE5lYXJieRACGAQgAA,park;point_of_interest;establishment,park,Suong
ChIJMewzSQBBDDERywveLgd3Jro,бһҹбҹ’бһҡбһ»бһҖвҖӢбһҖбҹҶбһ–бһ»бһ„бһҹбҹҖбһҳ,nature,park,Park,walking,12.0111145,105.4331673,"2C6M+C7V, Kampong Siem District, Cambodia",4,2,,OPERATIONAL,,https://maps.google.com/?cid=13413539412904381387&g_mp=Cilnb29nbGUubWFwcy5wbGFjZXMudjEuUGxhY2VzLlNlYXJjaE5lYXJieRACGAQgAA,park;point_of_interest;establishment,park,Suong
ChIJV9brEZJzDDERuKpm4axqd9A,бһ–бҹ’бһҡбҹғбһ…бһ¶бһҹбҹӢ,nature,national_park,National Park,walking,11.823799399999999,105.41048669999999,"RCF6+G5, Sithor Kandal District, Cambodia",4.4,5,,OPERATIONAL,,https://maps.google.com/?cid=15021592372866099896&g_mp=Cilnb29nbGUubWFwcy5wbGFjZXMudjEuUGxhY2VzLlNlYXJjaE5lYXJieRACGAQgAA,national_park;park;point_of_interest;establishment,park,Suong
ChIJHxvXnqyLCzER3QdHPDHLgFE,бһҹбҹ’бһңбһ¶бһҷбһўбһ“бҹ’бһ‘бһҡ,nature,park,Park,walking,11.598450300000001,105.4194698,"HCX9+9QQ, Cambodia",4.7,9,,OPERATIONAL,,https://maps.google.com/?cid=5872917326416250845&g_mp=Cilnb29nbGUubWFwcy5wbGFjZXMudjEuUGxhY2VzLlNlYXJjaE5lYXJieRACGAQgAA,park;point_of_interest;establishment,park,Suong
ChIJ9-X1FMKLCzERx0uqzH_RZx8,бһҳбһ„бҹ’бһӮбһӣбһңбһёбһЎбһ¶-бһ–бҹ’бһҡбҹғбһңбҹӮбһ„бһ”бһ»бһҡбһё,nature,park,Park,walking,11.599261,105.417299,"Svay Antor, Cambodia",4.5,6,,OPERATIONAL,,https://maps.google.com/?cid=2263007684601727943&g_mp=Cilnb29nbGUubWFwcy5wbGFjZXMudjEuUGxhY2VzLlNlYXJjaE5lYXJieRACGAQgAA,park;point_of_interest;establishment,park,Suong
ChIJ0xAsQQA7DDER6Qv1uSkCy9w,бһ–бһ¶бһҳбһҖбҹ„бҹҮбһҹбҹ’бһ“бһ¶,nature,park,Park,walking,12.098291800000002,105.3131185,"38X7+869, Kampong Siem District, Cambodia",1,1,,OPERATIONAL,,https://maps.google.com/?cid=15909812486853168105&g_mp=Cilnb29nbGUubWFwcy5wbGFjZXMudjEuUGxhY2VzLlNlYXJjaE5lYXJieRACGAQgAA,park;point_of_interest;establishment,park,Suong
ChIJWTB_L8ZrDDERjrsQrWIf0AI,Kampong Cham Peace Park,nature,park,Park,walking,11.9862402,105.465763,"бһ—бһјбһҳбһ·бһҗбҹ’бһҳбһё, бһҖбҹ’бһҡбһ»бһ„бһҖбҹҶбһ–бһ„бҹӢбһ…бһ¶бһҳ, Cambodia",4.4,35,,OPERATIONAL,,https://maps.google.com/?cid=202696491902483342&g_mp=Cilnb29nbGUubWFwcy5wbGFjZXMudjEuUGxhY2VzLlNlYXJjaE5lYXJieRACGAQgAA,park;point_of_interest;establishment,park,Suong
ChIJHYA1ZJFjDDER196-Paoz9vM,бһҹбһҪбһ“бһ…бҹ’бһ”бһ¶бһҡбһҳбһ¶бһҸбҹӢбһ‘бһ“бҹ’бһӣбҹҒ,nature,park,Park,walking,11.8938471,105.7702709,"VQVC+G4, Kandaol Chrum, Cambodia",5,4,,OPERATIONAL,,https://maps.google.com/?cid=17579295001760685783&g_mp=Cilnb29nbGUubWFwcy5wbGFjZXMudjEuUGxhY2VzLlNlYXJjaE5lYXJieRACGAQgAA,park;point_of_interest;establishment,park,Suong
ChIJ13NfPgBjDDERkYpNcZG0WJI,Luang Preah Sdech Kan Roundabout,nature,park,Park,walking,11.8552237,105.75112060000001,"NR7, Cambodia",5,4,,OPERATIONAL,,https://maps.google.com/?cid=10545377064252181137&g_mp=Cilnb29nbGUubWFwcy5wbGFjZXMudjEuUGxhY2VzLlNlYXJjaE5lYXJieRACGAQgAA,park;point_of_interest;establishment,park,Suong
ChIJ6yCxRQBrDDERKUbFqtKkup4,бһҡбһ„бҹ’бһңбһ„бҹӢбһҳбһјбһӣбһ“бһ¶бһ„бһӮбһ„бҹ’бһ бһёбһ„бһҖбҹ’бһҡбһ»бһ„бһҖбҹҶбһ–бһ„бҹӢбһ…бһ¶бһҳ,nature,park,Park,walking,11.9798664,105.45495439999999,"XFH3+QXX, Krong Kampong Cham, Cambodia",,,,OPERATIONAL,,https://maps.google.com/?cid=11437635428375938601&g_mp=Cilnb29nbGUubWFwcy5wbGFjZXMudjEuUGxhY2VzLlNlYXJjaE5lYXJieRACGAQgAA,park;point_of_interest;establishment,park,Suong
ChIJhS11OQCLCzER6zc8PSevYIs,бһ•бҹ’бһӣбһјбһңбһ‘бҹ…бһҖбһ¶бһ“бҹӢбһҹбҹ’бһҡбһ»бһҖбһҖбһүбҹ’бһ…бҹ’бһҡбҹҖбһ…,nature,park,Park,walking,11.645755999999999,105.42475809999999,"JCWF+8W2, Lngeun, Cambodia",5,2,,OPERATIONAL,,https://maps.google.com/?cid=10043219752102148075&g_mp=Cilnb29nbGUubWFwcy5wbGFjZXMudjEuUGxhY2VzLlNlYXJjaE5lYXJieRACGAQgAA,park;point_of_interest;establishment,park,Suong
ChIJt8h4T_iBCzERGJ68OdMkKSY,бһ–бҹ’бһҡбҹҶбһ”бҹ’бһҡбһ‘бһӣбҹӢбһҒбҹҒбһҸбҹ’бһҸбһ–бҹ’бһҡбҹғбһңбҹӮбһ„-бһҸбҹ’бһ”бһјбһ„бһғбҹ’бһҳбһ»бҹҶ,nature,park,Park,walking,11.6294041,105.7794641,"NR8, Cambodia",5,1,,OPERATIONAL,,https://maps.google.com/?cid=2749769537111760408&g_mp=Cilnb29nbGUubWFwcy5wbGFjZXMudjEuUGxhY2VzLlNlYXJjaE5lYXJieRACGAQgAA,park;point_of_interest;establishment,park,Suong
ChIJl-Tit3ZFDDERQTZIM1B7lYM,бһҮбһ¶бһ„бһӮбҹҶбһ“бһјбһҡбһ“бһ·бһ„бһ…бһҳбҹ’бһӣбһ¶бһҖбҹӢ бһўбһ¶бһҳбҹүбһ¶бһ бҹ’бһҹбҹҠбһјбһ“(Amazon painter sculptor),cultural,art_gallery,Art Gallery,,12.150117499999999,105.55211369999999,"5H22+2RX, Peam Chileang, Cambodia",5,3,,OPERATIONAL,https://www.facebook.com/sim.kimhang,https://maps.google.com/?cid=9481620174886417985&g_mp=Cilnb29nbGUubWFwcy5wbGFjZXMudjEuUGxhY2VzLlNlYXJjaE5lYXJieRACGAQgAA,art_gallery;point_of_interest;establishment,art_gallery,Suong
ChIJX5IEtKZrDDERtNAOo8oFZ9A,Prasath Wat Koh Rokar,cultural,hindu_temple,Hindu Temple,sightseeing,11.9466351,105.40768849999999,"WCW5+M34, Krong Kampong Cham, Cambodia",3.9,8,,OPERATIONAL,,https://maps.google.com/?cid=15016977850367398068&g_mp=Cilnb29nbGUubWFwcy5wbGFjZXMudjEuUGxhY2VzLlNlYXJjaE5lYXJieRACGAQgAA,hindu_temple;place_of_worship;point_of_interest;association_or_organization;establishment,hindu_temple,Suong
ChIJ3Q3gAQYNDDER6apcP00Qs4U,Prasat Prey Daeum Srok,cultural,hindu_temple,Hindu Temple,sightseeing,11.7511733,105.35876449999999,"Q925+FG6, Unnamed Road, Sithor Kandal District, Cambodia",4.7,16,,OPERATIONAL,,https://maps.google.com/?cid=9634061951837186793&g_mp=Cilnb29nbGUubWFwcy5wbGFjZXMudjEuUGxhY2VzLlNlYXJjaE5lYXJieRACGAQgAA,hindu_temple;place_of_worship;point_of_interest;association_or_organization;establishment,hindu_temple,Suong
ChIJ6VVv3I1FDDER6VYAZWZ1JM8,Prasat Kok Preah Theat,cultural,hindu_temple,Hindu Temple,sightseeing,12.165412300000002,105.52934909999999,"5G8H+5P9, Stueng Trang District, Cambodia",4.6,15,,OPERATIONAL,,https://maps.google.com/?cid=14926184147654301417&g_mp=Cilnb29nbGUubWFwcy5wbGFjZXMudjEuUGxhY2VzLlNlYXJjaE5lYXJieRACGAQgAA,hindu_temple;place_of_worship;point_of_interest;association_or_organization;establishment,hindu_temple,Suong
ChIJwUYNQJJFDDERwdqMcK9OPjw,Prasat Hanchey,cultural,hindu_temple,Hindu Temple,sightseeing,12.1623743,105.5283424,"5G6H+W8W, Stueng Trang District, Cambodia",4.5,11,,OPERATIONAL,,https://maps.google.com/?cid=4340993606246259393&g_mp=Cilnb29nbGUubWFwcy5wbGFjZXMudjEuUGxhY2VzLlNlYXJjaE5lYXJieRACGAQgAA,hindu_temple;place_of_worship;point_of_interest;association_or_organization;establishment,hindu_temple,Suong
ChIJr_9_G86JDDERf1ZEoYk_fQI,Prasat Preiki Pagoda,cultural,hindu_temple,Hindu Temple,sightseeing,11.8559532,105.79414369999999,"VQ4V+9MJ, Kandaol Chrum, Cambodia",3.9,17,,OPERATIONAL,,https://maps.google.com/?cid=179369420513367679&g_mp=Cilnb29nbGUubWFwcy5wbGFjZXMudjEuUGxhY2VzLlNlYXJjaE5lYXJieRACGAQgAA,hindu_temple;place_of_worship;point_of_interest;association_or_organization;establishment,hindu_temple,Suong
ChIJuRTLwJKJDDERKlsS6TIhbGI,Prasat Cheung Ang,cultural,hindu_temple,Hindu Temple,sightseeing,11.8805275,105.8066547,"VRJ4+6M6, Kandaol Chrum, Cambodia",4.5,24,,OPERATIONAL,,https://maps.google.com/?cid=7092080015744064298&g_mp=Cilnb29nbGUubWFwcy5wbGFjZXMudjEuUGxhY2VzLlNlYXJjaE5lYXJieRACGAQgAA,hindu_temple;place_of_worship;point_of_interest;association_or_organization;establishment,hindu_temple,Suong
ChIJoVBB5V1lDDERMLW-i6T4ipg,Preah Theat Temple,cultural,hindu_temple,Hindu Temple,sightseeing,11.8375936,105.60086489999999,"RJQ2+28Q, Suong, Cambodia",4.6,9,,OPERATIONAL,,https://maps.google.com/?cid=10991871226153973040&g_mp=Cilnb29nbGUubWFwcy5wbGFjZXMudjEuUGxhY2VzLlNlYXJjaE5lYXJieRACGAQgAA,hindu_temple;place_of_worship;point_of_interest;association_or_organization;establishment,hindu_temple,Suong
ChIJJe5NnuOJDDERL2ZM8bGtxi4,Preah Theat Samdei Temple,cultural,hindu_temple,Hindu Temple,sightseeing,11.8787345,105.7853935,"VQHP+F5R, Kandaol Chrum, Cambodia",4.5,11,,OPERATIONAL,,https://maps.google.com/?cid=3370572350902527535&g_mp=Cilnb29nbGUubWFwcy5wbGFjZXMudjEuUGxhY2VzLlNlYXJjaE5lYXJieRACGAQgAA,hindu_temple;place_of_worship;point_of_interest;association_or_organization;establishment,hindu_temple,Suong
ChIJ7TeBBLQNDDER2DFobkPY6Zs,бһ”бҹ’бһҡбһ¶бһҹбһ¶бһ‘бһ…бһ»бһ„бһҹбҹ’бһҡбһ»бһҖ Prasat Chong Srok,cultural,hindu_temple,Hindu Temple,sightseeing,11.751327,105.358655,"Unnamed Road, Sithor Kandal District, Cambodia",5,5,,OPERATIONAL,,https://maps.google.com/?cid=11234748529579143640&g_mp=Cilnb29nbGUubWFwcy5wbGFjZXMudjEuUGxhY2VzLlNlYXJjaE5lYXJieRACGAQgAA,hindu_temple;place_of_worship;point_of_interest;association_or_organization;establishment,hindu_temple,Suong
ChIJDZ_yijp9DDERDAjotEtf7fw,Preah Theat Tauch Temple,cultural,hindu_temple,Hindu Temple,sightseeing,11.7955615,105.74968989999999,"QPWX+6VG, Kandaol Chrum, Cambodia",4.2,13,,OPERATIONAL,,https://maps.google.com/?cid=18225328045800556556&g_mp=Cilnb29nbGUubWFwcy5wbGFjZXMudjEuUGxhY2VzLlNlYXJjaE5lYXJieRACGAQgAA,hindu_temple;place_of_worship;point_of_interest;association_or_organization;establishment,hindu_temple,Suong
ChIJixPGdJJFDDERFBP0wpM0kjY,Prasat Andaung Preng,cultural,hindu_temple,Hindu Temple,sightseeing,12.163557299999999,105.52833659999999,"5G7H+C8G, Stueng Trang District, Cambodia",4,14,,OPERATIONAL,,https://maps.google.com/?cid=3932263233883476756&g_mp=Cilnb29nbGUubWFwcy5wbGFjZXMudjEuUGxhY2VzLlNlYXJjaE5lYXJieRACGAQgAA,hindu_temple;place_of_worship;point_of_interest;association_or_organization;establishment,hindu_temple,Suong
ChIJX1RPaN9jDDERsQYc48WgfTQ,бһ”бҹ’бһҡбһ¶бһҹбһ¶бһ‘бһҮбҹҒбһёбһ„бһўбһ„вҖӢ Joeung Ong Temple,cultural,hindu_temple,Hindu Temple,sightseeing,11.8771369,105.7805752,"VQGJ+V64, Unnamed Road, Kandaol Chrum, Cambodia",5,1,,OPERATIONAL,,https://maps.google.com/?cid=3782356033840350897&g_mp=Cilnb29nbGUubWFwcy5wbGFjZXMudjEuUGxhY2VzLlNlYXJjaE5lYXJieRACGAQgAA,hindu_temple;place_of_worship;point_of_interest;association_or_organization;establishment,hindu_temple,Suong
ChIJHb1q19BfDDERNjRMlYCPpB0,бһ‘бһҪбһӣбһҖбҹ’бһҠбһё (бһ‘бһёбһ‘бһҪбһӣбһ”бҹ’бһҡбһ¶бһҹбһ¶бһ‘бһ”бһ»бһҡбһ¶бһҺбһҒбҹ’бһҳбҹӮбһҡ),cultural,hindu_temple,Hindu Temple,sightseeing,12.0003309,105.7132863,"2P27+48, Suong, Cambodia",4,5,,OPERATIONAL,,https://maps.google.com/?cid=2135989905703842870&g_mp=Cilnb29nbGUubWFwcy5wbGFjZXMudjEuUGxhY2VzLlNlYXJjaE5lYXJieRACGAQgAA,hindu_temple;place_of_worship;point_of_interest;association_or_organization;establishment,hindu_temple,Suong
ChIJF0I9TKFFDDERM7sWW9jCWYQ,Kok Lvea Temple,cultural,hindu_temple,Hindu Temple,sightseeing,12.1400717,105.5265008,"4GRG+2JC, Krong Kampong Cham, Cambodia",4.5,2,,OPERATIONAL,,https://maps.google.com/?cid=9536867920430676787&g_mp=Cilnb29nbGUubWFwcy5wbGFjZXMudjEuUGxhY2VzLlNlYXJjaE5lYXJieRACGAQgAA,hindu_temple;place_of_worship;point_of_interest;association_or_organization;establishment,hindu_temple,Suong
ChIJqdDsbGxnDDERYVsV78ofU2Q,бһҳбҹ’бһҳбһ„бҹӢбһ…бһ·бһ“,cultural,hindu_temple,Hindu Temple,sightseeing,11.9249025,105.6646777,"WMF7+XV7, Unnamed Road, Suong, Cambodia",,,,OPERATIONAL,,https://maps.google.com/?cid=7229156783314787169&g_mp=Cilnb29nbGUubWFwcy5wbGFjZXMudjEuUGxhY2VzLlNlYXJjaE5lYXJieRACGAQgAA,hindu_temple;place_of_worship;point_of_interest;association_or_organization;establishment,hindu_temple,Suong
ChIJw5a1dABfDDERv7DKaCA9dA8,бһ‘бһҪбһӣбһ”бҹ’бһҡбһ¶бһҹбһ¶бһ‘бһ”бһ»бһҡбһ¶бһҺ (бһ–бҹ’бһҡбҹғбһҖбҹ„бҹҮ),cultural,hindu_temple,Hindu Temple,sightseeing,12.0015397,105.7225574,"2P2F+J27 Vihear Sambor, Cambodia",,,,OPERATIONAL,,https://maps.google.com/?cid=1113582217273716927&g_mp=Cilnb29nbGUubWFwcy5wbGFjZXMudjEuUGxhY2VzLlNlYXJjaE5lYXJieRACGAQgAA,hindu_temple;place_of_worship;point_of_interest;association_or_organization;establishment,hindu_temple,Suong
ChIJ8wL8ZgCJDDERnoaWxMOhKdI,Preiki Temple,cultural,hindu_temple,Hindu Temple,sightseeing,11.855625199999999,105.7941201,"VQ4V+9MJ, Kandaol Chrum, Cambodia",5,1,,OPERATIONAL,,https://maps.google.com/?cid=15143813084198897310&g_mp=Cilnb29nbGUubWFwcy5wbGFjZXMudjEuUGxhY2VzLlNlYXJjaE5lYXJieRACGAQgAA,hindu_temple;place_of_worship;point_of_interest;association_or_organization;establishment,hindu_temple,Suong
ChIJvcaMBABxDDER1rk2jz_Q05g,Tuol Dambang Daek,cultural,hindu_temple,Hindu Temple,sightseeing,11.737821499999999,105.5609466,"PHQ6+49G, Cambodia",,,,OPERATIONAL,,https://maps.google.com/?cid=11012374485255240150&g_mp=Cilnb29nbGUubWFwcy5wbGFjZXMudjEuUGxhY2VzLlNlYXJjaE5lYXJieRACGAQgAA,hindu_temple;place_of_worship;point_of_interest;association_or_organization;establishment,hindu_temple,Suong
ChIJcTuuKpYLDDEREyINtCPPhl4,бһ”бҹ’бһҡбһ¶бһҹбһ¶бһ‘бһ–бҹ’бһҡбҹҮбһ’бһ¶бһҸбһ»бһ–бҹ’бһҡбҹғбһҹбҹ’бһӣбһ¶,cultural,hindu_temple,Hindu Temple,sightseeing,11.669726599999999,105.3453134,"M89W+V4, Prey Sla, Cambodia",5,1,,OPERATIONAL,,https://maps.google.com/?cid=6811359238696018451&g_mp=Cilnb29nbGUubWFwcy5wbGFjZXMudjEuUGxhY2VzLlNlYXJjaE5lYXJieRACGAQgAA,hindu_temple;place_of_worship;point_of_interest;association_or_organization;establishment,hindu_temple,Suong
ChIJNWGK1xp3DDERwbgQ5cYXWP4,Chhouk Pagoda,cultural,buddhist_temple,Buddhist Temple,sightseeing,11.6653117,105.509827,"MG85+4WG, Cambodia",4.7,14,,OPERATIONAL,,https://maps.google.com/?cid=18327424826598275265&g_mp=Cilnb29nbGUubWFwcy5wbGFjZXMudjEuUGxhY2VzLlNlYXJjaE5lYXJieRACGAQgAA,buddhist_temple;place_of_worship;association_or_organization;point_of_interest;establishment,buddhist_temple,Suong
ChIJ__8PVidtDDERdpF8WODmusA,Moha Leap Pagoda,cultural,buddhist_temple,Buddhist Temple,sightseeing,11.8703144,105.4239685,"VCCF+4HG, Kaoh Soutin, Cambodia",4.8,26,,OPERATIONAL,,https://maps.google.com/?cid=13887666252181967222&g_mp=Cilnb29nbGUubWFwcy5wbGFjZXMudjEuUGxhY2VzLlNlYXJjaE5lYXJieRACGAQgAA,buddhist_temple;place_of_worship;association_or_organization;point_of_interest;establishment,buddhist_temple,Suong
ChIJPwuKH5RFDDERC6CFKuFuSK8,Hanchey Pagoda,cultural,buddhist_temple,Buddhist Temple,sightseeing,12.1627938,105.527806,"5G7H+447, Stueng Trang District, Cambodia",4.6,27,,OPERATIONAL,,https://maps.google.com/?cid=12630467068320653323&g_mp=Cilnb29nbGUubWFwcy5wbGFjZXMudjEuUGxhY2VzLlNlYXJjaE5lYXJieRACGAQgAA,buddhist_temple;place_of_worship;association_or_organization;point_of_interest;establishment,buddhist_temple,Suong
ChIJayBi4hphDDER8CuHisB9z1c,Wat Kbal Boeng Ses,cultural,buddhist_temple,Buddhist Temple,sightseeing,11.974220599999999,105.74595800000002,"XPFW+M9P, Unnamed Road, Kor, Cambodia",4.9,7,,OPERATIONAL,,https://maps.google.com/?cid=6327414267390143472&g_mp=Cilnb29nbGUubWFwcy5wbGFjZXMudjEuUGxhY2VzLlNlYXJjaE5lYXJieRACGAQgAA,buddhist_temple;place_of_worship;association_or_organization;point_of_interest;establishment,buddhist_temple,Suong
ChIJWW5Ogfz-DDERymcBGLRVq0U,Phnom Soporkaley,cultural,buddhist_temple,Buddhist Temple,sightseeing,12.2816925,105.8345612,"7RJM+MRF, Phumi Chambak, Cambodia",4.4,44,,OPERATIONAL,,https://maps.google.com/?cid=5020200441619769290&g_mp=Cilnb29nbGUubWFwcy5wbGFjZXMudjEuUGxhY2VzLlNlYXJjaE5lYXJieRACGAQgAA,buddhist_temple;place_of_worship;association_or_organization;point_of_interest;establishment,buddhist_temple,Suong
ChIJR1BKXwoLDDER47w1I6Zg5B8,Chong Sak Pagoda,cultural,buddhist_temple,Buddhist Temple,sightseeing,11.7160215,105.3617728,"314, Cambodia",4.1,18,,OPERATIONAL,,https://maps.google.com/?cid=2298067976537357539&g_mp=Cilnb29nbGUubWFwcy5wbGFjZXMudjEuUGxhY2VzLlNlYXJjaE5lYXJieRACGAQgAA,buddhist_temple;place_of_worship;association_or_organization;point_of_interest;establishment,buddhist_temple,Suong
ChIJM7xbw3d1DDEREi9C-tEZkYo,Pea Nea Pagoda,cultural,buddhist_temple,Buddhist Temple,sightseeing,11.711513499999999,105.4617353,"Street 11, Cambodia",3.9,26,,OPERATIONAL,,https://maps.google.com/?cid=9984790238494600978&g_mp=Cilnb29nbGUubWFwcy5wbGFjZXMudjEuUGxhY2VzLlNlYXJjaE5lYXJieRACGAQgAA,buddhist_temple;place_of_worship;association_or_organization;point_of_interest;establishment,buddhist_temple,Suong
ChIJoR-G2DN9DDER7qpr7bl7j9g,Wat Angkor Khnong,cultural,buddhist_temple,Buddhist Temple,sightseeing,11.7972228,105.7476263,"QPWX+V3, Kandaol Chrum, Cambodia",4.4,14,,OPERATIONAL,,https://maps.google.com/?cid=15604827272344480494&g_mp=Cilnb29nbGUubWFwcy5wbGFjZXMudjEuUGxhY2VzLlNlYXJjaE5lYXJieRACGAQgAA,buddhist_temple;place_of_worship;association_or_organization;point_of_interest;establishment,buddhist_temple,Suong
ChIJP_TuxwdWDDER9HWeCNdLenE,Wat Luang Roka Knor,cultural,buddhist_temple,Buddhist Temple,sightseeing,12.2495339,105.7757848,"308, Cambodia",4.2,19,,OPERATIONAL,,https://maps.google.com/?cid=8176931460379211252&g_mp=Cilnb29nbGUubWFwcy5wbGFjZXMudjEuUGxhY2VzLlNlYXJjaE5lYXJieRACGAQgAA,buddhist_temple;place_of_worship;association_or_organization;point_of_interest;establishment,buddhist_temple,Suong
ChIJfQhdvP0-DDERzJSIQaqRRVk,Wat Khael Chey,cultural,buddhist_temple,Buddhist Temple,sightseeing,12.058809,105.35823010000001,"3955+G7H, 71, Traeung 16357, Cambodia",3.8,19,,OPERATIONAL,,https://maps.google.com/?cid=6432707803198559436&g_mp=Cilnb29nbGUubWFwcy5wbGFjZXMudjEuUGxhY2VzLlNlYXJjaE5lYXJieRACGAQgAA,buddhist_temple;place_of_worship;association_or_organization;point_of_interest;establishment,buddhist_temple,Suong
ChIJ95ta6VtZDDERK51B70xOSho,бһңбһҸбҹ’бһҸбһҸбһ¶бһ”бһ¶бһңбһ–бһ„бһ‘бһ№бһҖ Pagoda,cultural,buddhist_temple,Buddhist Temple,sightseeing,12.0921364,105.695107,"3MRW+V25, Phumi KrГўngaГҙk, Cambodia",3.6,25,,OPERATIONAL,,https://maps.google.com/?cid=1894412685601250603&g_mp=Cilnb29nbGUubWFwcy5wbGFjZXMudjEuUGxhY2VzLlNlYXJjaE5lYXJieRACGAQgAA,buddhist_temple;place_of_worship;association_or_organization;point_of_interest;establishment,buddhist_temple,Suong
ChIJVW3RWU9tDDER3n4RN0rtU4Q,Damnak Pring Pagoda,cultural,buddhist_temple,Buddhist Temple,sightseeing,11.8424484,105.41849599999999,"бһ•бҹ’бһ‘бҹҮбһҸбһ¶бһ•бҹҒбһ“ бһҷбһ¶бһҷбһ„бһ“бҹӢ, Kaoh Soutin, Cambodia",3.8,38,,OPERATIONAL,,https://maps.google.com/?cid=9535225739080728286&g_mp=Cilnb29nbGUubWFwcy5wbGFjZXMudjEuUGxhY2VzLlNlYXJjaE5lYXJieRACGAQgAA,buddhist_temple;place_of_worship;association_or_organization;point_of_interest;establishment,buddhist_temple,Suong
ChIJ____-3uACzERmYfuJjg8yrU,Krobao Thmey Pagoda,cultural,buddhist_temple,Buddhist Temple,sightseeing,11.625794299999999,105.74135199999999,"National Rd NВә 8, Cambodia",4,3,,OPERATIONAL,,https://maps.google.com/?cid=13099348678029510553&g_mp=Cilnb29nbGUubWFwcy5wbGFjZXMudjEuUGxhY2VzLlNlYXJjaE5lYXJieRACGAQgAA,buddhist_temple;place_of_worship;association_or_organization;point_of_interest;establishment,buddhist_temple,Suong
ChIJ76NYVzBvDDERII1aeohr7jg,Tuol Trea Tbong Pagoda,cultural,buddhist_temple,Buddhist Temple,sightseeing,11.897950000000002,105.5617905,"NR11, Cambodia",3.6,27,,OPERATIONAL,,https://maps.google.com/?cid=4102334544493579552&g_mp=Cilnb29nbGUubWFwcy5wbGFjZXMudjEuUGxhY2VzLlNlYXJjaE5lYXJieRACGAQgAA,buddhist_temple;place_of_worship;association_or_organization;point_of_interest;establishment,buddhist_temple,Suong
ChIJTeWE88xBDDERK1D16Y5w9m0,Chotanaram (Boeng Kok) Pagoda,cultural,buddhist_temple,Buddhist Temple,sightseeing,12.003358400000002,105.4610081,"бһ—бһјбһҳбһ·бһ”бһ№бһ„бһҖбһ»бһҖ, Krong Kampong Cham, Cambodia",4.3,16,,OPERATIONAL,,https://maps.google.com/?cid=7923644353517801515&g_mp=Cilnb29nbGUubWFwcy5wbGFjZXMudjEuUGxhY2VzLlNlYXJjaE5lYXJieRACGAQgAA,buddhist_temple;place_of_worship;association_or_organization;point_of_interest;establishment,buddhist_temple,Suong
ChIJfaORMX9NDDERDogr97kcdks,Preah Ang Kuhear Pagoda,cultural,buddhist_temple,Buddhist Temple,sightseeing,12.3066225,105.5888101,"8H4Q+JGV, Phum Preksangkae, Cambodia",4.2,31,,OPERATIONAL,,https://maps.google.com/?cid=5437565185137805326&g_mp=Cilnb29nbGUubWFwcy5wbGFjZXMudjEuUGxhY2VzLlNlYXJjaE5lYXJieRACGAQgAA,buddhist_temple;place_of_worship;association_or_organization;point_of_interest;establishment,buddhist_temple,Suong
ChIJXYD0SFlBDDERxJy-ork0qCo,Kien Chrey Krao Pagoda,cultural,buddhist_temple,Buddhist Temple,sightseeing,12.0719304,105.4959476,"PR222, Cambodia",4.2,13,,OPERATIONAL,,https://maps.google.com/?cid=3073764717584358596&g_mp=Cilnb29nbGUubWFwcy5wbGFjZXMudjEuUGxhY2VzLlNlYXJjaE5lYXJieRACGAQgAA,buddhist_temple;place_of_worship;association_or_organization;point_of_interest;establishment,buddhist_temple,Suong
ChIJfb2otuQRDDERHi2mwj4XDes,Wat Prek Rumdeng,cultural,buddhist_temple,Buddhist Temple,sightseeing,11.894857499999999,105.26081239999999,"бһ—бһјбһҳбһ·бһ–бҹ’бһҡбҹӮбһҖбһҡбҹҶбһҠбҹҒбһ„В«бһӮВ», бһғбһ»бҹҶбһ–бҹ’бһҡбҹӮбһҖбһҡбҹҶбһҠбҹҒбһ„, бһңбһҸбҹ’бһҸбһ–бһ бһ»бһ”бһ»бһ”бҹ’бһ•бһ¶бһҡбһ¶бһҳ, Angkor Ban, Cambodia",5,4,,OPERATIONAL,,https://maps.google.com/?cid=16937219331931385118&g_mp=Cilnb29nbGUubWFwcy5wbGFjZXMudjEuUGxhY2VzLlNlYXJjaE5lYXJieRACGAQgAA,buddhist_temple;place_of_worship;association_or_organization;point_of_interest;establishment,buddhist_temple,Suong
ChIJa1wyBGX_DDERWaARbFvtqFg,Russey Keo Pagoda,cultural,buddhist_temple,Buddhist Temple,sightseeing,12.2793625,105.791409,"бһ—бһјбһҳбһ·бһ¬бһҹбҹ’бһҹбһёбһҖбҹӮбһң бһғбһ»бҹҶбһ¬бһҹбҹ’бһҹбһёбһҖбҹӮбһң бһҹбҹ’бһҡбһ»бһҖбһ–бҹ’бһҡбҹӮбһҖбһ”бҹ’бһҡбһҹбһ–бҹ’бһң бһҒбҹҒбһҸбҹ’бһҸбһҖбҹ’бһҡбһ…бҹҒбҹҮ, 7QHR+PHV, Phumi Chambak, Cambodia",3.2,18,,OPERATIONAL,,https://maps.google.com/?cid=6388617048335949913&g_mp=Cilnb29nbGUubWFwcy5wbGFjZXMudjEuUGxhY2VzLlNlYXJjaE5lYXJieRACGAQgAA,buddhist_temple;place_of_worship;association_or_organization;point_of_interest;establishment,buddhist_temple,Suong
ChIJU5JbQBRnDDERLHPSqSlhICk,Shalom Life Chapel,cultural,church,Church,sightseeing,11.912536099999999,105.6564159,"WM74+2H7, Suong, Cambodia",4,6,,OPERATIONAL,,https://maps.google.com/?cid=2963475386380481324&g_mp=Cilnb29nbGUubWFwcy5wbGFjZXMudjEuUGxhY2VzLlNlYXJjaE5lYXJieRACGAQgAA,church;place_of_worship;association_or_organization;point_of_interest;establishment,church,Suong
ChIJddDVBGFqDDERTnK4hr7ISJ8,Catholic Church Kampong Cham,cultural,church,Church,sightseeing,11.982234799999999,105.45708549999999,"Krong Kampong Cham, Cambodia",4.4,14,,OPERATIONAL,,https://maps.google.com/?cid=11477644370983285326&g_mp=Cilnb29nbGUubWFwcy5wbGFjZXMudjEuUGxhY2VzLlNlYXJjaE5lYXJieRACGAQgAA,church;place_of_worship;association_or_organization;point_of_interest;establishment,church,Suong
ChIJ74ISP3pqDDERq1sPfElCXZ8,бһҹбһ¶бһҹбһ“бһ¶бһ…бһҖбҹ’бһҡвҖӢбһ“бҹғвҖӢбһ–бҹ’бһҡбҹҮбһҷбҹҒбһҹбҹҠбһјбһңвҖӢбһӮбҹ’бһҡбһёбһҹбҹ’бһ‘вҖӢбһ“бҹғвҖӢбһ–бһҪбһҖбһ”бһҡбһ·бһҹбһ»бһ‘бҹ’бһ’вҖӢбһҗбҹ’бһ„бҹғвҖӢбһ…бһ»бһ„бһҖбҹ’бһҡбҹ„бһҷ,cultural,church,Church,sightseeing,11.994726400000001,105.4616511,"21 Khemarak Phoumin Village 14, Commune, 0106, Krong Kampong Cham 30402, Cambodia",5,11,,OPERATIONAL,https://local.churchofjesuschrist.org/en/kh/kampong-cham/21-khemarak-phoumin?utm_source=gmb&utm_medium=yext&y_source=1_NjcwODA5NjYtNzE1LWxvY2F0aW9uLndlYnNpdGU%3D,https://maps.google.com/?cid=11483407508246059947&g_mp=Cilnb29nbGUubWFwcy5wbGFjZXMudjEuUGxhY2VzLlNlYXJjaE5lYXJieRACGAQgAA,church;place_of_worship;association_or_organization;point_of_interest;establishment,church,Suong
ChIJX2Z49Ip5DDER-ruOgzapeMU,Wat Daun Doak Lech,cultural,church,Church,sightseeing,11.6967457,105.6561153,"MMW4+MCX, Cambodia",5,6,,OPERATIONAL,,https://maps.google.com/?cid=14229309074277579770&g_mp=Cilnb29nbGUubWFwcy5wbGFjZXMudjEuUGxhY2VzLlNlYXJjaE5lYXJieRACGAQgAA,church;place_of_worship;association_or_organization;point_of_interest;establishment,church,Suong
ChIJG11qGsRNDDERvj_AuxrthJE,бһҖбҹ’бһҠбһ»бһӣбһӣбһҫ Catholic church Kdol Leu,cultural,church,Church,sightseeing,12.276890999999999,105.5649206,"308, Cambodia",4.2,15,,OPERATIONAL,,https://maps.google.com/?cid=10485766531500228542&g_mp=Cilnb29nbGUubWFwcy5wbGFjZXMudjEuUGxhY2VzLlNlYXJjaE5lYXJieRACGAQgAA,church;place_of_worship;association_or_organization;point_of_interest;establishment,church,Suong
ChIJzQcsqqRjCzERToYrjcM0dCc,GiГЎo xб»© ThiГӘn ГӮn,cultural,church,Church,sightseeing,11.5826011,105.99222909999999,"235 QL22B, TГўn BiГӘn, TГўy Ninh, Vietnam",4.5,11,,OPERATIONAL,,https://maps.google.com/?cid=2842955279269332558&g_mp=Cilnb29nbGUubWFwcy5wbGFjZXMudjEuUGxhY2VzLlNlYXJjaE5lYXJieRACGAQgAA,church;place_of_worship;association_or_organization;point_of_interest;establishment,church,Suong
ChIJXyOiC9ttDDERwhORedMrtiI,бһ—бһјбһҳбһ·бһ–бһ„бҹ’бһҡ,cultural,church,Church,sightseeing,11.892253199999999,105.440024,"VCRR+W22 бһ—бһјбһҳбһ·бһ–бһ„бҹ’бһҡ бһғбһ»бҹҶбһ–бһ¶бһҳбһ”бҹ’бһҡбһ’бҹ’бһ“бҹ„бҹҮ, Cambodia",,,,OPERATIONAL,,https://maps.google.com/?cid=2501234830328533954&g_mp=Cilnb29nbGUubWFwcy5wbGFjZXMudjEuUGxhY2VzLlNlYXJjaE5lYXJieRACGAQgAA,church;place_of_worship;association_or_organization;point_of_interest;establishment,church,Suong
ChIJU8Atsy9rDDERW9TwPle9-k8,Krong Kampong Cham Seventh-day Adventist Church,cultural,church,Church,sightseeing,11.9956658,105.4477287,"XCWX+739, Krong Kampong Cham, Cambodia",3.8,4,,OPERATIONAL,,https://maps.google.com/?cid=5763126855589745755&g_mp=Cilnb29nbGUubWFwcy5wbGFjZXMudjEuUGxhY2VzLlNlYXJjaE5lYXJieRACGAQgAA,church;place_of_worship;association_or_organization;point_of_interest;establishment,church,Suong
ChIJI7fgkRF7DDERd_sSrANv4Ys,Catholic Church ChomLak,cultural,church,Church,sightseeing,11.7859518,105.6031031,"73, Cambodia",4.9,9,,OPERATIONAL,,https://maps.google.com/?cid=10079459502594390903&g_mp=Cilnb29nbGUubWFwcy5wbGFjZXMudjEuUGxhY2VzLlNlYXJjaE5lYXJieRACGAQgAA,church;place_of_worship;association_or_organization;point_of_interest;establishment,church,Suong
ChIJafxpG8wUDDERQW1jMwsZL18,Catholic Church KohRoka,cultural,church,Church,sightseeing,11.944840099999999,105.4009572,"WCV2+W9P, Kampong Siem District, Cambodia",4.5,13,,OPERATIONAL,,https://maps.google.com/?cid=6858728293406043457&g_mp=Cilnb29nbGUubWFwcy5wbGFjZXMudjEuUGxhY2VzLlNlYXJjaE5lYXJieRACGAQgAA,church;place_of_worship;association_or_organization;point_of_interest;establishment,church,Suong
ChIJ98okHoNODDERRbH3cGbnoEA,Stung Trong Church,cultural,church,Church,sightseeing,12.2604373,105.53743209999999,"7G6P+5XF, Unnamed Road, Stueng Trang District, Cambodia",3,5,,OPERATIONAL,,https://maps.google.com/?cid=4656976441869054277&g_mp=Cilnb29nbGUubWFwcy5wbGFjZXMudjEuUGxhY2VzLlNlYXJjaE5lYXJieRACGAQgAA,church;place_of_worship;association_or_organization;point_of_interest;establishment,church,Suong
ChIJBbUh3BhjCzERGQkslWUKg8k,Д‘iб»ғm NhГіm Tin LГ nh TГўn BiГӘn,cultural,church,Church,sightseeing,11.566711399999999,105.9960762,"HX8W+MCP, QL22B, TГўn BiГӘn, TГўy Ninh, Vietnam",5,3,,OPERATIONAL,,https://maps.google.com/?cid=14520461054983276825&g_mp=Cilnb29nbGUubWFwcy5wbGFjZXMudjEuUGxhY2VzLlNlYXJjaE5lYXJieRACGAQgAA,church;place_of_worship;association_or_organization;point_of_interest;establishment,church,Suong
ChIJJ3n4LCFvDDER4PhA2i5yHwE,бһҖбҹ’бһҡбһ»бһҳбһҮбҹҶбһ“бһ»бҹҶбһ”бҹҒбһҹбһҖбһҖбһҳбҹ’бһҳбһҠбҹҶбһҺбһ№бһ„бһӣбҹ’бһў бһ—бһјбһҳбһ·бһ—бҹ’бһ“бҹҶ,cultural,church,Church,sightseeing,11.9038758,105.5186301,"WG39+HF2, Phnom village, Tonle Bet, Cambodia",5,1,,OPERATIONAL,,https://maps.google.com/?cid=80908863871711456&g_mp=Cilnb29nbGUubWFwcy5wbGFjZXMudjEuUGxhY2VzLlNlYXJjaE5lYXJieRACGAQgAA,church;place_of_worship;association_or_organization;point_of_interest;establishment,church,Suong
ChIJTdujFXpqDDEREBzu8-VkETs,Bright Knowledge Church,cultural,church,Church,sightseeing,11.9901875,105.4710625,"City, бһҹбҹ’бһҡбһ»бһҖбһҖбҹ„бһүбһҹбһјбһ‘бһ·бһ“, Cambodia",3.9,9,,OPERATIONAL,,https://maps.google.com/?cid=4256294061644586000&g_mp=Cilnb29nbGUubWFwcy5wbGFjZXMudjEuUGxhY2VzLlNlYXJjaE5lYXJieRACGAQgAA,church;place_of_worship;association_or_organization;point_of_interest;establishment,church,Suong
ChIJCXnhOtVrDDERkpzObPA4V4U,бһ•бҹ’бһ‘бҹҮбһҡбһ”бһҹбҹӢбһўбҹ’бһ“бһҖбһ”бһҳбҹ’бһҡбһҫбһ–бҹ’бһҡбҹҮбһҷбҹҒбһҹбҹҠбһјбһңбһӮбҹ’бһҡбһёбһҹбҹ’бһ‘Servant of Jesus Christ,cultural,church,Church,sightseeing,12.001824,105.431495,"2C3J+2Q, Kampong Siem District, Cambodia",,,,CLOSED_TEMPORARILY,https://www.facebook.com/TrySokHengServantofJESUS?mibextid=LQQJ4d,https://maps.google.com/?cid=9608210935287028882&g_mp=Cilnb29nbGUubWFwcy5wbGFjZXMudjEuUGxhY2VzLlNlYXJjaE5lYXJieRACGAQgAA,church;place_of_worship;association_or_organization;point_of_interest;establishment,church,Suong
ChIJ5QPKYoNrDDERkekqy4XSd3o,бһ–бҹ’бһҡбҹҮбһңбһ·бһ бһ¶бһҡбһҠбҹҶбһҺбһ№бһ„бһӣбҹ’бһў бһҖбҹҶбһ–бһ„бҹӢбһ…бһ¶бһҳ,cultural,church,Church,sightseeing,11.989428199999999,105.4399985,"XCQR+F7Q, Krong Kampong Cham, Cambodia",1,1,,OPERATIONAL,,https://maps.google.com/?cid=8824753466936846737&g_mp=Cilnb29nbGUubWFwcy5wbGFjZXMudjEuUGxhY2VzLlNlYXJjaE5lYXJieRACGAQgAA,church;place_of_worship;association_or_organization;point_of_interest;establishment,church,Suong
ChIJIWzlyZlBDDER135opKPzdqE,New Life Fellowship Kampong Cham,cultural,church,Church,sightseeing,12.0134066,105.4499496,"2F72+92, Krong Kampong Cham, Cambodia",5,1,,OPERATIONAL,,https://maps.google.com/?cid=11634754571521785559&g_mp=Cilnb29nbGUubWFwcy5wbGFjZXMudjEuUGxhY2VzLlNlYXJjaE5lYXJieRACGAQgAA,church;place_of_worship;association_or_organization;point_of_interest;establishment,church,Suong
ChIJh-VpPwxrDDERj_tcnSKyzDw,Assembly of God Church,cultural,church,Church,sightseeing,11.9831899,105.4556724,"223, Krong Kampong Cham 022514, Cambodia",,,,OPERATIONAL,,https://maps.google.com/?cid=4381072399263398799&g_mp=Cilnb29nbGUubWFwcy5wbGFjZXMudjEuUGxhY2VzLlNlYXJjaE5lYXJieRACGAQgAA,church;coffee_shop;cafe;laundry;place_of_worship;food_store;school;association_or_organization;store;food;point_of_interest;educational_institution;service;establishment,church,Suong
ChIJTVGrQtJBDDERqEW3PIyG9XE,Liberty Bible Baptist Church,cultural,church,Church,sightseeing,12.0112053,105.4573375,"393 Lou Ath Village Boeung Kork Commune Kampong Cham City, Cambodia",5,2,,OPERATIONAL,,https://maps.google.com/?cid=8211617432452154792&g_mp=Cilnb29nbGUubWFwcy5wbGFjZXMudjEuUGxhY2VzLlNlYXJjaE5lYXJieRACGAQgAA,church;place_of_worship;school;association_or_organization;point_of_interest;educational_institution;establishment,church,Suong
ChIJZcxyNxptDDERHCDpZu6BvSo,бһҹбһ¶бһӣбһ¶бһ”бһ»бһҺбҹ’бһҷ бһ—бһјбһҳбһ·бһҖбҹҶбһ–бһ„бҹӢбһӘбһҮбҹ’бһҡбһ№бһ„,cultural,church,Church,sightseeing,11.896771699999999,105.45457189999999,"VFW3+PR4, Unnamed Road, Kaoh Soutin, Cambodia",5,1,,OPERATIONAL,,https://maps.google.com/?cid=3079760581120040988&g_mp=Cilnb29nbGUubWFwcy5wbGFjZXMudjEuUGxhY2VzLlNlYXJjaE5lYXJieRACGAQgAA,church;place_of_worship;association_or_organization;point_of_interest;establishment,church,Suong
ChIJ6aaN8WxjDDERd8XXElQEYDs,бһҠбһ„бһҖбһ¶бҹҶбһ”бһ·бһҸ,cultural,mosque,Mosque,sightseeing,11.8856526,105.7129484,"VPM7+Q5, Suong, Cambodia",2.3,4,,OPERATIONAL,,https://maps.google.com/?cid=4278424405141865847&g_mp=Cilnb29nbGUubWFwcy5wbGFjZXMudjEuUGxhY2VzLlNlYXJjaE5lYXJieRACGAQgAA,mosque;place_of_worship;association_or_organization;point_of_interest;establishment,mosque,Suong
ChIJVypL0WKFDDERsYZcPSkgLEc,Masjid Chimoan Lech бһңбһ·бһ бһ¶бһҡбһҘбһҹбҹ’бһӣбһ¶бһҳ бһ—бһјбһҳбһ·бһҮбһёбһҳбһ¶бһ“бҹӢбһӣбһ·бһ…,cultural,mosque,Mosque,sightseeing,11.766858599999999,105.9368652,"NR72, Cambodia",4.7,42,,OPERATIONAL,,https://maps.google.com/?cid=5128509437163374257&g_mp=Cilnb29nbGUubWFwcy5wbGFjZXMudjEuUGxhY2VzLlNlYXJjaE5lYXJieRACGAQgAA,mosque;place_of_worship;association_or_organization;point_of_interest;establishment,mosque,Suong
ChIJE8u2HwBfDDERE3a1zSmngUQ,бһҡбһҖбһ¶бһҡбһ”бҹ’бһҡбһ¶бҹҶ,cultural,mosque,Mosque,sightseeing,12.031462,105.7262112,"2PJG+HF, бһҖбҹ’бһҡбһ»бһ„бһҹбһҪбһ„, Cambodia",5,6,,OPERATIONAL,,https://maps.google.com/?cid=4936410464561493523&g_mp=Cilnb29nbGUubWFwcy5wbGFjZXMudjEuUGxhY2VzLlNlYXJjaE5lYXJieRACGAQgAA,mosque;place_of_worship;association_or_organization;point_of_interest;establishment,mosque,Suong
ChIJRR3u8RdfDDER_fc0penTTpk,бһҳбҹүбһ¶бһҹбҹ’бһҮбһ·бһ‘бһ“бһјбһҡбҹүбһ»бһ‘бҹ’бһ‘бһёбһ“ бһ—бһјбһҳбһ·бһҡбһҖбһ¶бһ–бһ”бҹ’бһҡбһ¶бҹҶ1 бһғбһ»бҹҶвҖӢбһҡбһҖбһ¶бһ–бһ”бҹ’бһҡбһ¶бҹҶ бһҹбҹ’бһҡбһ»бһҖбһҸбҹ’бһ”бһјбһ„бһғбҹ’бһҳбһ»бҹҶ бһҒбҹҒбһҸбҹ’бһҸвҖӢбһҸбҹ’бһ”бһјбһ„бһғбҹ’бһҳбһ»бҹҶвҖӢвҖӢ,cultural,mosque,Mosque,sightseeing,12.0370285,105.72252220000001,"2PPF+R26, Suong, Cambodia",4.4,17,,OPERATIONAL,,https://maps.google.com/?cid=11046999936438958077&g_mp=Cilnb29nbGUubWFwcy5wbGFjZXMudjEuUGxhY2VzLlNlYXJjaE5lYXJieRACGAQgAA,mosque;place_of_worship;association_or_organization;point_of_interest;establishment,mosque,Suong
ChIJE5dwBWoXDDERQnmGHe6S6p0,Masjid alnuwar Bahin Tongsa,cultural,mosque,Mosque,sightseeing,11.947699799999999,105.23771629999999,"W6XQ+33G, Angkor Ban, Cambodia",4.5,11,,OPERATIONAL,,https://maps.google.com/?cid=11379068959900203330&g_mp=Cilnb29nbGUubWFwcy5wbGFjZXMudjEuUGxhY2VzLlNlYXJjaE5lYXJieRACGAQgAA,mosque;place_of_worship;association_or_organization;point_of_interest;establishment,mosque,Suong
ChIJ3RwqohdNDDERx8M1o4Qx1zI,бһ—бһјбһҳбһ·бһ‘бҹ’бһҡбһ¶,cultural,mosque,Mosque,sightseeing,12.2809986,105.5181302,"7GJ9+97R, Phum Meakh, Cambodia",5,1,,OPERATIONAL,,https://maps.google.com/?cid=3663451267632841671&g_mp=Cilnb29nbGUubWFwcy5wbGFjZXMudjEuUGxhY2VzLlNlYXJjaE5lYXJieRACGAQgAA,mosque;place_of_worship;association_or_organization;point_of_interest;establishment,mosque,Suong
ChIJAQAAzzP_DDERUJHSpECffEc,Masjid Jame' Chumnik,cultural,mosque,Mosque,sightseeing,12.251811799999999,105.81380240000001,"308, Cambodia",,,,OPERATIONAL,,https://maps.google.com/?cid=5151167173796991312&g_mp=Cilnb29nbGUubWFwcy5wbGFjZXMudjEuUGxhY2VzLlNlYXJjaE5lYXJieRACGAQgAA,mosque;place_of_worship;association_or_organization;point_of_interest;establishment,mosque,Suong
ChIJTxPILxppDDERuvEBAftoeMg,Masjid Tuol Ponley,cultural,mosque,Mosque,sightseeing,11.9852914,105.5682655,"XHP9+486, Unnamed Road, Tonle Bet, Cambodia",4.2,6,,OPERATIONAL,,https://maps.google.com/?cid=14445411232053850554&g_mp=Cilnb29nbGUubWFwcy5wbGFjZXMudjEuUGxhY2VzLlNlYXJjaE5lYXJieRACGAQgAA,mosque;place_of_worship;association_or_organization;point_of_interest;establishment,mosque,Suong
ChIJNbcVGwBTDDERUO5soDloKCQ,бһ—бһјбһҳбһ·бһ‘бһё 5,cultural,mosque,Mosque,sightseeing,12.2710919,105.6521538,"7MC2+CVJ, Krouch Chhmar, Cambodia",4,4,,OPERATIONAL,,https://maps.google.com/?cid=2605446981147749968&g_mp=Cilnb29nbGUubWFwcy5wbGFjZXMudjEuUGxhY2VzLlNlYXJjaE5lYXJieRACGAQgAA,mosque;place_of_worship;association_or_organization;point_of_interest;establishment,mosque,Suong
ChIJFXgeI9T-DDERAJ9vePZOfYs,Masjid Al-Amaniah,cultural,mosque,Mosque,sightseeing,12.2509509,105.83324069999999,"308, Cambodia",3.3,16,,OPERATIONAL,,https://maps.google.com/?cid=10051276763850317568&g_mp=Cilnb29nbGUubWFwcy5wbGFjZXMudjEuUGxhY2VzLlNlYXJjaE5lYXJieRACGAQgAA,mosque;place_of_worship;association_or_organization;point_of_interest;establishment,mosque,Suong
ChIJzxOFCQBrDDERJXxrT5pHneM,Masjid Jamek Negeri Kampong Cham,cultural,mosque,Mosque,sightseeing,11.974867999999999,105.4550486,"XFF4+W2V, Krong Kampong Cham, Cambodia",4.7,7,,OPERATIONAL,,https://maps.google.com/?cid=16401344146036194341&g_mp=Cilnb29nbGUubWFwcy5wbGFjZXMudjEuUGxhY2VzLlNlYXJjaE5lYXJieRACGAQgAA,mosque;place_of_worship;association_or_organization;point_of_interest;establishment,mosque,Suong
ChIJuV1_P4_tDDER1COhmoNaVJY,31 masjid senphol,cultural,mosque,Mosque,sightseeing,12.046412,106.0583944,"23W5+H96, Memot, Cambodia",5,6,,OPERATIONAL,https://www.facebook.com/share/1FQcEBGfxd/?mibextid=wwXIfr,https://maps.google.com/?cid=10832382525014352852&g_mp=Cilnb29nbGUubWFwcy5wbGFjZXMudjEuUGxhY2VzLlNlYXJjaE5lYXJieRACGAQgAA,mosque;place_of_worship;association_or_organization;point_of_interest;establishment,mosque,Suong
ChIJC8UV2I5FDDERCzz3e42Ca8w,Masjid Kampong Treas,cultural,mosque,Mosque,sightseeing,12.123680700000001,105.5467336,"308, Cambodia",4,5,,OPERATIONAL,,https://maps.google.com/?cid=14730010550427139083&g_mp=Cilnb29nbGUubWFwcy5wbGFjZXMudjEuUGxhY2VzLlNlYXJjaE5lYXJieRACGAQgAA,mosque;place_of_worship;association_or_organization;point_of_interest;establishment,mosque,Suong
ChIJK_OADQNfDDERO_uWkZcSdZ4,бһңбһ·бһ бһ¶бһҡбһҘбһҹбҹ’бһӣбһ¶бһҳ бһўбһ¶бһӣбҹӢбһҳбһјбһ”бһ¶бһҡбҹүбһ№бһҖбҹ’бһҒ бһңбһ¶бһӣбһғбҹ’бһҳбһ»бҹҶ,cultural,mosque,Mosque,sightseeing,11.9913286,105.7074001,"XPR4+GXJ, Cambodia",4.8,4,,OPERATIONAL,,https://maps.google.com/?cid=11418052872459713339&g_mp=Cilnb29nbGUubWFwcy5wbGFjZXMudjEuUGxhY2VzLlNlYXJjaE5lYXJieRACGAQgAA,mosque;place_of_worship;association_or_organization;point_of_interest;establishment,mosque,Suong
ChIJV5TErtn3DDERMfRorZpp31s,Masjid Sen Chom бһңбһ·бһ бһ¶бһҡбһҘбһҹбҹ’бһӣбһ¶бһҳ бһ—бһјбһҳбһ·бһҹбҹӮбһ“бһҮбһ»бҹҶ,cultural,mosque,Mosque,sightseeing,12.154236599999999,105.84059909999999,"5R3R+M6X, Cambodia",5,2,,OPERATIONAL,,https://maps.google.com/?cid=6620126090313135153&g_mp=Cilnb29nbGUubWFwcy5wbGFjZXMudjEuUGxhY2VzLlNlYXJjaE5lYXJieRACGAQgAA,mosque;place_of_worship;association_or_organization;point_of_interest;establishment,mosque,Suong
ChIJ4XEuAqltDDEREmzczEbgIc8,Masjid Phum Dabbei Loeu бһңбһ·бһ бһ¶бһҡбһҘбһҹбҹ’бһӣбһ¶бһҳ бһ—бһјбһҳбһ·бҹЎбҹЈбһӣбһҫ,cultural,mosque,Mosque,sightseeing,11.9012646,105.42080449999999,"WC2C+G83, Kaoh Soutin, Cambodia",4.9,7,,OPERATIONAL,,https://maps.google.com/?cid=14925457234771864594&g_mp=Cilnb29nbGUubWFwcy5wbGFjZXMudjEuUGxhY2VzLlNlYXJjaE5lYXJieRACGAQgAA,mosque;place_of_worship;association_or_organization;point_of_interest;establishment,mosque,Suong
ChIJDVU9MZaIDDERMSob5od53kY,Masjid Phum Thmey,cultural,mosque,Mosque,sightseeing,11.816377399999999,105.8515058,"RV82+HJ2, Cambodia",4.6,12,,OPERATIONAL,,https://maps.google.com/?cid=5106652652072806961&g_mp=Cilnb29nbGUubWFwcy5wbGFjZXMudjEuUGxhY2VzLlNlYXJjaE5lYXJieRACGAQgAA,mosque;place_of_worship;association_or_organization;point_of_interest;establishment,mosque,Suong
ChIJMzMZEjGFDDERjTfXpGSFChk,Masjid Lor бһңбһ·бһ бһ¶бһҡбһҘбһҹбҹ’бһӣбһ¶бһҳ бһ—бһјбһҳбһ·бһЎ,cultural,mosque,Mosque,sightseeing,11.7911942,105.8846852,"QVRM+FVF, Ponhea Kraek District, Cambodia",3.7,3,,OPERATIONAL,,https://maps.google.com/?cid=1804401268024096653&g_mp=Cilnb29nbGUubWFwcy5wbGFjZXMudjEuUGxhY2VzLlNlYXJjaE5lYXJieRACGAQgAA,mosque;place_of_worship;association_or_organization;point_of_interest;establishment,mosque,Suong
ChIJxZLcF0tTDDER_O3M2r_VIms,Masjid Raudhatul Jannah Darussalam,cultural,mosque,Mosque,sightseeing,12.251410499999999,105.69644439999999,"7M2W+HH8, Cambodia",4.9,15,,OPERATIONAL,,https://maps.google.com/?cid=7719967731252784636&g_mp=Cilnb29nbGUubWFwcy5wbGFjZXMudjEuUGxhY2VzLlNlYXJjaE5lYXJieRACGAQgAA,mosque;place_of_worship;association_or_organization;point_of_interest;establishment,mosque,Suong
ChIJq4rRK1phDDERxqAsZBQPEe4,Щ…ШіШ¬ШҜ ШҜЩҲШ§Щ„ ШӘЩҮЩ…ЩҠ Tourl Thmey Mosque,cultural,mosque,Mosque,sightseeing,11.9742862,105.7120327,"XPF6+PR7, Cambodia",4,2,,OPERATIONAL,,https://maps.google.com/?cid=17154509035885338822&g_mp=Cilnb29nbGUubWFwcy5wbGFjZXMudjEuUGxhY2VzLlNlYXJjaE5lYXJieRACGAQgAA,mosque;place_of_worship;association_or_organization;point_of_interest;establishment,mosque,Suong
ChIJnwznvL51DDERq7iKI9OwegY,бһҹбһҪбһ“бһҹбһҸбҹ’бһң бһҜбһҖбһ§бһҸбҹ’бһҸбһҳбһүбһ№бһҳ бһңбһҺбҹ’бһҺбһҠбһ¶,nature,zoo,Zoo,wildlife,11.6512487,105.4824199,"JFXM+75W, Cambodia",5,4,,OPERATIONAL,,https://maps.google.com/?cid=466879932267149483&g_mp=Cilnb29nbGUubWFwcy5wbGFjZXMudjEuUGxhY2VzLlNlYXJjaE5lYXJieRACGAQgAA,zoo;point_of_interest;establishment,zoo,Suong
ChIJqcuOLQCDDDERHnMqJLGoDNw,жұҹеұұж°ҙж—Ҹ,nature,aquarium,Aquarium,wildlife,11.704388900000001,105.9656292,PX38+Q7272 Cambodia,5,2,,OPERATIONAL,,https://maps.google.com/?cid=15856233866834113310&g_mp=Cilnb29nbGUubWFwcy5wbGFjZXMudjEuUGxhY2VzLlNlYXJjaE5lYXJieRACGAQgAA,aquarium;point_of_interest;establishment,aquarium,Suong
ChIJtY1VMjs5DDER9hq-qZKFbuU,бһ•бҹ’бһ‘бҹҮбһ–бһјбһ’бһё бһўбҹүбһёбһӮбһ¶,nature,aquarium,Aquarium,wildlife,12.1680625,105.32618749999999,"589G+6F6, Bos Khnor 12000, Cambodia",,,,OPERATIONAL,,https://maps.google.com/?cid=16532298147083197174&g_mp=Cilnb29nbGUubWFwcy5wbGFjZXMudjEuUGxhY2VzLlNlYXJjaE5lYXJieRACGAQgAA,aquarium;point_of_interest;establishment,aquarium,Suong
ChIJ8fa3VgALDDERCSXxswD7QK4,бһҹбһҪбһ“бһ‘бһ№бһҖбһ бһ»бһ„бһҲбһҝбһ“ K M N,urban,amusement_park,Amusement Park,rides,11.71673,105.36270789999999,"P987+M3W, Cambodia",4,1,,OPERATIONAL,,https://maps.google.com/?cid=12556311741546439945&g_mp=Cilnb29nbGUubWFwcy5wbGFjZXMudjEuUGxhY2VzLlNlYXJjaE5lYXJieRACGAQgAA,amusement_park;point_of_interest;establishment,amusement_park,Suong
ChIJQaz0dNxdDDERlcsSm_83meM,бһҹбһҪбһ“бһ‘бһ№бһҖбһ—бһјбһҳбһ·бһ”бҹғбһҸбһ„,urban,water_park,Water Park,rides,12.0669881,105.68693449999999,"бһ•бҹ’бһӣбһјбһңбһӣбҹҶ, бһ—бһјбһҳбһ·бһҸбһ¶бһ”бҹүбһ¶бһңбһ”бҹҶбһ–бҹҒбһүбһ‘бҹҒбһҹ, Cambodia",2.3,3,,OPERATIONAL,,https://maps.google.com/?cid=16400201089004260245&g_mp=Cilnb29nbGUubWFwcy5wbGFjZXMudjEuUGxhY2VzLlNlYXJjaE5lYXJieRACGAQgAA,water_park;amusement_park;point_of_interest;establishment,amusement_park,Suong
ChIJ-8wNp2uHDDERXBoX1GXGK84,бһҹбһҪбһ“бһ‘бһ№бһҖбһҹбһ·бһҡбһёбһҳбһ„бҹ’бһӮбһӣ 168 Water park Serey Mongkul 168,urban,water_park,Water Park,rides,11.791416000000002,105.863939,"QVR7+HH, Ponhea Kraek District, Cambodia",,,,OPERATIONAL,,https://maps.google.com/?cid=14856185936463993436&g_mp=Cilnb29nbGUubWFwcy5wbGFjZXMudjEuUGxhY2VzLlNlYXJjaE5lYXJieRACGAQgAA,water_park;amusement_park;point_of_interest;establishment,amusement_park,Suong
ChIJO_8_NRhxDDEREuJyANtlmIA,бһҸбһ¶бһҡбһ¶бһ„бһ”бһ¶бһӣбҹӢбһ‘бһ¶бһҸбҹӢбһңбһ·бһ‘бҹ’бһҷбһ¶бһӣбҹҗбһҷбһ бҹҠбһ»бһ“вҖӢбһҹбҹӮбһ“бһўбһјбһҡбһ¶бҹҶбһ„бһӘ,urban,stadium,Stadium,,11.789566599999999,105.5018116,"QGQ2+RPF, Ou Reang Ov District, Cambodia",5,2,,OPERATIONAL,https://www.facebook.com/share/14EWtR5SV2D/?mibextid=wwXIfr,https://maps.google.com/?cid=9266268224594567698&g_mp=Cilnb29nbGUubWFwcy5wbGFjZXMudjEuUGxhY2VzLlNlYXJjaE5lYXJieRACGAQgAA,stadium;sports_complex;event_venue;sports_activity_location;point_of_interest;establishment,stadium,Suong
ChIJqVoj77tTDDERyqn_WYRo1c8,бһҖбһёбһЎбһҠбҹ’бһӢбһ¶бһ“ бһ—бһјбһҳбһ·бһҒбҹ’бһ–бһ”бҹўвҖӢ,urban,stadium,Stadium,,12.258825,105.6690437,"7M59+GJM, Cambodia",5,3,,OPERATIONAL,,https://maps.google.com/?cid=14975991053545351626&g_mp=Cilnb29nbGUubWFwcy5wbGFjZXMudjEuUGxhY2VzLlNlYXJjaE5lYXJieRACGAQgAA,stadium;sports_complex;event_venue;sports_activity_location;point_of_interest;establishment,stadium,Suong
ChIJR87QnA8RDDERt14BU8URTWI,бһҸбһ¶бһҡбһ¶бһ„бһҸбһ¶бһ“бһ„бҹӢбһ—бһјбһҳбһ·бһ‘бһёбҹЎбҹЎ,urban,stadium,Stadium,,11.9000559,105.2686197,"W729+2CH, Krong Kampong Cham, Cambodia",4.7,7,,OPERATIONAL,,https://maps.google.com/?cid=7083337328122486455&g_mp=Cilnb29nbGUubWFwcy5wbGFjZXMudjEuUGxhY2VzLlNlYXJjaE5lYXJieRACGAQgAA,stadium;sports_complex;event_venue;sports_activity_location;point_of_interest;establishment,stadium,Suong
ChIJQYo13UDzDDEREt4rgCqIPt8,бһҸбһ¶бһҡбһ¶бһ„бһ”бһ¶бһӣбҹӢбһ‘бһ¶бһҸбҹӢбһ”бһ“бҹ’бһ‘бһ¶бһҷбһ‘бһ¶бһ бһ¶бһ“ бҹўбҹЎбҹЈ бһҸбҹҶбһ”бҹӮбһҡ.бһҒбҹҒбһҸбҹ’бһҠбһҸбҹ’бһ”бһјбһ„бһғбҹ’бһҳбһ»бҹҶ,urban,stadium,Stadium,,12.019474899999999,105.88971099999999,"2V9Q+QV, Phumi TrГўpeang Rumduol Roessei, Cambodia",,,,OPERATIONAL,,https://maps.google.com/?cid=16086444635134352914&g_mp=Cilnb29nbGUubWFwcy5wbGFjZXMudjEuUGxhY2VzLlNlYXJjaE5lYXJieRACGAQgAA,stadium;sports_complex;event_venue;sports_activity_location;point_of_interest;establishment,stadium,Suong
ChIJ-RqemUv7DDERH2A-j1mq_Jg,бһҸбһ¶бһҡбһ¶бһ„бһ”бһ¶бһӣбҹӢбһ‘бһ¶бһҸбҹӢ бһҗбҹ’бһ“бһӣбҹӢбһҖбҹӮбһ„,urban,stadium,Stadium,,12.159219799999999,105.914861,"5W57+MWQ, Cambodia",5,1,,OPERATIONAL,,https://maps.google.com/?cid=11023873289528172575&g_mp=Cilnb29nbGUubWFwcy5wbGFjZXMudjEuUGxhY2VzLlNlYXJjaE5lYXJieRACGAQgAA,stadium;sports_complex;event_venue;sports_activity_location;point_of_interest;establishment,stadium,Suong
ChIJVVVVwX1qDDERrnraFNLyLjQ,Kampong Cham Stadium,urban,stadium,Stadium,,11.9949623,105.45550259999999,"XFV4+X6J, Krong Kampong Cham, Cambodia",3,1,,OPERATIONAL,,https://maps.google.com/?cid=3760209723007859374&g_mp=Cilnb29nbGUubWFwcy5wbGFjZXMudjEuUGxhY2VzLlNlYXJjaE5lYXJieRACGAQgAA,stadium;sports_complex;event_venue;sports_activity_location;point_of_interest;establishment,stadium,Suong
ChIJoVQSptn9DDEROuyowHz5YX4,бһҖбһёбһЎбһ¶бһҠбҹ’бһӢбһ¶бһ“ бһ—бҹ’бһӣбһ№бһ”бһҘбһ“бҹ’бһ‘бҹ’бһҡбһёбһҖбҹ’бһҡбһ бһҳбһ–бһ„бҹ’бһҡ,urban,stadium,Stadium,,12.2525426,105.910141,"7W35+3X, Chhlong, Cambodia",5,1,,OPERATIONAL,,https://maps.google.com/?cid=9106834235723410490&g_mp=Cilnb29nbGUubWFwcy5wbGFjZXMudjEuUGxhY2VzLlNlYXJjaE5lYXJieRACGAQgAA,stadium;sports_complex;event_venue;sports_activity_location;point_of_interest;establishment,stadium,Suong
ChIJI6HOC6RiCzER5gEdWnPsINw,SГўn Vбәӯn Дҗб»ҷng XГЈ TГўn Lбәӯp,urban,stadium,Stadium,,11.6112509,105.98740740000001,"JX6P+GX3, Tan Lap, Tay Ninh, Vietnam",3.5,31,,CLOSED_TEMPORARILY,,https://maps.google.com/?cid=15861937867776131558&g_mp=Cilnb29nbGUubWFwcy5wbGFjZXMudjEuUGxhY2VzLlNlYXJjaE5lYXJieRACGAQgAA,stadium;sports_complex;event_venue;sports_activity_location;point_of_interest;establishment,stadium,Suong
ChIJNfG5LwBpDDERw4O56ateFSQ,бһ‘бһёбһӣбһ¶бһ“бһ”бһ¶бһӣбҹӢбһ‘бһ¶бһҸбҹӢ бһ—бһјбһҳбһ·бһ‘бһҪбһӣбһ–бһ“бҹ’бһӣбҹғ,urban,stadium,Stadium,,11.9867105,105.5728854,"XHP9+FH, Tonle Bet, Cambodia",5,1,,OPERATIONAL,,https://maps.google.com/?cid=2600088452329997251&g_mp=Cilnb29nbGUubWFwcy5wbGFjZXMudjEuUGxhY2VzLlNlYXJjaE5lYXJieRACGAQgAA,stadium;sports_complex;event_venue;sports_activity_location;point_of_interest;establishment,stadium,Suong
ChIJibtIjrD8DDERlkqD1sv8UrE,Sei La Vayti Keatchun High School Stadium,urban,stadium,Stadium,,12.2530059,105.9598541,"7X35+6W5, NR73, Chhlong, Cambodia",4.2,30,,OPERATIONAL,,https://maps.google.com/?cid=12777553045211007638&g_mp=Cilnb29nbGUubWFwcy5wbGFjZXMudjEuUGxhY2VzLlNlYXJjaE5lYXJieRACGAQgAA,stadium;sports_complex;event_venue;sports_activity_location;point_of_interest;establishment,stadium,Suong
ChIJz8F653MNDDER0q06GTVk1L4,бһҸбһ¶бһҡбһ¶бһ„бһ”бһ¶бһӣбҹӢбһ‘бһ¶бһҸбҹӢбһғбһ»бҹҶбһ–бҹ’бһҡбҹғбһ‘бһ№бһ„,urban,stadium,Stadium,,11.746946099999999,105.3632839,"P9W7+Q8F, Unnamed Road, Sithor Kandal District, Cambodia",5,2,,OPERATIONAL,,https://maps.google.com/?cid=13750725741488287186&g_mp=Cilnb29nbGUubWFwcy5wbGFjZXMudjEuUGxhY2VzLlNlYXJjaE5lYXJieRACGAQgAA,stadium;sports_complex;event_venue;sports_activity_location;point_of_interest;establishment,stadium,Suong
ChIJyYdBcQBhDDERPG1Ge9BvaFM,бһ—бһјбһҳбһ·бһҹбҹҶбһ”бһҪбһҡ бһғбһ»бҹҶбһӮбһҡ бһҹбҹ’бһҡбһ»бһҖбһҸбҹ’бһ”бһјбһ„бһғбҹ’бһҳбһ»бҹҶ бһҒбҹҒбһҸбҹ’бһҸбһҸбҹ’бһ”бһјбһ„бһғбҹ’бһҳбһ»бҹҶ,urban,stadium,Stadium,,11.9723081,105.7306996,"XPCJ+W7G, Kor, Cambodia",5,1,,OPERATIONAL,,https://maps.google.com/?cid=6010176643938020668&g_mp=Cilnb29nbGUubWFwcy5wbGFjZXMudjEuUGxhY2VzLlNlYXJjaE5lYXJieRACGAQgAA,stadium;sports_complex;event_venue;sports_activity_location;point_of_interest;establishment,stadium,Suong
ChIJawx8PABTDDERm5Ct96oq_gY,бһ‘бһёбһӣбһ¶бһ“бһ”бһ¶бһӣбҹӢбһ‘бһ¶бһҸбҹӢбһҹбҹ’бһңбһ¶бһҷбһғбҹ’бһӣбһ¶бҹҶбһ„(бһ—бһјбһҳбһ·бһ‘бһёбҹҘ)вҖӢ бһҹбҹ’бһҡбһ»бһҖбһҖбҹ’бһҡбһјбһ…бһҶбҹ’бһҳбһ¶бһҡвҖӢ бһҒбҹҒбһҸбҹ’бһҸбһҸбҹ’бһ”бһјбһ„бһғбҹ’бһҳбһ»бҹҶ,urban,stadium,Stadium,,12.2708221,105.6501306,"7MC2+83C, 308, Krouch Chhmar, Cambodia",,,,OPERATIONAL,,https://maps.google.com/?cid=503887122100228251&g_mp=Cilnb29nbGUubWFwcy5wbGFjZXMudjEuUGxhY2VzLlNlYXJjaE5lYXJieRACGAQgAA,stadium;sports_complex;event_venue;sports_activity_location;point_of_interest;establishment,stadium,Suong
ChIJYyOu7wuFDDERGtxutxzNdYc,Raksmey Phkaypich Guest House,urban,guest_house,Guest House,nightlife,11.7707333,105.9280568,"QWCH+76V, Cambodia",4.2,60,,OPERATIONAL,,https://maps.google.com/?cid=9760933290615692314&g_mp=Cilnb29nbGUubWFwcy5wbGFjZXMudjEuUGxhY2VzLlNlYXJjaE5lYXJieRACGAQgAA,guest_house;night_club;karaoke;bar;lodging;restaurant;point_of_interest;food;association_or_organization;establishment,night_club,Suong
ChIJV2O7vHdrDDER3vw3x6ppz94,бһҖбҹ„бҹҮбһ”бҹүбҹӮбһ“ бһ“бҹ’бһӣбҹӮбһ„бһүбһ»бҹҶбһўбһё,urban,night_club,Night Club,nightlife,11.967986999999999,105.460139,"XF96+53, Krong Kampong Cham, Cambodia",4.7,6,,OPERATIONAL,,https://maps.google.com/?cid=16055167378806799582&g_mp=Cilnb29nbGUubWFwcy5wbGFjZXMudjEuUGxhY2VzLlNlYXJjaE5lYXJieRACGAQgAA,night_club;point_of_interest;establishment,night_club,Suong
ChIJ4zP0HqVrDDERaOnOa0pauH0,57 Club KPC,urban,night_club,Night Club,nightlife,11.9941008,105.46622669999999,"XFV8+MG9, Krong Kampong Cham, Cambodia",4,4,,OPERATIONAL,,https://maps.google.com/?cid=9059089926138554728&g_mp=Cilnb29nbGUubWFwcy5wbGFjZXMudjEuUGxhY2VzLlNlYXJjaE5lYXJieRACGAQgAA,night_club;point_of_interest;establishment,night_club,Suong
ChIJuy-IbQmLCzERrhPqezuorus,бһўбһ¶бһ бһ¶бһҡбһҠбҹ’бһӢбһ¶бһ“ бһҖбһ»бһӣбһ¶бһ”бһҹ KTV,urban,bar,Bar,nightlife,11.592744,105.43314799999999,"Svay Antor, Cambodia",3.9,15,,OPERATIONAL,,https://maps.google.com/?cid=16982696218296193966&g_mp=Cilnb29nbGUubWFwcy5wbGFjZXMudjEuUGxhY2VzLlNlYXJjaE5lYXJieRACGAQgAA,night_club;karaoke;bar;point_of_interest;establishment,night_club,Suong
ChIJ20ExNwCLCzERUj8UhfuheZ0,бһңбһ·бһҳбһ¶бһ“бһҹбһҪбһӮбҹҢVMS-(KTV),urban,bar,Bar,nightlife,11.603609899999999,105.42326279999999,"JC3F+C86, Svay Antor, Cambodia",,,,OPERATIONAL,,https://maps.google.com/?cid=11347278837778235218&g_mp=Cilnb29nbGUubWFwcy5wbGFjZXMudjEuUGxhY2VzLlNlYXJjaE5lYXJieRACGAQgAA,night_club;karaoke;bar;point_of_interest;establishment,night_club,Suong
ChIJvfNS79llDDERJcbrcscGWzs,бһҡбһҖбһ¶бһғбҹ’бһ“бһҪбһ…,urban,night_club,Night Club,nightlife,11.869846299999999,105.6347552,"VJ9M+WW, Suong, Cambodia",5,3,,OPERATIONAL,,https://maps.google.com/?cid=4277019724814730789&g_mp=Cilnb29nbGUubWFwcy5wbGFjZXMudjEuUGxhY2VzLlNlYXJjaE5lYXJieRACGAQgAA,night_club;point_of_interest;establishment,night_club,Suong
ChIJP7IBJoFnDDERX5BJBakPMdw,KTV 67 TBK,urban,bar,Bar,nightlife,11.9081149,105.65929679999999,"WM55+48Q, Suong, Cambodia",3.6,11,,OPERATIONAL,,https://maps.google.com/?cid=15866480180815564895&g_mp=Cilnb29nbGUubWFwcy5wbGFjZXMudjEuUGxhY2VzLlNlYXJjaE5lYXJieRACGAQgAA,night_club;karaoke;bar;point_of_interest;establishment,night_club,Suong
ChIJ42EB4nBrDDERqM6P8XNBt9I,KTV,urban,night_club,Night Club,nightlife,11.9635113,105.4475839,"XC7X+C24, Cambodia",3.8,6,,OPERATIONAL,,https://maps.google.com/?cid=15183676634932694696&g_mp=Cilnb29nbGUubWFwcy5wbGFjZXMudjEuUGxhY2VzLlNlYXJjaE5lYXJieRACGAQgAA,night_club;point_of_interest;establishment,night_club,Suong
ChIJAxNttylnDDER8c0TEA7v5S4,бһңбһҸбҹ’бһҸ бһӣбҹ’бһ„бҹҖбһ„,urban,night_club,Night Club,nightlife,11.911204,105.6520404,"Suong, Cambodia",5,1,,OPERATIONAL,,https://maps.google.com/?cid=3379369939089739249&g_mp=Cilnb29nbGUubWFwcy5wbGFjZXMudjEuUGxhY2VzLlNlYXJjaE5lYXJieRACGAQgAA,night_club;point_of_interest;establishment,night_club,Suong
ChIJFUE1AQJrDDER_iSZro9TyEM,The Boss KC,urban,lounge_bar,Lounge bar,nightlife,11.9933918,105.4665452,"PR222, Krong Kampong Cham, Cambodia",3.5,4,,OPERATIONAL,,https://maps.google.com/?cid=4884245672458003710&g_mp=Cilnb29nbGUubWFwcy5wbGFjZXMudjEuUGxhY2VzLlNlYXJjaE5lYXJieRACGAQgAA,lounge_bar;night_club;bar;point_of_interest;establishment,night_club,Suong
ChIJk5yviTiLCzERmP4bchM8SKs,бһўбһ¶бһ бһ¶бһҡбһҠбҹ’бһӢбһ¶бһ“ бһҹбҹҶбһ–бҹ…бһҳбһ¶бһҹ бһ бҹҒбһ„ бһ бҹҒбһ„,urban,bar,Bar,nightlife,11.58391,105.4215991,"HCMC+HJ9, Svay Antor, Cambodia",3.9,16,,OPERATIONAL,,https://maps.google.com/?cid=12342180833025326744&g_mp=Cilnb29nbGUubWFwcy5wbGFjZXMudjEuUGxhY2VzLlNlYXJjaE5lYXJieRACGAQgAA,night_club;karaoke;bar;point_of_interest;establishment,night_club,Suong
ChIJK7RuaABjDDERMudgR0lc7H8,бһҮбҹҶбһ“бҹ„бһҡ63KTV,urban,bar,Bar,nightlife,11.8784976,105.7363791,"VPHP+9HR бһҸбҹ’бһҡбһ–бһ¶бҹҶбһ„бһ’бҹҶ, Cambodia",4.1,9,,OPERATIONAL,,https://maps.google.com/?cid=9217844007120463666&g_mp=Cilnb29nbGUubWFwcy5wbGFjZXMudjEuUGxhY2VzLlNlYXJjaE5lYXJieRACGAQgAA,night_club;karaoke;bar;point_of_interest;establishment,night_club,Suong
ChIJmynhXNlrDDERTS_zImuxzus,Gold Sound Ktv,urban,bar,Bar,nightlife,11.9969205,105.46691969999999,"XFW8+QQ7, Krong Kampong Cham, Cambodia",4.7,3,,OPERATIONAL,,https://maps.google.com/?cid=16991713517821439821&g_mp=Cilnb29nbGUubWFwcy5wbGFjZXMudjEuUGxhY2VzLlNlYXJjaE5lYXJieRACGAQgAA,night_club;karaoke;bar;point_of_interest;establishment,night_club,Suong
ChIJ5fgpeACDDDER0CJPXdcxiFo,бһҳбҹүбҹҒбһ„бһӣбһё бһҸбҹ’бһҡбһ–бһ¶бҹҶбһ„бһ•бҹ’бһӣбһ»бһ„бһ‘бһёбҹў,urban,night_club,Night Club,nightlife,11.7029512,105.96184269999999,"PX36+5PP, Cambodia",5,2,,OPERATIONAL,,https://maps.google.com/?cid=6523518861299360464&g_mp=Cilnb29nbGUubWFwcy5wbGFjZXMudjEuUGxhY2VzLlNlYXJjaE5lYXJieRACGAQgAA,night_club;point_of_interest;establishment,night_club,Suong
ChIJty34x4NqDDERbMuTNzcS0Y8,Gold Club,urban,night_club,Night Club,nightlife,11.998543399999999,105.44648579999999,"XCXW+CH9, NR7, Krong Kampong Cham, Cambodia",4,7,,OPERATIONAL,,https://maps.google.com/?cid=10363084245921155948&g_mp=Cilnb29nbGUubWFwcy5wbGFjZXMudjEuUGxhY2VzLlNlYXJjaE5lYXJieRACGAQgAA,night_club;point_of_interest;establishment,night_club,Suong
ChIJ3x15SQCFDDERh8QK4Q5rWDU,ANGEL MESSAGE еӨ©дҪҝдјҡжүҖ,urban,night_club,Night Club,nightlife,11.712030799999999,105.9647937,"Cambodia, DistrictPX67+RW",,,,OPERATIONAL,,https://maps.google.com/?cid=3843939993610011783&g_mp=Cilnb29nbGUubWFwcy5wbGFjZXMudjEuUGxhY2VzLlNlYXJjaE5lYXJieRACGAQgAA,night_club;point_of_interest;establishment,night_club,Suong
ChIJof-yvH2ZDDERVF87Xf6z-SI,V79,urban,night_club,Night Club,nightlife,11.742152299999999,106.10360589999999,"P4R4+4CF, Tan Lap, Tay Ninh 840000, Vietnam",,,,OPERATIONAL,,https://maps.google.com/?cid=2520243371557740372&g_mp=Cilnb29nbGUubWFwcy5wbGFjZXMudjEuUGxhY2VzLlNlYXJjaE5lYXJieRACGAQgAA,night_club;point_of_interest;establishment,night_club,Suong
ChIJBZ4EcgBBDDERyOe8Wv3cJKk,9NINE&KTV,urban,night_club,Night Club,nightlife,12.005015400000001,105.4526763,"2F33+R3X, Krong Kampong Cham, Cambodia",4.8,4,,OPERATIONAL,,https://maps.google.com/?cid=12188109472278570952&g_mp=Cilnb29nbGUubWFwcy5wbGFjZXMudjEuUGxhY2VzLlNlYXJjaE5lYXJieRACGAQgAA,night_club;point_of_interest;establishment,night_club,Suong
ChIJv8XvBMhrDDER8wy53yjTq_I,Ms Ktv,urban,bar,Bar,nightlife,12.000831699999999,105.4655767,"2F28+86P, Unnamed Road, Krong Kampong Cham, Cambodia",4.8,4,,CLOSED_TEMPORARILY,,https://maps.google.com/?cid=17486302150701681907&g_mp=Cilnb29nbGUubWFwcy5wbGFjZXMudjEuUGxhY2VzLlNlYXJjaE5lYXJieRACGAQgAA,night_club;karaoke;bar;point_of_interest;establishment,night_club,Suong
ChIJO5-IDgBxDDERDxEkPNWTom0,бһ•бҹ’бһ‘бҹҮбһ—бһ¶бһҡбһҳбҹ’бһҷ,urban,night_club,Night Club,nightlife,11.749075099999999,105.5268373,"PGXG+RJW, Kanhchriech District, Cambodia",5,1,,OPERATIONAL,,https://maps.google.com/?cid=7900039240407585039&g_mp=Cilnb29nbGUubWFwcy5wbGFjZXMudjEuUGxhY2VzLlNlYXJjaE5lYXJieRACGAQgAA,night_club;point_of_interest;establishment,night_club,Suong
ChIJC0svC35rDDERr8tVv5exYu4,LODA Kampong Cham,urban,shopping_mall,Shopping Mall,shopping,11.995498,105.4531913,"бһ•бҹ’бһӣбһјбһңвҖӢбһҮбһ¶бһҸбһ·бһӣбҹҒбһҒвҖӢбҹ§вҖӢбһ…бһ¶бһҹбҹӢ Kampong Cham, Cambodia 03204, Cambodia",4.5,6,,OPERATIONAL,https://web.facebook.com/LODA-Kampong-Cham-111958023898206,https://maps.google.com/?cid=17177487194052742063&g_mp=Cilnb29nbGUubWFwcy5wbGFjZXMudjEuUGxhY2VzLlNlYXJjaE5lYXJieRACGAQgAA,shopping_mall;point_of_interest;establishment,shopping_mall,Suong
ChIJh3ZGQpD1CzERPnD7bjJz_LQ,бһ бһ¶бһ„бһ‘бһјбһҡбһҹбҹҗбһ–бҹ’бһ‘,urban,shopping_mall,Shopping Mall,shopping,11.6485497,105.34069609999999,"J8XR+C6V, NR8, Prey Pnov, Cambodia",,,,OPERATIONAL,,https://maps.google.com/?cid=13041425281405644862&g_mp=Cilnb29nbGUubWFwcy5wbGFjZXMudjEuUGxhY2VzLlNlYXJjaE5lYXJieRACGAQgAA,shopping_mall;point_of_interest;establishment,shopping_mall,Suong
ChIJgcCyv0mLCzERgXH5BDO2awE,бһ…бҹӮ бһ…бһ¶бһ“бҹӢбһҗбҹҒбһҸ бһ—бһјбһҳбһ·бһ…бһ»бһ„бһ”бһ№бһ„,urban,shopping_mall,Shopping Mall,shopping,11.6461031,105.4610065,"JFW6+CCR, Unnamed Road, бһ–бҹ’бһҡбҹғбһҹбҹ’бһңбһ¶бһҷ, Cambodia",2.8,5,,OPERATIONAL,,https://maps.google.com/?cid=102375746789011841&g_mp=Cilnb29nbGUubWFwcy5wbGFjZXMudjEuUGxhY2VzLlNlYXJjaE5lYXJieRACGAQgAA,shopping_mall;point_of_interest;establishment,shopping_mall,Suong
ChIJ7TSg2udvDDERG9jbU31BI48,Pza Mall,urban,shopping_mall,Shopping Mall,shopping,11.8922739,105.5532666,"RN11 Tboung Khmum, 03304, Cambodia",5,5,,OPERATIONAL,,https://maps.google.com/?cid=10314159578142201883&g_mp=Cilnb29nbGUubWFwcy5wbGFjZXMudjEuUGxhY2VzLlNlYXJjaE5lYXJieRACGAQgAA,shopping_mall;store;point_of_interest;service;establishment,shopping_mall,Suong
ChIJ4U4jk31qDDERHvvU8R4VnYg,Sokruos Computer бһҹбһ»бһҒ бһҡбһҹбҹӢ бһҖбһ»бҹҶбһ–бҹ’бһҷбһјбһ‘бҹҗбһҡ,urban,shopping_mall,Shopping Mall,shopping,11.994549099999999,105.4546765,"бһ•бҹ’бһӣбһјбһңвҖӢбһҮбһ¶бһҸбһ·бһӣбҹҒбһҒвҖӢбҹ§вҖӢбһ…бһ¶бһҹбҹӢ, Krong Kampong Cham, Cambodia",3.9,14,,OPERATIONAL,,https://maps.google.com/?cid=9844047583152241438&g_mp=Cilnb29nbGUubWFwcy5wbGFjZXMudjEuUGxhY2VzLlNlYXJjaE5lYXJieRACGAQgAA,shopping_mall;electronics_store;store;point_of_interest;establishment,shopping_mall,Suong
ChIJJUejsZ5rDDERoRaPgR0vP0k,бһ”бһҺбҹ’бһҺбһ¶бһӮбһ¶бһҡбһўбһёбһ»бһҹбһ»бһҒбһ¶(Y Sokhabookshop),urban,shopping_mall,Shopping Mall,shopping,11.9895696,105.4649601,"XFQ7+RXG, Unnamed Road, бһҖбҹ’бһҡбһ»бһ„бһҖбҹҶбһ–бһ„бҹӢбһ…бһ¶бһҳ, Cambodia",2.5,2,,OPERATIONAL,,https://maps.google.com/?cid=5277989092075706017&g_mp=Cilnb29nbGUubWFwcy5wbGFjZXMudjEuUGxhY2VzLlNlYXJjaE5lYXJieRACGAQgAA,shopping_mall;point_of_interest;establishment,shopping_mall,Suong
ChIJYUombZydDDERPPw0IvW-wzo,Y Binh Supermarket,urban,shopping_mall,Shopping Mall,shopping,11.6762813,105.97201199999999,"MXGC+GR6, Cambodia",5,1,,OPERATIONAL,,https://maps.google.com/?cid=4234438034708560956&g_mp=Cilnb29nbGUubWFwcy5wbGFjZXMudjEuUGxhY2VzLlNlYXJjaE5lYXJieRACGAQgAA,shopping_mall;point_of_interest;establishment,shopping_mall,Suong
ChIJc92M5IVVDDERTAT-I9ugrTc,бһҹбһ»бһ•бһӣ бһ•бһ¶бһҡбһё бһӣбһҖбҹӢбһ‘бһјбһҡбһҹбҹҗбһ–бҹ’бһ‘бһҠбҹғ бһ“бһ·бһ„бһӮбҹ’бһҡбһҝбһ„бһўбҹҒбһЎбһ·бһ…бһҸбҹ’бһҡбһјбһ“бһ·бһ…,urban,shopping_mall,Shopping Mall,shopping,12.283633400000001,105.77570159999999,"7QMG+F74, Preaek Prasab District, Cambodia",4.3,12,,OPERATIONAL,,https://maps.google.com/?cid=4012039706119111756&g_mp=Cilnb29nbGUubWFwcy5wbGFjZXMudjEuUGxhY2VzLlNlYXJjaE5lYXJieRACGAQgAA,shopping_mall;point_of_interest;establishment,shopping_mall,Suong
ChIJh3MQamVqDDER20-crDpMSvo,Mony Medical Laboratory,urban,shopping_mall,Shopping Mall,shopping,11.9910707,105.46116730000001,"XFR6+CFF, Preah Sorya Varman 2, Kampong Cham, Cambodia",4.2,6,,OPERATIONAL,,https://maps.google.com/?cid=18035311472646311899&g_mp=Cilnb29nbGUubWFwcy5wbGFjZXMudjEuUGxhY2VzLlNlYXJjaE5lYXJieRACGAQgAA,shopping_mall;point_of_interest;establishment,shopping_mall,Suong
ChIJCTwh1BR3DDER9UKvAkdX2s8,бһҹбҹҠбһ¶бһ„бһ бһҪвҖӢ бһӣбһҖбҹӢбһӮбҹ’бһҡбһҝбһ„бһҖбҹ’бһҡбһўбһјбһ”вҖӢ бһ•бҹ’бһҹбһ¶бһҡбһҖбһүбҹ’бһҮбҹ’бһҡбҹҖбһ…,urban,shopping_mall,Shopping Mall,shopping,11.690624999999999,105.5624697,"District, Kanhchriech District, бһҖбһҳбҹ’бһ–бһ»бһҮбһ¶, бһҖ, Cambodia",4.3,6,,OPERATIONAL,,https://maps.google.com/?cid=14977379473273340661&g_mp=Cilnb29nbGUubWFwcy5wbGFjZXMudjEuUGxhY2VzLlNlYXJjaE5lYXJieRACGAQgAA,shopping_mall;point_of_interest;establishment,shopping_mall,Suong
ChIJZflU9pHzDDER-8R65zFmCs0,бһҹбҹ’бһңбһ¶бһҷбһ–бһ–бһ¶бһҹ,urban,shopping_mall,Shopping Mall,shopping,12.037558599999999,105.8886772,"2VQQ+2FF, Khum Trapeang Pring, Cambodia",2.8,12,,OPERATIONAL,,https://maps.google.com/?cid=14774733892065346811&g_mp=Cilnb29nbGUubWFwcy5wbGFjZXMudjEuUGxhY2VzLlNlYXJjaE5lYXJieRACGAQgAA,shopping_mall;point_of_interest;establishment,shopping_mall,Suong
ChIJIfdSNn0LDDER9Em2WkxaCsE,бһҮбҹҶбһ“бҹ„бһҡбһҸбһ“бһ¶ Online Shop,urban,shopping_mall,Shopping Mall,shopping,11.7080127,105.3586232,"314, Cambodia",3.6,5,,OPERATIONAL,,https://maps.google.com/?cid=13910029683073108468&g_mp=Cilnb29nbGUubWFwcy5wbGFjZXMudjEuUGxhY2VzLlNlYXJjaE5lYXJieRACGAQgAA,shopping_mall;point_of_interest;establishment,shopping_mall,Suong
ChIJk1ao07GdDDER0tBMPD5-zdU,иҜҡдҝЎйҡҶжү№еҸ‘и¶…еёӮзү№жң¬е…Ӣи’ҷеә—бһ бһ¶бһ„ бһҶбҹҒбһ„ бһҹбҹҠбһёбһЎбһ»бһ„ бһӣбһҖбҹӢбһҠбһ»бҹҶ бһ•бҹ’бһҹбһ¶бһҡбһ‘бҹҶбһ“бһҫбһ” бһҸбҹ’бһ”бһјбһ„бһғбҹ’бһҳбһ»бҹҶ,urban,shopping_mall,Shopping Mall,shopping,11.6767088,105.9707889,"Cambodia, National Road No 72 District, Trapaing Phong Commune",,,,OPERATIONAL,,https://maps.google.com/?cid=15406108706069074130&g_mp=Cilnb29nbGUubWFwcy5wbGFjZXMudjEuUGxhY2VzLlNlYXJjaE5lYXJieRACGAQgAA,shopping_mall;point_of_interest;establishment,shopping_mall,Suong
ChIJ12pzfACBDDERejpwRlEywEg,JD International Plazaдә¬дёңеӣҪйҷ…е№ҝеңә,urban,shopping_mall,Shopping Mall,shopping,11.638217,105.809216,"JRQ5+7MP, Kandaol Chrum, Cambodia",5,1,,OPERATIONAL,http://www.jd.com/,https://maps.google.com/?cid=5242245290914757242&g_mp=Cilnb29nbGUubWFwcy5wbGFjZXMudjEuUGxhY2VzLlNlYXJjaE5lYXJieRACGAQgAA,shopping_mall;point_of_interest;establishment,shopping_mall,Suong
ChIJOdGpfwOXDDERPjEqtqHcGws,MTST AGRO,urban,manufacturer,Manufacturer,shopping,11.8005383,106.1185555,"NR7, 250313, Cambodia",4.6,7,,OPERATIONAL,,https://maps.google.com/?cid=800475945892458814&g_mp=Cilnb29nbGUubWFwcy5wbGFjZXMudjEuUGxhY2VzLlNlYXJjaE5lYXJieRACGAQgAA,manufacturer;shopping_mall;point_of_interest;establishment,shopping_mall,Suong
ChIJLaPrIup9DDERwqc4icJqusM,бһ’бһҝбһ“ бһҺбһ¶бһӮбҹ’бһҡбһё бһӣбһҖбҹӢбһ‘бҹҶбһ“бһ·бһүбһӮбҹ’бһҡбһ”бҹӢбһҳбһ»бһҒ,urban,shopping_mall,Shopping Mall,shopping,11.7447739,105.70266219999999,"PPV3+W33, Cambodia",5,3,,OPERATIONAL,,https://maps.google.com/?cid=14103702566822520770&g_mp=Cilnb29nbGUubWFwcy5wbGFjZXMudjEuUGxhY2VzLlNlYXJjaE5lYXJieRACGAQgAA,shopping_mall;point_of_interest;establishment,shopping_mall,Suong
ChIJT_HRcwCFDDERz0pHw077bZg,бһ бһ¶бһ„бһ“бҹҶбһҒбҹҒбһҖбһўбһҹбҹӢбһҖбһ„бҹ’бһңбһӣбҹӢ(иӣӢзі•еә—),urban,shopping_mall,Shopping Mall,shopping,11.759972,105.9453241,"72, Cambodia",4.8,4,,OPERATIONAL,,https://maps.google.com/?cid=10983711381928757967&g_mp=Cilnb29nbGUubWFwcy5wbGFjZXMudjEuUGxhY2VzLlNlYXJjaE5lYXJieRACGAQgAA,shopping_mall;bakery;food_store;store;food;point_of_interest;establishment,shopping_mall,Suong
ChIJgyrWy2FrDDERFUp7nqtV2n8,LBN Mart,urban,shopping_mall,Shopping Mall,shopping,11.9897352,105.46662339999999,"XFQ8+VJX, Unnamed Road, Krong Kampong Cham, Cambodia",,,,OPERATIONAL,,https://maps.google.com/?cid=9212770183326419477&g_mp=Cilnb29nbGUubWFwcy5wbGFjZXMudjEuUGxhY2VzLlNlYXJjaE5lYXJieRACGAQgAA,shopping_mall;point_of_interest;establishment,shopping_mall,Suong
ChIJd3w56p1rDDERtpS73RlBXL8,бһҳбҹүбҹҒбһ„ бһҡбһҸбһ“:,urban,shopping_mall,Shopping Mall,shopping,11.970419699999999,105.47732239999999,"бһ•бҹ’бһҹбһ¶бһ‘бһ“бҹ’бһӣбҹҒбһ”бһ·бһ‘, Tonle Bet, Cambodia",4.6,7,,OPERATIONAL,,https://maps.google.com/?cid=13788967738451662006&g_mp=Cilnb29nbGUubWFwcy5wbGFjZXMudjEuUGxhY2VzLlNlYXJjaE5lYXJieRACGAQgAA,shopping_mall;pharmacy;health;store;point_of_interest;establishment,shopping_mall,Suong
ChIJdYG2Jrp1DDERU1bodl24Tdk,бһ бһ¶бһ„бһ…бһ¶бһ”бҹӢбһ бһҪбһҷ бһӣбһёбһҳвҖӢ бһҶбһ»бһ“бһўбҹҶбһ–бһ·бһӣбһҖбҹ’бһҡбҹ…,urban,shopping_mall,Shopping Mall,shopping,11.7325427,105.4649776,"PFM7+2X9, Lngeun, Cambodia",5,1,,OPERATIONAL,,https://maps.google.com/?cid=15658374191003489875&g_mp=Cilnb29nbGUubWFwcy5wbGFjZXMudjEuUGxhY2VzLlNlYXJjaE5lYXJieRACGAQgAA,shopping_mall;point_of_interest;establishment,shopping_mall,Suong
ChIJ95VtRYqlDDERnoV1GWKPZH8,Border Post CambodiaвҖ“Viet Nam 94,attraction,tourist_attraction,Tourist Attraction,,11.70436,106.27091019999999,"P73C+P9V, Unnamed Road, Choam, Memot, Tbong Khmum Province, Cambodia",4.3,16,,OPERATIONAL,,https://maps.google.com/?cid=9179619591984612766&g_mp=Cilnb29nbGUubWFwcy5wbGFjZXMudjEuUGxhY2VzLlNlYXJjaE5lYXJieRACGAQgAA,tourist_attraction;point_of_interest;establishment,tourist_attraction,Memot rubber plantations
ChIJxQpWEQCZDDERHXmw_b5xuvc,Border,attraction,tourist_attraction,Tourist Attraction,,11.775889999999999,106.07820799999999,"Q3GH+97, Cambodia",4.6,5,,OPERATIONAL,,https://maps.google.com/?cid=17850705138150308125&g_mp=Cilnb29nbGUubWFwcy5wbGFjZXMudjEuUGxhY2VzLlNlYXJjaE5lYXJieRACGAQgAA,tourist_attraction;point_of_interest;establishment,tourist_attraction,Memot rubber plantations
ChIJTW95ol6jDDERALQZ3BVU2Z0,Border Post Cambodia - Vietnam,attraction,tourist_attraction,Tourist Attraction,,11.7490715,106.1719947,"254, Cambodia",4.2,5,,OPERATIONAL,,https://maps.google.com/?cid=11374214786764616704&g_mp=Cilnb29nbGUubWFwcy5wbGFjZXMudjEuUGxhY2VzLlNlYXJjaE5lYXJieRACGAQgAA,tourist_attraction;point_of_interest;establishment,tourist_attraction,Memot rubber plantations
ChIJfQz9g9yZDDERUWDzs48f1IA,Border Post Cambodia - Vietnam,attraction,tourist_attraction,Tourist Attraction,,11.7660223,106.0859809,"Q38P+C95, Unnamed, Road, Memot, Tbong Khmum Province, Cambodia",3,4,,OPERATIONAL,,https://maps.google.com/?cid=9283079433977290833&g_mp=Cilnb29nbGUubWFwcy5wbGFjZXMudjEuUGxhY2VzLlNlYXJjaE5lYXJieRACGAQgAA,tourist_attraction;point_of_interest;establishment,tourist_attraction,Memot rubber plantations
ChIJnfqFCQCdDDERJAoyFtFXekw,дёғеҸ·е°Ҹй•Ү,attraction,tourist_attraction,Tourist Attraction,,11.689995699999999,105.97024599999999,"Cambodia, DistrictMXQC+X3",,,,OPERATIONAL,,https://maps.google.com/?cid=5510813649573382692&g_mp=Cilnb29nbGUubWFwcy5wbGFjZXMudjEuUGxhY2VzLlNlYXJjaE5lYXJieRACGAQgAA,tourist_attraction;point_of_interest;establishment,tourist_attraction,Memot rubber plantations
ChIJd6rKq7ajDDERoVlGWERdHSI,Border Post Vietnam - Cambodia 96,attraction,tourist_attraction,Tourist Attraction,,11.726267300000002,106.24223029999999,"Unnamed Road, P6GR+GV5, Chan Mul, Memot, Tbong Khmum Province, Cambodia",5,2,,OPERATIONAL,,https://maps.google.com/?cid=2458223519734323617&g_mp=Cilnb29nbGUubWFwcy5wbGFjZXMudjEuUGxhY2VzLlNlYXJjaE5lYXJieRACGAQgAA,tourist_attraction;point_of_interest;establishment,tourist_attraction,Memot rubber plantations
ChIJN67afgC9DDERmOwKMQEMwDM,бһ…бҹҶбһҖбһ¶бһҡбһ‘бһ»бһҡбҹҒбһ“бһ”бһ»бһҡбһ¶бһҺбһҳбҹҒбһҳбһҸбҹӢ бһ—бһјбһҳбһ·бһҠбһҖбҹӢбһ–,attraction,tourist_attraction,Tourist Attraction,,11.7982707,106.1679637,"Q5X9+85, Memot, Cambodia",,,,OPERATIONAL,,https://maps.google.com/?cid=3728993690720070808&g_mp=Cilnb29nbGUubWFwcy5wbGFjZXMudjEuUGxhY2VzLlNlYXJjaE5lYXJieRACGAQgAA,tourist_attraction;point_of_interest;establishment,tourist_attraction,Memot rubber plantations
ChIJN3WspjGjDDERZqN4XNmsTdI,Border Post 97 Cambodia-Vietnam,attraction,tourist_attraction,Tourist Attraction,,11.730979999999999,106.2256328,"P6JG+97R, Unnamed, Road, TГўn ДҗГҙng, TГўy Ninh, Vietnam",4.5,4,,OPERATIONAL,,https://maps.google.com/?cid=15153958370730877798&g_mp=Cilnb29nbGUubWFwcy5wbGFjZXMudjEuUGxhY2VzLlNlYXJjaE5lYXJieRACGAQgAA,tourist_attraction;point_of_interest;establishment,tourist_attraction,Memot rubber plantations
ChIJG4ihBZqvDDERkM6_aWs7BZw,Border post Cambodia-Vietnam No. 84,attraction,tourist_attraction,Tourist Attraction,,11.6952596,106.3838949,"ДҗT792, Vietnam",4.5,4,,OPERATIONAL,,https://maps.google.com/?cid=11242457377322028688&g_mp=Cilnb29nbGUubWFwcy5wbGFjZXMudjEuUGxhY2VzLlNlYXJjaE5lYXJieRACGAQgAA,tourist_attraction;point_of_interest;establishment,tourist_attraction,Memot rubber plantations
ChIJz-nOnOKvDDERDT8-EVzEUp0,бһ”бһ„бҹ’бһӮбҹ„бһӣбһ–бҹ’бһҡбҹҶбһҠбҹӮбһ“ бһҖбһҳбҹ’бһ–бһ»бһҮбһ¶-бһңбҹҖбһҸбһҺбһ¶бһҳ,attraction,tourist_attraction,Tourist Attraction,,11.686917,106.4037986,"MCP3+QG7, ДҗT792, Vietnam",4.7,3,,OPERATIONAL,,https://maps.google.com/?cid=11336339111750287117&g_mp=Cilnb29nbGUubWFwcy5wbGFjZXMudjEuUGxhY2VzLlNlYXJjaE5lYXJieRACGAQgAA,tourist_attraction;point_of_interest;establishment,tourist_attraction,Memot rubber plantations
ChIJz2siwx6VDDER0QGlDbdqwq4,бһ”бҹҒбһ“ бһҠбһјбһ”бҹғ Bean Dubai,attraction,tourist_attraction,Tourist Attraction,,11.92325,106.097301,"W3FW+7W, Khum Koky, Cambodia",5,1,,OPERATIONAL,,https://maps.google.com/?cid=12592744842521805265&g_mp=Cilnb29nbGUubWFwcy5wbGFjZXMudjEuUGxhY2VzLlNlYXJjaE5lYXJieRACGAQgAA,tourist_attraction;point_of_interest;establishment,tourist_attraction,Memot rubber plantations
ChIJh9vpY33rDDERcpdN2WWNFcI,бһ…бһҳбҹ’бһҖбһ¶бһҡбһҳбҹ’бһҡбҹҒбһ…бһ–бһјбһ бҹҶ,attraction,tourist_attraction,Tourist Attraction,,11.9845071,106.1052234,"X4M4+R35, Cambodia",3,1,,OPERATIONAL,,https://maps.google.com/?cid=13985239686445897586&g_mp=Cilnb29nbGUubWFwcy5wbGFjZXMudjEuUGxhY2VzLlNlYXJjaE5lYXJieRACGAQgAA,tourist_attraction;point_of_interest;establishment,tourist_attraction,Memot rubber plantations
ChIJe-32imOTDDERe9w10NtEcck,mlub houng,attraction,tourist_attraction,Tourist Attraction,,11.9640648,106.02905009999999,"X27H+JJ, Phum Bang Hekley, Cambodia",4.7,3,,OPERATIONAL,,https://maps.google.com/?cid=14515458784873536635&g_mp=Cilnb29nbGUubWFwcy5wbGFjZXMudjEuUGxhY2VzLlNlYXJjaE5lYXJieRACGAQgAA,tourist_attraction;point_of_interest;establishment,tourist_attraction,Memot rubber plantations
ChIJn4Wl4fCVDDER_DwXWXMbiQg,бһ”бҹҒбһ“KP,attraction,tourist_attraction,Tourist Attraction,,11.918732,106.09729899999999,"W39W+FW, Khum Koky, Cambodia",3.5,4,,OPERATIONAL,,https://maps.google.com/?cid=615053006342667516&g_mp=Cilnb29nbGUubWFwcy5wbGFjZXMudjEuUGxhY2VzLlNlYXJjaE5lYXJieRACGAQgAA,tourist_attraction;point_of_interest;establishment,tourist_attraction,Memot rubber plantations
ChIJNZs7XQC9DDERs2clw69fdm4,бһ•бҹғбһҳбһ»бһ“бҹ’бһ“бһёбһ…бҹҶбһ”бһҖбҹӢ,attraction,tourist_attraction,Tourist Attraction,,11.8301955,106.17867869999999,"R5JH+3FF, Memot, Cambodia",,,,OPERATIONAL,,https://maps.google.com/?cid=7959654599921854387&g_mp=Cilnb29nbGUubWFwcy5wbGFjZXMudjEuUGxhY2VzLlNlYXJjaE5lYXJieRACGAQgAA,tourist_attraction;point_of_interest;establishment,tourist_attraction,Memot rubber plantations
ChIJ1U0VAgC9DDERyhyAyMzScvc,бһҡбһјбһ”бһҹбҹҶбһҺбһ¶бһҖбһ‘бһ»бһҡбҹҒбһ“бһҸбһ¶бһҖбһ¶бҹҶбһ„ (Ta Kaing Durian Statue),attraction,tourist_attraction,Tourist Attraction,,11.8136327,106.226749,"R67G+FM, ChhkГӘ Aet, Cambodia",,,,OPERATIONAL,,https://maps.google.com/?cid=17830545651692215498&g_mp=Cilnb29nbGUubWFwcy5wbGFjZXMudjEuUGxhY2VzLlNlYXJjaE5lYXJieRACGAQgAA,tourist_attraction;point_of_interest;establishment,tourist_attraction,Memot rubber plantations
ChIJJzzCVwCXDDER29i726BTccM,жҰҙиҺІеҶңеңәй»‘еҲәе’ҢзҢ«еұұзҺӢ,attraction,tourist_attraction,Tourist Attraction,,11.7996403,106.1171804,"HW4R+Q5, бһ—бҹ’бһ“бҹҶбһ–бҹҒбһү, Cambodia",,,,OPERATIONAL,,https://maps.google.com/?cid=14083129460110645467&g_mp=Cilnb29nbGUubWFwcy5wbGFjZXMudjEuUGxhY2VzLlNlYXJjaE5lYXJieRACGAQgAA,tourist_attraction;point_of_interest;establishment,tourist_attraction,Memot rubber plantations
ChIJKcV5m5-9DDERmxRZjHvM9t4,Memot Archaeological Museum,cultural,museum,Museum,sightseeing,11.8297788,106.18065469999999,"R5HJ+W76, NR7, Memot, Cambodia",3.6,14,,OPERATIONAL,,https://maps.google.com/?cid=16066253551698515099&g_mp=Cilnb29nbGUubWFwcy5wbGFjZXMudjEuUGxhY2VzLlNlYXJjaE5lYXJieRACGAQgAA,museum;point_of_interest;establishment,museum,Memot rubber plantations
ChIJvcu_HCrrDDER80Ga-BMfB7o,BEN 41 GT,cultural,museum,Museum,sightseeing,11.980043499999999,106.10842199999999,"X4J5+297, Cambodia",4.4,5,,OPERATIONAL,,https://maps.google.com/?cid=13404716986527269363&g_mp=Cilnb29nbGUubWFwcy5wbGFjZXMudjEuUGxhY2VzLlNlYXJjaE5lYXJieRACGAQgAA,museum;point_of_interest;establishment,museum,Memot rubber plantations
ChIJbR0k2s1fCzERZrpwPy_m7ik,ДҗбәҘt ChГәa,cultural,museum,Museum,sightseeing,11.593787899999999,106.16320189999999,"H5V7+G78, TГўn BГ¬nh, TГўn Hб»ҷi, TГўy Ninh, Vietnam",4.4,7,,OPERATIONAL,,https://maps.google.com/?cid=3021605490614385254&g_mp=Cilnb29nbGUubWFwcy5wbGFjZXMudjEuUGxhY2VzLlNlYXJjaE5lYXJieRACGAQgAA,museum;point_of_interest;establishment,museum,Memot rubber plantations
ChIJOw5T4JFfCzERH5Kc65iacU4,CNC mб»№ nghб»Ү Yбәҝn Nhi,cultural,museum,Museum,sightseeing,11.566547499999999,106.1652848,"H588+J47, Tan Chau, Tay Ninh, Vietnam",5,1,,OPERATIONAL,,https://maps.google.com/?cid=5652468988905296415&g_mp=Cilnb29nbGUubWFwcy5wbGFjZXMudjEuUGxhY2VzLlNlYXJjaE5lYXJieRACGAQgAA,museum;point_of_interest;establishment,museum,Memot rubber plantations
ChIJ-zIvsNm7DDERRaZKqEiMNaE,бһҮбҹ’бһҡбҹғбһЎбһҫбһ„,cultural,historical_landmark,Historical Landmark,,11.8311376,106.3164424,"R8J8+FH, Kdol Kraom, Cambodia",4,4,,OPERATIONAL,,https://maps.google.com/?cid=11616345057561060933&g_mp=Cilnb29nbGUubWFwcy5wbGFjZXMudjEuUGxhY2VzLlNlYXJjaE5lYXJieRACGAQgAA,historical_landmark;historical_place;point_of_interest;establishment,historical_landmark,Memot rubber plantations
ChIJyYmQYACPDDERZAi79aIC0a0,бһ—бһјбһҳбһ·вҖӢбһҳбһјбһӣбһӣбҹ’бһңбҹҒ,cultural,historical_landmark,Historical Landmark,,11.8268562,105.9504623,"RXG2+P5, Ponhea Kraek District, Cambodia",5,1,,OPERATIONAL,,https://maps.google.com/?cid=12524794937624692836&g_mp=Cilnb29nbGUubWFwcy5wbGFjZXMudjEuUGxhY2VzLlNlYXJjaE5lYXJieRACGAQgAA,historical_landmark;historical_place;point_of_interest;establishment,historical_landmark,Memot rubber plantations
ChIJrQiRFwC7DDERYYjDMIqbVPs,бһ—бһјбһҳбһ·бһғбҹ’бһҳбһҪбһҡ,cultural,historical_landmark,Historical Landmark,,11.8250879,106.27795809999999,"R7GH+25P, Damnak Sleng, Cambodia",,,,OPERATIONAL,,https://maps.google.com/?cid=18110271019389519969&g_mp=Cilnb29nbGUubWFwcy5wbGFjZXMudjEuUGxhY2VzLlNlYXJjaE5lYXJieRACGAQgAA,historical_landmark;historical_place;point_of_interest;establishment,historical_landmark,Memot rubber plantations
ChIJPz5YNLybDDER1JDNXzDTqiY,NhГ  Bia Ban Kiб»ғm tra Trung Ж°ЖЎng cб»Ҙc Miб»Ғn Nam,cultural,historical_landmark,Historical Landmark,,11.710811600000001,106.008466,"P265+89G, Tan Lap, Tay Ninh, Vietnam",4.4,8,,OPERATIONAL,,https://maps.google.com/?cid=2786271524201271508&g_mp=Cilnb29nbGUubWFwcy5wbGFjZXMudjEuUGxhY2VzLlNlYXJjaE5lYXJieRACGAQgAA,historical_landmark;historical_place;point_of_interest;establishment,historical_landmark,Memot rubber plantations
ChIJyRm9HgCdDDERVUf_cCDLo48,Khu di tГӯch TrЖ°б»қng ДҗбәЈng miб»Ғn Nam ( Tiб»Ғn thГўn cб»§a Hб»Қc viб»Үn ChГӯnh trб»Ӣ Khu vб»ұc 2),cultural,historical_landmark,Historical Landmark,,11.702838,106.00508420000001,"P234+42P, Tan Lap, Tay Ninh, Vietnam",5,3,,OPERATIONAL,http://hcma2.hcma.vn/,https://maps.google.com/?cid=10350339708822701909&g_mp=Cilnb29nbGUubWFwcy5wbGFjZXMudjEuUGxhY2VzLlNlYXJjaE5lYXJieRACGAQgAA,historical_landmark;historical_place;point_of_interest;establishment,historical_landmark,Memot rubber plantations
